~Version Information
VERS.                     2.0: CWLS log ASCII Standard Version 2.00
WRAP.                      NO: One line per depth step

~Well Information Block
#MNEM.UNIT                 Value                       Information
#------------              -----                       -----------
STRT.M                    145.9000                    :START
STOP.M                   3681.9000                    :STOP
STEP.M                      0.1000                    :STEP
NULL.                     -999.25                     :NULL VALUE
COMP.         Statoil Petroleum AS                    :Company
WELL.         15/9-F-1 A                              :Well
FLD .         VOLVE                                   :Field
LOC .         Maersk Inspirer                         :Location
PROV.                                                 :Province
CNTY.         Unused                                  :County
STATE.                                                 :State
CTRY.                                                 :Country
DATE.                                                 :Log Date
SRVC.                                                 :Service Company
UWI .         1A                                     :Unique Well Identifier
API .                                                 :API Number
LATI.         058 26' 29.907" N    DMS                :Latitude
LONG.         001 53' 14.708" E    DMS                :Longtitude
PD  .         MSL                                     :Permanent Datum
ELZ .M                 0.0000                         :Elev. Log Zero

~Curve Information
#MNEM   .UNIT             API CODE Curve Description
#------------             -------- -----------------
DEPTH   .M            00 001 00 00:   0  Depth
BS      .inches       00 000 00 00:   5  BS:COMPOSITE:rC:NONE:v1
CALI    .inches       70 280 00 01:   6  CALI:COMPOSITE:rC:0001:v1
DRHO    .g/cm3        45 356 01 01:   7  DRHO:COMPOSITE:rC:0001:v1
DT      .us/ft        60 520 32 01:   8  DT:COMPOSITE:rC:0001:v1
DTS     .us/ft        00 000 00 00:   9  DTS:COMPOSITE:rC:0001:v1
GR      .API          30 150 01 01:  10  GR:COMPOSITE:rC:0001:v1
NPHI    .v/v          42 890 01 01:  11  NPHI:COMPOSITE:rC:0001:v1
PEF     .b/elec       45 358 01 01:  12  PEF:COMPOSITE:rC:0001:v1
RACEHM  .UNKNOWN      95 220 00 01:  13  RACEHM:COMPOSITE:rC:0001:v1
RACELM  .UNKNOWN      00 524 01 00:  14  RACELM:COMPOSITE:rC:0001:v1
RHOB    .g/cm3        45 350 01 01:  15  RHOB:COMPOSITE:rC:0001:v1
ROP     .m/hr         00 000 00 00:  16  ROP:COMPOSITE:rC:0001:v1
RPCEHM  .UNKNOWN      00 000 00 00:  17  RPCEHM:COMPOSITE:rC:0001:v1
RPCELM  .UNKNOWN      00 000 00 00:  18  RPCELM:COMPOSITE:rC:0001:v1
RT      .ohm.m        00 000 00 00:  19  RT:COMPOSITE:rC:0001:v1

~Parameter Information
#MNEM.UNIT       Value           Description
#------------    -----           -----------
HLD .         Terms and Conditions.:Header Legal Disclaimer
RUN .         1                 :Run number

~Other Information
# Subset of the Equinor Volve composite LAS (andymcdgeo/Petrophysics-Python-Series Data/Volve): unused columns removed; data rows copied verbatim. Thinned to every 2nd depth sample (0.2 m) for web delivery.
PETROPHYSICAL INTERPRETATION: INPUT

# --- LOG MNEMONICS AND UNITS ---
#Depth          ABDCQF01        ABDCQF02        ABDCQF03        ABDCQF04        BS              CALI            DRHO            DT              DTS             GR              NPHI            PEF             RACEHM          RACELM          RHOB            ROP             RPCEHM          RPCELM          RT             
#M              g/cm3           g/cm3           g/cm3           g/cm3           inches          inches          g/cm3           us/ft           us/ft           API             v/v             b/elec          UNKNOWN         UNKNOWN         g/cm3           m/hr            UNKNOWN         UNKNOWN         ohm.m          

~A
# ...
1617.3000 17.5000 -999.25 -999.25 -999.25 -999.25 70.6568 -999.25 -999.25 1.0769 1.0479 -999.25 29.9307 1.0122 1.0115 1.0122
1617.5000 17.5000 -999.25 -999.25 -999.25 -999.25 75.5725 -999.25 -999.25 1.0698 1.0455 -999.25 29.9208 0.9917 0.9978 0.9917
1617.7000 17.5000 -999.25 -999.25 -999.25 -999.25 78.0598 -999.25 -999.25 1.0609 1.0380 -999.25 29.9361 0.9678 0.9829 0.9678
1617.9000 17.5000 -999.25 -999.25 -999.25 -999.25 80.7193 -999.25 -999.25 1.0529 1.0322 -999.25 29.9764 0.9583 0.9744 0.9583
1618.1000 17.5000 -999.25 -999.25 -999.25 -999.25 79.8042 -999.25 -999.25 1.0453 1.0239 -999.25 29.9635 0.9466 0.9649 0.9466
1618.3000 17.5000 -999.25 -999.25 -999.25 -999.25 78.0985 -999.25 -999.25 1.0378 1.0184 -999.25 29.9506 0.9435 0.9600 0.9435
1618.5000 17.5000 -999.25 -999.25 -999.25 -999.25 79.5367 -999.25 -999.25 1.0345 1.0118 -999.25 29.9376 0.9314 0.9474 0.9314
1618.7000 17.5000 -999.25 -999.25 -999.25 -999.25 86.4595 -999.25 -999.25 1.0242 1.0069 -999.25 29.9250 0.9171 0.9354 0.9171
1618.9000 17.5000 -999.25 -999.25 -999.25 -999.25 80.8035 -999.25 -999.25 1.0228 1.0040 -999.25 29.9404 0.9234 0.9351 0.9234
1619.1000 17.5000 -999.25 -999.25 -999.25 -999.25 81.4204 -999.25 -999.25 1.0099 0.9961 -999.25 29.9833 0.9469 0.9427 0.9469
1619.3000 17.5000 -999.25 -999.25 -999.25 -999.25 85.1634 -999.25 -999.25 1.0130 0.9952 -999.25 29.9704 0.9205 0.9283 0.9205
1619.5000 17.5000 -999.25 -999.25 -999.25 -999.25 82.4007 -999.25 -999.25 1.0057 0.9951 -999.25 29.9576 0.8922 0.9139 0.8922
1619.7000 17.5000 -999.25 -999.25 -999.25 -999.25 86.4897 -999.25 -999.25 0.9917 0.9925 -999.25 29.9449 0.8723 0.9044 0.8723
1619.9000 17.5000 -999.25 -999.25 -999.25 -999.25 89.0552 -999.25 -999.25 0.9898 0.9950 -999.25 29.9319 0.8581 0.8937 0.8581
1620.1000 17.5000 -999.25 -999.25 -999.25 -999.25 89.3253 -999.25 -999.25 0.9774 0.9979 -999.25 29.9471 0.8706 0.9038 0.8706
1620.3000 17.5000 -999.25 -999.25 -999.25 -999.25 86.6716 -999.25 -999.25 0.9924 1.0052 -999.25 29.9903 0.8722 0.9115 0.8722
1620.5000 17.5000 -999.25 -999.25 -999.25 -999.25 83.3919 -999.25 -999.25 1.0381 1.0183 -999.25 29.9773 0.9286 0.9471 0.9286
1620.7000 17.5000 -999.25 -999.25 -999.25 -999.25 73.8854 -999.25 -999.25 1.0571 1.0247 -999.25 29.9644 1.0201 0.9996 1.0201
1620.9000 17.5000 -999.25 -999.25 -999.25 -999.25 74.7189 -999.25 -999.25 1.0905 1.0342 -999.25 29.9515 1.0627 1.0246 1.0627
1621.1000 17.5000 -999.25 -999.25 -999.25 -999.25 71.2667 -999.25 -999.25 1.0834 1.0393 -999.25 29.9386 1.0424 1.0215 1.0424
1621.3000 17.5000 -999.25 -999.25 -999.25 -999.25 78.3361 -999.25 -999.25 1.0701 1.0434 -999.25 29.8684 1.0024 1.0045 1.0024
1621.5000 17.5000 -999.25 -999.25 -999.25 -999.25 75.4339 -999.25 -999.25 1.0610 1.0408 -999.25 29.7416 0.9780 0.9916 0.9780
1621.7000 17.5000 -999.25 -999.25 -999.25 -999.25 87.3244 -999.25 -999.25 1.0593 1.0378 -999.25 29.8992 0.9703 0.9823 0.9703
1621.9000 17.5000 -999.25 -999.25 -999.25 -999.25 85.9784 -999.25 -999.25 1.0551 1.0331 -999.25 29.9713 0.9676 0.9784 0.9676
1622.1000 17.5000 -999.25 -999.25 -999.25 -999.25 82.3956 -999.25 -999.25 1.0527 1.0300 -999.25 29.9585 0.9677 0.9742 0.9677
1622.3000 17.5000 -999.25 -999.25 -999.25 -999.25 83.9503 -999.25 -999.25 1.0444 1.0267 -999.25 30.0588 0.9577 0.9678 0.9577
1622.5000 17.5000 -999.25 -999.25 -999.25 -999.25 84.2556 -999.25 -999.25 1.0358 1.0241 -999.25 30.0740 0.9428 0.9601 0.9428
1622.7000 17.5000 -999.25 -999.25 -999.25 -999.25 82.0317 -999.25 -999.25 1.0388 1.0199 -999.25 30.0046 0.9397 0.9567 0.9397
1622.9000 17.5000 -999.25 -999.25 -999.25 -999.25 86.1955 -999.25 -999.25 1.0307 1.0124 -999.25 29.9913 0.9677 0.9642 0.9677
1623.1000 17.5000 -999.25 -999.25 -999.25 -999.25 86.0697 -999.25 -999.25 1.0270 1.0133 -999.25 28.6333 0.9435 0.9532 0.9435
1623.3000 17.5000 -999.25 -999.25 -999.25 -999.25 85.7520 -999.25 -999.25 1.0228 1.0112 -999.25 25.9383 0.9325 0.9473 0.9325
1623.5000 17.5000 -999.25 -999.25 -999.25 -999.25 79.5092 -999.25 -999.25 1.0216 1.0059 -999.25 23.3145 0.9560 0.9533 0.9560
1623.7000 17.5000 -999.25 -999.25 -999.25 -999.25 79.6685 -999.25 -999.25 1.0203 1.0057 -999.25 21.5040 0.9570 0.9546 0.9570
1623.9000 17.5000 -999.25 -999.25 -999.25 -999.25 86.7815 -999.25 -999.25 1.0211 1.0086 -999.25 20.5027 0.9166 0.9422 0.9166
1624.1000 17.5000 -999.25 -999.25 -999.25 -999.25 88.7333 -999.25 -999.25 1.0248 1.0136 -999.25 20.0220 0.9051 0.9403 0.9051
1624.3000 17.5000 -999.25 -999.25 -999.25 -999.25 87.6403 -999.25 -999.25 1.0412 1.0193 -999.25 19.5494 0.9222 0.9592 0.9222
1624.5000 17.5000 -999.25 -999.25 -999.25 -999.25 86.0101 -999.25 -999.25 1.0801 1.0217 -999.25 19.0854 0.9658 0.9774 0.9658
1624.7000 17.5000 -999.25 -999.25 -999.25 -999.25 77.3603 -999.25 -999.25 1.0539 1.0142 -999.25 18.8542 1.0294 0.9952 1.0294
1624.9000 17.5000 -999.25 -999.25 -999.25 -999.25 80.5098 -999.25 -999.25 1.0271 1.0111 -999.25 18.7252 0.9470 0.9644 0.9470
1625.1000 17.5000 -999.25 -999.25 -999.25 -999.25 81.2065 -999.25 -999.25 1.0132 1.0029 -999.25 18.6980 0.9212 0.9473 0.9212
1625.3000 17.5000 -999.25 -999.25 -999.25 -999.25 84.1181 -999.25 -999.25 1.0057 0.9939 -999.25 18.7328 0.9246 0.9397 0.9246
1625.5000 17.5000 -999.25 -999.25 -999.25 -999.25 87.3515 -999.25 -999.25 1.0014 0.9898 -999.25 18.7844 0.9153 0.9311 0.9153
1625.7000 17.5000 -999.25 -999.25 -999.25 -999.25 82.6258 -999.25 -999.25 0.9967 0.9880 -999.25 18.8522 0.8913 0.9194 0.8913
1625.9000 17.5000 -999.25 -999.25 -999.25 -999.25 84.6950 -999.25 -999.25 1.0031 0.9858 -999.25 18.8734 0.9092 0.9244 0.9092
1626.1000 17.5000 -999.25 -999.25 -999.25 -999.25 78.7675 -999.25 -999.25 0.9942 0.9787 -999.25 18.9448 0.9479 0.9425 0.9479
1626.3000 17.5000 -999.25 -999.25 -999.25 -999.25 76.4466 -999.25 -999.25 0.9980 0.9756 -999.25 19.0664 0.9540 0.9454 0.9540
1626.5000 17.5000 -999.25 -999.25 -999.25 -999.25 78.3370 -999.25 -999.25 0.9977 0.9726 -999.25 19.3234 0.9385 0.9390 0.9385
1626.7000 17.5000 -999.25 -999.25 -999.25 -999.25 76.9786 -999.25 -999.25 0.9860 0.9667 -999.25 19.5136 0.9262 0.9305 0.9262
1626.9000 17.5000 -999.25 -999.25 -999.25 -999.25 78.3346 -999.25 -999.25 0.9831 0.9604 -999.25 19.6373 0.9140 0.9206 0.9140
1627.1000 17.5000 -999.25 -999.25 -999.25 -999.25 73.8105 -999.25 -999.25 0.9842 0.9549 -999.25 19.7613 0.9052 0.9144 0.9052
1627.3000 17.5000 -999.25 -999.25 -999.25 -999.25 75.7861 -999.25 -999.25 0.9707 0.9445 -999.25 19.8667 0.9240 0.9148 0.9240
1627.5000 17.5000 -999.25 -999.25 -999.25 -999.25 81.8226 -999.25 -999.25 0.9605 0.9361 -999.25 19.9537 0.9017 0.9021 0.9017
1627.7000 17.5000 -999.25 -999.25 -999.25 -999.25 84.7006 -999.25 -999.25 0.9423 0.9285 -999.25 20.0406 0.8636 0.8812 0.8636
1627.9000 17.5000 -999.25 -999.25 -999.25 -999.25 84.6518 -999.25 -999.25 0.9374 0.9226 -999.25 20.0782 0.8525 0.8736 0.8525
1628.1000 17.5000 -999.25 -999.25 -999.25 -999.25 83.4128 -999.25 -999.25 0.9422 0.9157 -999.25 20.0669 0.8694 0.8731 0.8694
1628.3000 17.5000 -999.25 -999.25 -999.25 -999.25 82.8757 -999.25 -999.25 0.9388 0.9085 -999.25 20.0923 0.8671 0.8669 0.8671
1628.5000 17.5000 -999.25 -999.25 -999.25 -999.25 83.9686 -999.25 -999.25 0.9298 0.9046 -999.25 20.1207 0.8436 0.8547 0.8436
1628.7000 17.5000 -999.25 -999.25 -999.25 -999.25 88.5959 -999.25 -999.25 0.9141 0.8999 -999.25 20.1520 0.8383 0.8494 0.8383
1628.9000 17.5000 -999.25 -999.25 -999.25 -999.25 90.3582 -999.25 -999.25 0.9088 0.8985 -999.25 20.1145 0.8252 0.8424 0.8252
1629.1000 17.5000 -999.25 -999.25 -999.25 -999.25 87.8972 -999.25 -999.25 0.9162 0.9044 -999.25 20.0972 0.8043 0.8337 0.8043
1629.3000 17.5000 -999.25 -999.25 -999.25 -999.25 90.9406 -999.25 -999.25 0.9296 0.9075 -999.25 20.0999 0.8360 0.8479 0.8360
1629.5000 17.5000 -999.25 -999.25 -999.25 -999.25 84.1049 -999.25 -999.25 0.9430 0.9140 -999.25 20.1028 0.8687 0.8669 0.8687
1629.7000 17.5000 -999.25 -999.25 -999.25 -999.25 80.7509 -999.25 -999.25 0.9587 0.9261 -999.25 20.0905 0.8915 0.8933 0.8915
1629.9000 17.5000 -999.25 -999.25 -999.25 -999.25 81.1525 -999.25 -999.25 0.9722 0.9360 -999.25 20.0628 0.9211 0.9142 0.9211
