~Version Information
VERS.                     2.0: CWLS log ASCII Standard Version 2.00
WRAP.                      NO: One line per depth step

~Well Information Block
#MNEM.UNIT                 Value                       Information
#------------              -----                       -----------
STRT.M                    145.9000                    :START
STOP.M                   3681.9000                    :STOP
STEP.M                      0.1000                    :STEP
NULL.                     -999.25                     :NULL VALUE
COMP.         Statoil Petroleum AS                    :Company
WELL.         15/9-F-1 A                              :Well
FLD .         VOLVE                                   :Field
LOC .         Maersk Inspirer                         :Location
PROV.                                                 :Province
CNTY.         Unused                                  :County
STATE.                                                 :State
CTRY.                                                 :Country
DATE.                                                 :Log Date
SRVC.                                                 :Service Company
UWI .         1A                                     :Unique Well Identifier
API .                                                 :API Number
LATI.         058 26' 29.907" N    DMS                :Latitude
LONG.         001 53' 14.708" E    DMS                :Longtitude
PD  .         MSL                                     :Permanent Datum
ELZ .M                 0.0000                         :Elev. Log Zero

~Curve Information
#MNEM   .UNIT             API CODE Curve Description
#------------             -------- -----------------
DEPTH   .M            00 001 00 00:   0  Depth
BS      .inches       00 000 00 00:   5  BS:COMPOSITE:rC:NONE:v1
CALI    .inches       70 280 00 01:   6  CALI:COMPOSITE:rC:0001:v1
DRHO    .g/cm3        45 356 01 01:   7  DRHO:COMPOSITE:rC:0001:v1
DT      .us/ft        60 520 32 01:   8  DT:COMPOSITE:rC:0001:v1
DTS     .us/ft        00 000 00 00:   9  DTS:COMPOSITE:rC:0001:v1
GR      .API          30 150 01 01:  10  GR:COMPOSITE:rC:0001:v1
NPHI    .v/v          42 890 01 01:  11  NPHI:COMPOSITE:rC:0001:v1
PEF     .b/elec       45 358 01 01:  12  PEF:COMPOSITE:rC:0001:v1
RACEHM  .UNKNOWN      95 220 00 01:  13  RACEHM:COMPOSITE:rC:0001:v1
RACELM  .UNKNOWN      00 524 01 00:  14  RACELM:COMPOSITE:rC:0001:v1
RHOB    .g/cm3        45 350 01 01:  15  RHOB:COMPOSITE:rC:0001:v1
ROP     .m/hr         00 000 00 00:  16  ROP:COMPOSITE:rC:0001:v1
RPCEHM  .UNKNOWN      00 000 00 00:  17  RPCEHM:COMPOSITE:rC:0001:v1
RPCELM  .UNKNOWN      00 000 00 00:  18  RPCELM:COMPOSITE:rC:0001:v1
RT      .ohm.m        00 000 00 00:  19  RT:COMPOSITE:rC:0001:v1

~Parameter Information
#MNEM.UNIT       Value           Description
#------------    -----           -----------
HLD .         Terms and Conditions.:Header Legal Disclaimer
RUN .         1                 :Run number

~Other Information
# Subset of the Equinor Volve composite LAS (andymcdgeo/Petrophysics-Python-Series Data/Volve): unused columns removed; data rows copied verbatim. Thinned to every 2nd depth sample (0.2 m) for web delivery.
PETROPHYSICAL INTERPRETATION: INPUT

# --- LOG MNEMONICS AND UNITS ---
#Depth          ABDCQF01        ABDCQF02        ABDCQF03        ABDCQF04        BS              CALI            DRHO            DT              DTS             GR              NPHI            PEF             RACEHM          RACELM          RHOB            ROP             RPCEHM          RPCELM          RT             
#M              g/cm3           g/cm3           g/cm3           g/cm3           inches          inches          g/cm3           us/ft           us/ft           API             v/v             b/elec          UNKNOWN         UNKNOWN         g/cm3           m/hr            UNKNOWN         UNKNOWN         ohm.m          

~A
# ...
481.5000 26.0000 -999.25 -999.25 -999.25 -999.25 66.1487 -999.25 -999.25 1.4315 1.3346 -999.25 55.3260 1.3519 1.3261 1.3519
481.7000 26.0000 -999.25 -999.25 -999.25 -999.25 67.4954 -999.25 -999.25 1.4244 1.3312 -999.25 55.3399 1.3806 1.3337 1.3806
481.9000 26.0000 -999.25 -999.25 -999.25 -999.25 61.6633 -999.25 -999.25 1.4279 1.3254 -999.25 55.3133 1.3341 1.3155 1.3341
482.1000 26.0000 -999.25 -999.25 -999.25 -999.25 63.8466 -999.25 -999.25 1.4293 1.3352 -999.25 55.2459 1.4079 1.3205 1.4079
482.3000 26.0000 -999.25 -999.25 -999.25 -999.25 64.2274 -999.25 -999.25 1.4318 1.3380 -999.25 54.7635 1.3344 1.3391 1.3344
482.5000 26.0000 -999.25 -999.25 -999.25 -999.25 62.3898 -999.25 -999.25 1.4391 1.3245 -999.25 54.8195 1.4168 1.3424 1.4168
482.7000 26.0000 -999.25 -999.25 -999.25 -999.25 63.8895 -999.25 -999.25 1.4352 1.3310 -999.25 55.3986 1.3745 1.3332 1.3745
482.9000 26.0000 -999.25 -999.25 -999.25 -999.25 65.8617 -999.25 -999.25 1.4538 1.3331 -999.25 47.5717 1.4162 1.3385 1.4162
483.1000 26.0000 -999.25 -999.25 -999.25 -999.25 63.2741 -999.25 -999.25 1.4495 1.3434 -999.25 38.6924 1.3828 1.3549 1.3828
483.3000 26.0000 -999.25 -999.25 -999.25 -999.25 63.5256 -999.25 -999.25 1.4609 1.3406 -999.25 28.7669 1.4218 1.3499 1.4218
483.5000 26.0000 -999.25 -999.25 -999.25 -999.25 66.3457 -999.25 -999.25 1.4351 1.3462 -999.25 18.9882 1.3764 1.3510 1.3764
483.7000 26.0000 -999.25 -999.25 -999.25 -999.25 66.3645 -999.25 -999.25 1.4535 1.3443 -999.25 13.2562 1.4347 1.3436 1.4347
483.9000 26.0000 -999.25 -999.25 -999.25 -999.25 66.6834 -999.25 -999.25 1.4337 1.3558 -999.25 11.5646 1.3426 1.3533 1.3426
484.1000 26.0000 -999.25 -999.25 -999.25 -999.25 65.9079 -999.25 -999.25 1.4442 1.3605 -999.25 21.5499 1.3903 1.3502 1.3903
484.3000 26.0000 -999.25 -999.25 -999.25 -999.25 63.8433 -999.25 -999.25 1.4622 1.3785 -999.25 31.1048 1.3775 1.3769 1.3775
484.5000 26.0000 -999.25 -999.25 -999.25 -999.25 65.0709 -999.25 -999.25 1.4932 1.3835 -999.25 40.2318 1.4364 1.3925 1.4364
484.7000 26.0000 -999.25 -999.25 -999.25 -999.25 65.1046 -999.25 -999.25 1.5092 1.3845 -999.25 49.5486 1.5049 1.3662 1.5049
484.9000 26.0000 -999.25 -999.25 -999.25 -999.25 65.2454 -999.25 -999.25 1.4980 1.4009 -999.25 54.2695 1.4629 1.3914 1.4629
485.1000 26.0000 -999.25 -999.25 -999.25 -999.25 62.6761 -999.25 -999.25 1.5416 1.4086 -999.25 54.4210 1.4424 1.4022 1.4424
485.3000 26.0000 -999.25 -999.25 -999.25 -999.25 62.0952 -999.25 -999.25 1.5438 1.4239 -999.25 54.6730 1.5512 1.4227 1.5512
485.5000 26.0000 -999.25 -999.25 -999.25 -999.25 60.0041 -999.25 -999.25 1.5513 1.4293 -999.25 54.9328 1.5338 1.4758 1.5338
485.7000 26.0000 -999.25 -999.25 -999.25 -999.25 57.7262 -999.25 -999.25 1.5676 1.4492 -999.25 55.1994 1.5120 1.5051 1.5120
485.9000 26.0000 -999.25 -999.25 -999.25 -999.25 62.9003 -999.25 -999.25 1.5850 1.4487 -999.25 54.7172 1.5442 1.4867 1.5442
486.1000 26.0000 -999.25 -999.25 -999.25 -999.25 63.5934 -999.25 -999.25 1.5839 1.4570 -999.25 54.0363 1.5567 1.4633 1.5567
486.3000 26.0000 -999.25 -999.25 -999.25 -999.25 60.5038 -999.25 -999.25 1.6196 1.4648 -999.25 53.1576 1.4988 1.4485 1.4988
486.5000 26.0000 -999.25 -999.25 -999.25 -999.25 62.5685 -999.25 -999.25 1.5890 1.4484 -999.25 52.0762 1.5356 1.4460 1.5356
486.7000 26.0000 -999.25 -999.25 -999.25 -999.25 64.5160 -999.25 -999.25 1.5774 1.4647 -999.25 51.1854 1.5823 1.4889 1.5823
486.9000 26.0000 -999.25 -999.25 -999.25 -999.25 67.5964 -999.25 -999.25 1.5485 1.4615 -999.25 50.4850 1.5602 1.4890 1.5602
487.1000 26.0000 -999.25 -999.25 -999.25 -999.25 58.0262 -999.25 -999.25 1.5633 1.4570 -999.25 50.4598 1.5656 1.4943 1.5656
487.3000 26.0000 -999.25 -999.25 -999.25 -999.25 58.4922 -999.25 -999.25 1.5604 1.4552 -999.25 50.4069 1.4903 1.4562 1.4903
487.5000 26.0000 -999.25 -999.25 -999.25 -999.25 62.4271 -999.25 -999.25 1.5465 1.4590 -999.25 50.3267 1.5861 1.4904 1.5861
487.7000 26.0000 -999.25 -999.25 -999.25 -999.25 59.7416 -999.25 -999.25 1.5597 1.4451 -999.25 50.3015 1.5264 1.4890 1.5264
487.9000 26.0000 -999.25 -999.25 -999.25 -999.25 60.4474 -999.25 -999.25 1.5918 1.4448 -999.25 50.3021 1.5182 1.4404 1.5182
488.1000 26.0000 -999.25 -999.25 -999.25 -999.25 61.4284 -999.25 -999.25 1.5528 1.4281 -999.25 50.3286 1.5664 1.4405 1.5664
488.3000 26.0000 -999.25 -999.25 -999.25 -999.25 64.3086 -999.25 -999.25 1.5430 1.4333 -999.25 50.3588 1.5012 1.4557 1.5012
488.5000 26.0000 -999.25 -999.25 -999.25 -999.25 66.4437 -999.25 -999.25 1.5200 1.4309 -999.25 50.3586 1.5041 1.4153 1.5041
488.7000 26.0000 -999.25 -999.25 -999.25 -999.25 64.6347 -999.25 -999.25 1.5259 1.4331 -999.25 50.3282 1.4815 1.4441 1.4815
488.9000 26.0000 -999.25 -999.25 -999.25 -999.25 61.2564 -999.25 -999.25 1.5332 1.4293 -999.25 50.3427 1.5569 1.4549 1.5569
489.1000 26.0000 -999.25 -999.25 -999.25 -999.25 64.0862 -999.25 -999.25 1.5423 1.4153 -999.25 50.3512 1.5501 1.4426 1.5501
489.3000 26.0000 -999.25 -999.25 -999.25 -999.25 62.1561 -999.25 -999.25 1.5366 1.4181 -999.25 50.3536 1.5334 1.4296 1.5334
489.5000 26.0000 -999.25 -999.25 -999.25 -999.25 58.0609 -999.25 -999.25 1.5751 1.4205 -999.25 50.2984 1.4406 1.4321 1.4406
489.7000 26.0000 -999.25 -999.25 -999.25 -999.25 61.7924 -999.25 -999.25 1.5292 1.4125 -999.25 50.2751 1.4785 1.4303 1.4785
489.9000 26.0000 -999.25 -999.25 -999.25 -999.25 61.4834 -999.25 -999.25 1.5196 1.4358 -999.25 50.2835 1.4870 1.4897 1.4870
490.1000 26.0000 -999.25 -999.25 -999.25 -999.25 60.4901 -999.25 -999.25 1.5579 1.4293 -999.25 50.3135 1.4994 1.4595 1.4994
490.3000 26.0000 -999.25 -999.25 -999.25 -999.25 60.5958 -999.25 -999.25 1.5428 1.4342 -999.25 50.3436 1.5735 1.4666 1.5735
490.5000 26.0000 -999.25 -999.25 -999.25 -999.25 61.6941 -999.25 -999.25 1.5432 1.4313 -999.25 50.3738 1.5388 1.4517 1.5388
490.7000 26.0000 -999.25 -999.25 -999.25 -999.25 64.5894 -999.25 -999.25 1.5328 1.4337 -999.25 50.3434 1.4673 1.4365 1.4673
490.9000 26.0000 -999.25 -999.25 -999.25 -999.25 62.9245 -999.25 -999.25 1.5527 1.4232 -999.25 50.3317 1.4723 1.4365 1.4723
491.1000 26.0000 -999.25 -999.25 -999.25 -999.25 64.9453 -999.25 -999.25 1.5344 1.4298 -999.25 50.3387 1.5223 1.4530 1.5223
491.3000 26.0000 -999.25 -999.25 -999.25 -999.25 63.2882 -999.25 -999.25 1.5692 1.4289 -999.25 50.3412 1.5827 1.4491 1.5827
491.5000 26.0000 -999.25 -999.25 -999.25 -999.25 66.5177 -999.25 -999.25 1.5592 1.4286 -999.25 50.3437 1.5232 1.4510 1.5232
491.7000 26.0000 -999.25 -999.25 -999.25 -999.25 68.0545 -999.25 -999.25 1.5203 1.4143 -999.25 50.3461 1.4832 1.3741 1.4832
491.9000 26.0000 -999.25 -999.25 -999.25 -999.25 64.5201 -999.25 -999.25 1.5373 1.4170 -999.25 50.3040 1.4909 1.4374 1.4909
492.1000 26.0000 -999.25 -999.25 -999.25 -999.25 62.8532 -999.25 -999.25 1.5122 1.4247 -999.25 50.2982 1.4558 1.4295 1.4558
492.3000 26.0000 -999.25 -999.25 -999.25 -999.25 64.1609 -999.25 -999.25 1.5412 1.4196 -999.25 50.3284 1.4027 1.3759 1.4027
492.5000 26.0000 -999.25 -999.25 -999.25 -999.25 61.5629 -999.25 -999.25 1.5512 1.4112 -999.25 50.3586 1.5453 1.4283 1.5453
492.7000 26.0000 -999.25 -999.25 -999.25 -999.25 60.4795 -999.25 -999.25 1.5095 1.3970 -999.25 50.3416 1.4431 1.4115 1.4431
492.9000 26.0000 -999.25 -999.25 -999.25 -999.25 61.3720 -999.25 -999.25 1.5393 1.4062 -999.25 50.2778 1.4821 1.3949 1.4821
493.1000 26.0000 -999.25 -999.25 -999.25 -999.25 60.7750 -999.25 -999.25 1.5315 1.4025 -999.25 50.3108 1.4314 1.3980 1.4314
493.3000 26.0000 -999.25 -999.25 -999.25 -999.25 65.3211 -999.25 -999.25 1.5331 1.4044 -999.25 50.3286 1.4628 1.3895 1.4628
493.5000 26.0000 -999.25 -999.25 -999.25 -999.25 58.4167 -999.25 -999.25 1.5204 1.4054 -999.25 50.3066 1.4189 1.3733 1.4189
493.7000 26.0000 -999.25 -999.25 -999.25 -999.25 61.5647 -999.25 -999.25 1.5012 1.4077 -999.25 33.3153 1.3319 1.3823 1.3319
493.9000 26.0000 -999.25 -999.25 -999.25 -999.25 64.6549 -999.25 -999.25 1.4853 1.4157 -999.25 21.6301 1.3578 1.3639 1.3578
494.1000 26.0000 -999.25 -999.25 -999.25 -999.25 66.1428 -999.25 -999.25 1.5001 1.3951 -999.25 15.2256 1.3479 1.3709 1.3479
494.3000 26.0000 -999.25 -999.25 -999.25 -999.25 68.6514 -999.25 -999.25 1.4941 1.4077 -999.25 12.5922 1.3679 1.3472 1.3679
