~Version Information
VERS.                     2.0: CWLS log ASCII Standard Version 2.00
WRAP.                      NO: One line per depth step

~Well Information Block
#MNEM.UNIT                 Value                       Information
#------------              -----                       -----------
STRT.M                    145.9000                    :START
STOP.M                   3681.9000                    :STOP
STEP.M                      0.1000                    :STEP
NULL.                     -999.25                     :NULL VALUE
COMP.         Statoil Petroleum AS                    :Company
WELL.         15/9-F-1 A                              :Well
FLD .         VOLVE                                   :Field
LOC .         Maersk Inspirer                         :Location
PROV.                                                 :Province
CNTY.         Unused                                  :County
STATE.                                                 :State
CTRY.                                                 :Country
DATE.                                                 :Log Date
SRVC.                                                 :Service Company
UWI .         1A                                     :Unique Well Identifier
API .                                                 :API Number
LATI.         058 26' 29.907" N    DMS                :Latitude
LONG.         001 53' 14.708" E    DMS                :Longtitude
PD  .         MSL                                     :Permanent Datum
ELZ .M                 0.0000                         :Elev. Log Zero

~Curve Information
#MNEM   .UNIT             API CODE Curve Description
#------------             -------- -----------------
DEPTH   .M            00 001 00 00:   0  Depth
BS      .inches       00 000 00 00:   5  BS:COMPOSITE:rC:NONE:v1
CALI    .inches       70 280 00 01:   6  CALI:COMPOSITE:rC:0001:v1
DRHO    .g/cm3        45 356 01 01:   7  DRHO:COMPOSITE:rC:0001:v1
DT      .us/ft        60 520 32 01:   8  DT:COMPOSITE:rC:0001:v1
DTS     .us/ft        00 000 00 00:   9  DTS:COMPOSITE:rC:0001:v1
GR      .API          30 150 01 01:  10  GR:COMPOSITE:rC:0001:v1
NPHI    .v/v          42 890 01 01:  11  NPHI:COMPOSITE:rC:0001:v1
PEF     .b/elec       45 358 01 01:  12  PEF:COMPOSITE:rC:0001:v1
RACEHM  .UNKNOWN      95 220 00 01:  13  RACEHM:COMPOSITE:rC:0001:v1
RACELM  .UNKNOWN      00 524 01 00:  14  RACELM:COMPOSITE:rC:0001:v1
RHOB    .g/cm3        45 350 01 01:  15  RHOB:COMPOSITE:rC:0001:v1
ROP     .m/hr         00 000 00 00:  16  ROP:COMPOSITE:rC:0001:v1
RPCEHM  .UNKNOWN      00 000 00 00:  17  RPCEHM:COMPOSITE:rC:0001:v1
RPCELM  .UNKNOWN      00 000 00 00:  18  RPCELM:COMPOSITE:rC:0001:v1
RT      .ohm.m        00 000 00 00:  19  RT:COMPOSITE:rC:0001:v1

~Parameter Information
#MNEM.UNIT       Value           Description
#------------    -----           -----------
HLD .         Terms and Conditions.:Header Legal Disclaimer
RUN .         1                 :Run number

~Other Information
# Subset of the Equinor Volve composite LAS (andymcdgeo/Petrophysics-Python-Series Data/Volve): unused columns removed; data rows copied verbatim. Thinned to every 2nd depth sample (0.2 m) for web delivery.
PETROPHYSICAL INTERPRETATION: INPUT

# --- LOG MNEMONICS AND UNITS ---
#Depth          ABDCQF01        ABDCQF02        ABDCQF03        ABDCQF04        BS              CALI            DRHO            DT              DTS             GR              NPHI            PEF             RACEHM          RACELM          RHOB            ROP             RPCEHM          RPCELM          RT             
#M              g/cm3           g/cm3           g/cm3           g/cm3           inches          inches          g/cm3           us/ft           us/ft           API             v/v             b/elec          UNKNOWN         UNKNOWN         g/cm3           m/hr            UNKNOWN         UNKNOWN         ohm.m          

~A
# ...
3653.5000 8.5000 8.7031 0.0608 -999.25 -999.25 102.7990 0.1865 6.7439 2.4184 2.4326 2.6261 9.1966 2.4569 2.4345 2.4569
3653.7000 8.5000 8.7030 0.0633 -999.25 -999.25 98.6443 0.1743 6.7269 2.4067 2.4134 2.6253 9.2096 2.3545 2.3728 2.3545
3653.9000 8.5000 8.6719 0.0611 -999.25 -999.25 102.5163 0.1715 6.7582 2.3790 2.3888 2.6201 9.2063 2.3776 2.3697 2.3776
3654.1000 8.5000 8.6719 0.0568 -999.25 -999.25 103.9926 0.1798 6.7756 2.3766 2.3681 2.6147 9.2031 2.3753 2.3538 2.3753
3654.3000 8.5000 8.7031 0.0577 -999.25 -999.25 102.8146 0.1878 6.7772 2.3544 2.3488 2.6169 9.1998 2.4090 2.3583 2.4090
3654.5000 8.5000 8.7031 0.0584 -999.25 -999.25 101.7927 0.1904 6.8450 2.3321 2.3295 2.6149 9.1674 2.4173 2.3582 2.4173
3654.7000 8.5000 8.7030 0.0594 -999.25 -999.25 100.9393 0.1875 6.8618 2.3282 2.3140 2.6121 9.1642 2.4069 2.3512 2.4069
3654.9000 8.5000 8.6719 0.0604 -999.25 -999.25 101.9453 0.1870 6.6586 2.3403 2.2973 2.6119 9.1901 2.4432 2.3601 2.4432
3655.1000 8.5000 8.6719 0.0603 -999.25 -999.25 101.7867 0.1856 6.4840 2.3609 2.2944 2.6108 9.1879 2.4204 2.3474 2.4204
3655.3000 8.5000 8.7031 0.0562 -999.25 -999.25 100.5403 0.1822 6.4286 2.3256 2.2853 2.6035 9.1868 2.4214 2.3472 2.4214
3655.5000 8.5000 8.6797 0.0531 -999.25 -999.25 94.9072 0.1828 6.5058 2.2930 2.2740 2.5999 9.1867 2.3556 2.3027 2.3556
3655.7000 8.5000 8.7030 0.0532 -999.25 -999.25 101.4307 0.1787 6.7810 2.2639 2.2694 2.6086 9.1882 2.3212 2.2795 2.3212
3655.9000 8.5000 8.6719 0.0568 -999.25 -999.25 106.7728 0.1844 6.8513 2.2481 2.2723 2.6236 9.1743 2.2532 2.2519 2.2532
3656.1000 8.5000 8.6719 0.0647 -999.25 -999.25 105.5247 0.1919 6.7495 2.3145 2.2919 2.6284 9.1447 2.1254 2.2034 2.1254
3656.3000 8.5000 8.6927 0.0660 -999.25 -999.25 103.3991 0.1950 6.7253 2.2841 2.2922 2.6172 9.1476 2.2220 2.2524 2.2220
3656.5000 8.5000 8.6781 0.0652 -999.25 -999.25 103.0782 0.1971 6.7460 2.2843 2.2972 2.6127 9.1453 2.2558 2.2761 2.2558
3656.7000 8.5000 8.6719 0.0643 -999.25 -999.25 102.5040 0.1922 6.7388 2.3596 2.3159 2.6125 9.1378 2.1543 2.2485 2.1543
3656.9000 8.5000 8.6719 0.0620 -999.25 -999.25 101.8537 0.1886 6.7616 2.3733 2.3129 2.6084 9.1585 2.3281 2.3336 2.3281
3657.1000 8.5000 8.6927 0.0607 -999.25 -999.25 100.4968 0.1917 6.7783 2.3513 2.3027 2.6096 9.1795 2.4761 2.3912 2.4761
3657.3000 8.5000 8.6719 0.0560 -999.25 -999.25 95.4315 0.2108 6.7799 2.3754 2.3023 2.6109 9.2008 2.3991 2.3656 2.3991
3657.5000 8.5000 8.6719 0.0534 -999.25 -999.25 97.2937 -999.25 6.7551 2.3785 2.2997 2.6141 9.1830 2.3989 2.3639 2.3989
3657.7000 8.5000 8.6718 0.0599 -999.25 -999.25 96.5068 -999.25 6.6428 2.3769 2.2867 2.6214 9.1733 2.4274 2.3785 2.4274
3657.9000 8.5000 8.6719 0.0627 -999.25 -999.25 95.2286 -999.25 6.4993 2.3879 2.2703 2.6152 9.1716 2.4628 2.3827 2.4628
3658.1000 8.5000 8.7030 0.0587 -999.25 -999.25 89.2755 -999.25 6.4877 2.3580 2.2516 2.6040 9.1667 2.5693 2.4122 2.5693
3658.3000 8.5000 8.6719 0.0588 -999.25 -999.25 89.0179 -999.25 6.5686 2.3221 2.2310 2.6045 9.1647 2.5451 2.3880 2.5451
3658.5000 8.5000 8.7031 0.0632 -999.25 -999.25 97.3194 -999.25 6.5866 2.2700 2.2105 2.6133 9.1655 2.4292 2.3234 2.4292
3658.7000 8.5000 8.7031 0.0641 -999.25 -999.25 100.0642 -999.25 6.6053 2.1995 2.1800 2.6182 9.1670 2.1032 2.1495 2.1032
3658.9000 8.5000 8.6924 0.0640 -999.25 -999.25 101.3937 -999.25 6.6605 2.1383 2.1576 2.6186 9.1532 1.9014 2.0465 1.9014
3659.1000 8.5000 8.6960 0.0633 -999.25 -999.25 107.5910 -999.25 6.7579 2.1158 2.1423 2.6153 9.1238 1.8852 2.0273 1.8852
3659.3000 8.5000 8.6996 0.0620 -999.25 -999.25 110.4567 -999.25 6.9132 2.1265 2.1290 2.6087 9.0986 1.9015 2.0213 1.9015
3659.5000 8.5000 -999.25 0.0613 -999.25 -999.25 106.3393 -999.25 6.9524 2.1016 2.1055 2.6048 9.0935 2.1039 2.0933 2.1039
3659.7000 8.5000 -999.25 0.0604 -999.25 -999.25 101.9953 -999.25 6.8783 2.0514 2.0821 2.6037 9.1084 2.3248 2.1639 2.3248
3659.9000 8.5000 -999.25 0.0898 -999.25 -999.25 101.7882 -999.25 7.9123 2.0341 2.0731 2.5806 9.1246 2.2872 2.1402 2.2872
3660.1000 8.5000 -999.25 -999.25 -999.25 -999.25 107.3375 -999.25 -999.25 2.0443 2.0815 -999.25 9.1479 1.9665 2.0015 1.9665
3660.3000 8.5000 -999.25 -999.25 -999.25 -999.25 110.3542 -999.25 -999.25 2.0033 2.0828 -999.25 9.1785 1.8246 1.9367 1.8246
3660.5000 8.5000 -999.25 -999.25 -999.25 -999.25 109.5362 -999.25 -999.25 1.9947 2.0910 -999.25 9.1811 1.7988 1.9267 1.7988
3660.7000 8.5000 -999.25 -999.25 -999.25 -999.25 110.5975 -999.25 -999.25 1.9996 2.0998 -999.25 9.1836 1.8700 1.9664 1.8700
3660.9000 8.5000 -999.25 -999.25 -999.25 -999.25 108.8713 -999.25 -999.25 2.0269 2.1067 -999.25 9.1862 1.9703 2.0211 1.9703
3661.1000 8.5000 -999.25 -999.25 -999.25 -999.25 101.8319 -999.25 -999.25 2.0578 2.1138 -999.25 9.1879 2.0777 2.0711 2.0777
3661.3000 8.5000 -999.25 -999.25 -999.25 -999.25 102.3500 -999.25 -999.25 2.1058 2.1416 -999.25 9.1807 2.0912 2.1081 2.0912
3661.5000 8.5000 -999.25 -999.25 -999.25 -999.25 107.7171 -999.25 -999.25 2.1505 2.1521 -999.25 9.1648 2.2590 2.1860 2.2590
3661.7000 8.5000 -999.25 -999.25 -999.25 -999.25 114.8491 -999.25 -999.25 2.1655 2.1605 -999.25 9.1925 2.4024 2.2611 2.4024
3661.9000 8.5000 -999.25 -999.25 -999.25 -999.25 115.2646 -999.25 -999.25 2.1848 2.1669 -999.25 9.1966 2.2815 2.2215 2.2815
3662.1000 8.5000 -999.25 -999.25 -999.25 -999.25 109.2942 -999.25 -999.25 2.1892 2.1764 -999.25 9.1772 2.1673 2.1775 2.1673
3662.3000 8.5000 -999.25 -999.25 -999.25 -999.25 107.6549 -999.25 -999.25 2.1691 2.1758 -999.25 9.1762 2.1625 2.1784 2.1625
3662.5000 8.5000 -999.25 -999.25 -999.25 -999.25 108.2898 -999.25 -999.25 2.1893 2.1765 -999.25 9.1765 2.0886 2.1413 2.0886
3662.7000 8.5000 -999.25 -999.25 -999.25 -999.25 105.1863 -999.25 -999.25 2.1589 2.1702 -999.25 9.1781 2.1471 2.1652 2.1471
3662.9000 8.5000 -999.25 -999.25 -999.25 -999.25 105.8857 -999.25 -999.25 2.1709 2.1705 -999.25 9.1797 2.0601 2.1317 2.0601
3663.1000 8.5000 -999.25 -999.25 -999.25 -999.25 107.5092 -999.25 -999.25 2.1839 2.1658 -999.25 9.1813 2.0038 2.1059 2.0038
3663.3000 8.5000 -999.25 -999.25 -999.25 -999.25 105.8398 -999.25 -999.25 2.1606 2.1401 -999.25 9.1829 2.0845 2.1313 2.0845
3663.5000 8.5000 -999.25 -999.25 -999.25 -999.25 102.9822 -999.25 -999.25 2.1709 2.1246 -999.25 9.2010 2.1070 2.1333 2.1070
3663.7000 8.5000 -999.25 -999.25 -999.25 -999.25 104.9922 -999.25 -999.25 2.1613 2.1060 -999.25 9.2031 2.1810 2.1534 2.1810
3663.9000 8.5000 -999.25 -999.25 -999.25 -999.25 105.2672 -999.25 -999.25 2.1264 2.0879 -999.25 9.1892 2.2256 2.1590 2.2256
3664.1000 8.5000 -999.25 -999.25 -999.25 -999.25 103.0541 -999.25 -999.25 2.1442 2.0876 -999.25 9.1909 2.1265 2.1124 2.1265
3664.3000 8.5000 -999.25 -999.25 -999.25 -999.25 102.4729 -999.25 -999.25 2.1028 2.0719 -999.25 9.1975 2.0887 2.0870 2.0887
3664.5000 8.5000 -999.25 -999.25 -999.25 -999.25 105.8374 -999.25 -999.25 2.0384 2.0527 -999.25 9.2091 1.9697 2.0212 1.9697
3664.7000 8.5000 -999.25 -999.25 -999.25 -999.25 109.8501 -999.25 -999.25 2.0287 2.0390 -999.25 9.2175 1.9088 1.9764 1.9088
3664.9000 8.5000 -999.25 -999.25 -999.25 -999.25 109.2744 -999.25 -999.25 2.0389 2.0422 -999.25 9.2179 1.8856 1.9626 1.8856
3665.1000 8.5000 -999.25 -999.25 -999.25 -999.25 109.3747 -999.25 -999.25 1.9980 2.0299 -999.25 9.2101 1.9971 2.0067 1.9971
3665.3000 8.5000 -999.25 -999.25 -999.25 -999.25 107.3502 -999.25 -999.25 2.0275 2.0422 -999.25 9.1756 1.9897 2.0017 1.9897
3665.5000 8.5000 -999.25 -999.25 -999.25 -999.25 108.5006 -999.25 -999.25 2.0288 2.0519 -999.25 9.1711 1.9911 2.0106 1.9911
3665.7000 8.5000 -999.25 -999.25 -999.25 -999.25 109.9946 -999.25 -999.25 2.0908 2.0828 -999.25 9.1966 1.9004 1.9873 1.9004
3665.9000 8.5000 -999.25 -999.25 -999.25 -999.25 112.0803 -999.25 -999.25 2.1054 2.1085 -999.25 9.2085 1.9371 2.0141 1.9371
3666.1000 8.5000 -999.25 -999.25 -999.25 -999.25 110.1624 -999.25 -999.25 2.1465 2.1421 -999.25 9.2128 1.9684 2.0419 1.9684
3666.3000 8.5000 -999.25 -999.25 -999.25 -999.25 111.4375 -999.25 -999.25 2.1621 2.1731 -999.25 9.2086 2.1499 2.1302 2.1499
3666.5000 8.5000 -999.25 -999.25 -999.25 -999.25 112.4767 -999.25 -999.25 2.2073 2.2175 -999.25 8.4909 2.3014 2.2195 2.3014
