~Version Information
VERS.                     2.0: CWLS log ASCII Standard Version 2.00
WRAP.                      NO: One line per depth step

~Well Information Block
#MNEM.UNIT                 Value                       Information
#------------              -----                       -----------
STRT.M                    145.9000                    :START
STOP.M                   4684.9000                    :STOP
STEP.M                      0.1000                    :STEP
NULL.                     -999.25                     :NULL VALUE
COMP.         STATOIL PETROLEUM AS                    :Company
WELL.         15/9-F-15 D                             :Well
FLD .         VOLVE                                   :Field
LOC .                                                 :Location
PROV.                                                 :Province
CNTY.         MAERSK INSPIRER                         :County
STATE.                                                 :State
CTRY.         NORWAY                                  :Country
DATE.                                                 :Log Date
SRVC.                                                 :Service Company
UWI .                                                 :Unique Well Identifier
API .                                                 :API Number
LATI.         058 26' 29.706" N    DMS                :Latitude
LONG.         001 53' 15.149" E    DMS                :Longtitude
PD  .         MSL                                     :Permanent Datum
EDF .M                54.9000                         :Elevations D.F.
EGL .M               -91.0000                         :Elevations G.L.
ELZ .M                54.9000                         :Elev. Log Zero
LMF .         DF                                      :Log Measured From
MP  .         DF                                      :Drill Measured From

~Curve Information
#MNEM   .UNIT             API CODE Curve Description
#------------             -------- -----------------
DEPTH   .M            00 001 00 00:   0  Depth
BS      .inches       00 000 00 00:   5  BS:COMPOSITE:rC:NONE:v1
CALI    .inches       70 280 00 01:   6  CALI:COMPOSITE:rC:NONE:v1
DRHO    .g/cm3        45 356 01 01:   7  DRHO:COMPOSITE:rC:NONE:v1
GR      .API          30 150 01 01:   8  GR:COMPOSITE:rC:NONE:v1
NPHI    .v/v          42 890 01 01:  10  NPHI:COMPOSITE:rC:NONE:v1
PEF     .b/elec       45 358 01 01:  11  PEF:COMPOSITE:rC:NONE:v1
RACEHM  .ohm.m        95 220 00 01:  12  RACEHM:COMPOSITE:rC:NONE:v1
RACELM  .ohm.m        00 524 01 00:  13  RACELM:COMPOSITE:rC:NONE:v1
RD      .ohm.m        00 000 00 00:  14  RD:COMPOSITE:rC:NONE:v1
RHOB    .g/cm3        45 350 01 01:  15  RHOB:COMPOSITE:rC:NONE:v1
ROP     .m/hr         00 000 00 00:  17  ROP:COMPOSITE:rC:NONE:v1
RPCEHM  .ohm.m        00 000 00 00:  18  RPCEHM:COMPOSITE:rC:NONE:v1
RPCELM  .ohm.m        00 000 00 00:  19  RPCELM:COMPOSITE:rC:NONE:v1
RT      .ohm.m        00 000 00 00:  20  RT:COMPOSITE:rC:NONE:v1

~Parameter Information
#MNEM.UNIT       Value           Description
#------------    -----           -----------
RUN .         .                 :Run Number

~Other Information
# Subset of the Equinor Volve composite LAS (BinWang0213/Course-PETE4241_19SP_ProjectCode Data/Petrophysics): unused columns removed; data rows copied verbatim. Thinned to every 2nd depth sample (0.2 m) for web delivery.
PETROPHYSICAL INTERPRETATION: INPUT

# --- LOG MNEMONICS AND UNITS ---
#Depth          ABDCQF01        ABDCQF02        ABDCQF03        ABDCQF04        BS              CALI            DRHO            GR              NBGRCFM         NPHI            PEF             RACEHM          RACELM          RD              RHOB            RM              ROP             RPCEHM          RPCELM          RT             
#M              g/cm3           g/cm3           g/cm3           g/cm3           inches          inches          g/cm3           API             API             v/v             b/elec          ohm.m           ohm.m           ohm.m           g/cm3           ohm.m           m/hr            ohm.m           ohm.m           ohm.m          

~A
# ...
2012.9000 17.5000 -999.25 -999.25 70.6801 -999.25 -999.25 0.6716 0.5688 0.5045 -999.25 37.4610 0.5175 0.5045 0.5280
2013.1000 17.5000 -999.25 -999.25 70.9511 -999.25 -999.25 0.6506 0.5695 0.5108 -999.25 37.1287 0.5610 0.5108 0.5731
2013.3000 17.5000 -999.25 -999.25 68.1779 -999.25 -999.25 0.6468 0.5715 0.5262 -999.25 36.8126 0.6119 0.5262 0.6153
2013.5000 17.5000 -999.25 -999.25 66.8908 -999.25 -999.25 0.6474 0.5792 0.5399 -999.25 36.4341 0.6244 0.5399 0.6325
2013.7000 17.5000 -999.25 -999.25 67.3201 -999.25 -999.25 0.5776 0.5680 0.5967 -999.25 35.6046 0.6846 0.5966 0.7040
2013.9000 17.5000 -999.25 -999.25 62.9183 -999.25 -999.25 0.6300 0.5748 0.6272 -999.25 34.9398 0.7968 0.6272 0.7860
2014.1000 17.5000 -999.25 -999.25 58.2403 -999.25 -999.25 0.8142 0.5964 0.5674 -999.25 34.8772 0.7492 0.5674 0.7478
2014.3000 17.5000 -999.25 -999.25 61.2526 -999.25 -999.25 0.7646 0.5913 0.5261 -999.25 35.1677 0.6177 0.5261 0.6143
2014.5000 17.5000 -999.25 -999.25 65.7402 -999.25 -999.25 0.7159 0.5842 0.5048 -999.25 35.4171 0.5791 0.5048 0.5821
2014.7000 17.5000 -999.25 -999.25 62.6241 -999.25 -999.25 0.6962 0.5729 0.4913 -999.25 35.7235 0.5700 0.4913 0.5789
2014.9000 17.5000 -999.25 -999.25 62.0890 -999.25 -999.25 0.7132 0.5717 0.4826 -999.25 35.8408 0.5922 0.4826 0.5917
2015.1000 17.5000 -999.25 -999.25 67.4631 -999.25 -999.25 0.7119 0.5717 0.4766 -999.25 35.9326 0.5942 0.4766 0.5966
2015.3000 17.5000 -999.25 -999.25 72.6060 -999.25 -999.25 0.6613 0.5689 0.4913 -999.25 36.0197 0.6052 0.4913 0.6009
2015.5000 17.5000 -999.25 -999.25 69.7886 -999.25 -999.25 0.6379 0.5668 0.4992 -999.25 36.0978 0.5966 0.4992 0.6010
2015.7000 17.5000 -999.25 -999.25 63.3178 -999.25 -999.25 0.6609 0.5739 0.5165 -999.25 36.1738 0.6187 0.5165 0.6234
2015.9000 17.5000 -999.25 -999.25 62.2525 -999.25 -999.25 0.6895 0.5771 0.5330 -999.25 36.1713 0.6449 0.5330 0.6519
2016.1000 17.5000 -999.25 -999.25 65.6119 -999.25 -999.25 0.7428 0.5862 0.5410 -999.25 36.1627 0.6808 0.5410 0.6749
2016.3000 17.5000 -999.25 -999.25 66.7533 -999.25 -999.25 0.7815 0.5943 0.5310 -999.25 36.1475 0.6599 0.5310 0.6576
2016.5000 17.5000 -999.25 -999.25 68.4274 -999.25 -999.25 0.7835 0.5997 0.5288 -999.25 36.1340 0.6402 0.5288 0.6470
2016.7000 17.5000 -999.25 -999.25 69.4697 -999.25 -999.25 0.7607 0.6003 0.5468 -999.25 36.1271 0.6616 0.5468 0.6606
2016.9000 17.5000 -999.25 -999.25 69.2996 -999.25 -999.25 0.7415 0.5970 0.5647 -999.25 36.1255 0.6809 0.5647 0.6848
2017.1000 17.5000 -999.25 -999.25 72.9736 -999.25 -999.25 0.7536 0.6026 0.5704 -999.25 36.1321 0.6980 0.5704 0.6935
2017.3000 17.5000 -999.25 -999.25 75.2624 -999.25 -999.25 0.8168 0.6155 0.5575 -999.25 36.1386 0.6645 0.5575 0.6727
2017.5000 17.5000 -999.25 -999.25 72.1759 -999.25 -999.25 0.7966 0.6238 0.5726 -999.25 36.1464 0.6844 0.5726 0.6853
2017.7000 17.5000 -999.25 -999.25 78.1692 -999.25 -999.25 0.7877 0.6202 0.5812 -999.25 36.1533 0.6969 0.5812 0.6987
2017.9000 17.5000 -999.25 -999.25 73.9832 -999.25 -999.25 0.7261 0.6192 0.6014 -999.25 36.1078 0.7000 0.6014 0.6874
2018.1000 17.5000 -999.25 -999.25 67.9965 -999.25 -999.25 0.7561 0.6236 0.5898 -999.25 36.0649 0.6656 0.5898 0.6720
2018.3000 17.5000 -999.25 -999.25 67.6652 -999.25 -999.25 0.7372 0.6236 0.6015 -999.25 36.0699 0.6929 0.6014 0.6903
2018.5000 17.5000 -999.25 -999.25 66.7813 -999.25 -999.25 0.7175 0.6193 0.5978 -999.25 36.0769 0.6674 0.5978 0.6522
2018.7000 17.5000 -999.25 -999.25 67.0283 -999.25 -999.25 0.7348 0.6311 0.5597 -999.25 36.0832 0.6161 0.5597 0.6141
2018.9000 17.5000 -999.25 -999.25 66.7615 -999.25 -999.25 0.6967 0.6262 0.5570 -999.25 36.0906 0.5906 0.5570 0.5915
2019.1000 17.5000 -999.25 -999.25 66.7866 -999.25 -999.25 0.7149 0.6218 0.5778 -999.25 35.9130 0.6096 0.5778 0.6330
2019.3000 17.5000 -999.25 -999.25 67.6193 -999.25 -999.25 0.6587 0.6079 0.6241 -999.25 35.7108 0.6743 0.6241 0.6641
2019.5000 17.5000 -999.25 -999.25 64.3344 -999.25 -999.25 0.7600 0.6199 0.5753 -999.25 35.6957 0.6270 0.5753 0.6203
2019.7000 17.5000 -999.25 -999.25 66.5788 -999.25 -999.25 0.7926 0.6250 0.5454 -999.25 35.7261 0.5868 0.5454 0.5949
2019.9000 17.5000 -999.25 -999.25 68.9781 -999.25 -999.25 0.7104 0.6031 0.5561 -999.25 35.7742 0.6236 0.5561 0.6188
2020.1000 17.5000 -999.25 -999.25 65.7381 -999.25 -999.25 0.6649 0.5898 0.5736 -999.25 35.8654 0.6405 0.5736 0.6386
2020.3000 17.5000 -999.25 -999.25 70.3850 -999.25 -999.25 0.7018 0.5945 0.5526 -999.25 35.9471 0.6191 0.5526 0.6236
2020.5000 17.5000 -999.25 -999.25 73.6462 -999.25 -999.25 0.7763 0.6087 0.5437 -999.25 36.0266 0.6279 0.5437 0.6341
2020.7000 17.5000 -999.25 -999.25 68.0894 -999.25 -999.25 0.7813 0.6030 0.5677 -999.25 36.1111 0.7113 0.5677 0.7052
2020.9000 17.5000 -999.25 -999.25 62.5938 -999.25 -999.25 0.7018 0.5816 0.5805 -999.25 36.1471 0.6938 0.5806 0.6720
2021.1000 17.5000 -999.25 -999.25 65.9828 -999.25 -999.25 0.7515 0.5961 0.5131 -999.25 36.1541 0.6312 0.5131 0.6336
2021.3000 17.5000 -999.25 -999.25 67.0885 -999.25 -999.25 0.7048 0.5856 0.4920 -999.25 36.1603 0.6263 0.4920 0.6258
2021.5000 17.5000 -999.25 -999.25 68.0121 -999.25 -999.25 0.6840 0.5769 0.4895 -999.25 36.1678 0.6232 0.4895 0.6196
2021.7000 17.5000 -999.25 -999.25 61.8336 -999.25 -999.25 0.7414 0.5719 0.4788 -999.25 36.1918 0.6024 0.4787 0.6165
2021.9000 17.5000 -999.25 -999.25 60.2826 -999.25 -999.25 0.7468 0.5661 0.4975 -999.25 36.2258 0.6483 0.4975 0.6444
2022.1000 17.5000 -999.25 -999.25 54.3133 -999.25 -999.25 0.8484 0.5733 0.4896 -999.25 36.2415 0.6480 0.4896 0.6525
2022.3000 17.5000 -999.25 -999.25 48.3233 -999.25 -999.25 0.8560 0.5859 0.4913 -999.25 36.2276 0.7228 0.4913 0.7489
2022.5000 17.5000 -999.25 -999.25 49.8060 -999.25 -999.25 0.6057 0.5388 0.5841 -999.25 36.2148 0.8109 0.5841 0.7962
2022.7000 17.5000 -999.25 -999.25 60.9956 -999.25 -999.25 0.5955 0.5448 0.5630 -999.25 36.1996 0.7261 0.5630 0.7107
2022.9000 17.5000 -999.25 -999.25 64.9145 -999.25 -999.25 0.6402 0.5617 0.4986 -999.25 36.1861 0.6508 0.4986 0.6585
2023.1000 17.5000 -999.25 -999.25 65.3984 -999.25 -999.25 0.6871 0.5552 0.4739 -999.25 36.1732 0.6275 0.4739 0.6271
2023.3000 17.5000 -999.25 -999.25 64.0797 -999.25 -999.25 0.6832 0.5422 0.4801 -999.25 36.1577 0.5942 0.4801 0.5923
2023.5000 17.5000 -999.25 -999.25 63.0911 -999.25 -999.25 0.6724 0.5428 0.4884 -999.25 36.1421 0.5895 0.4884 0.5993
2023.7000 17.5000 -999.25 -999.25 61.1747 -999.25 -999.25 0.7930 0.5610 0.4873 -999.25 36.1160 0.6646 0.4873 0.6523
2023.9000 17.5000 -999.25 -999.25 60.4445 -999.25 -999.25 0.6884 0.5401 0.5202 -999.25 35.9997 0.6707 0.5202 0.6609
2024.1000 17.5000 -999.25 -999.25 62.6146 -999.25 -999.25 0.7005 0.5550 0.4766 -999.25 35.9175 0.6253 0.4766 0.6243
2024.3000 17.5000 -999.25 -999.25 62.9817 -999.25 -999.25 0.6738 0.5478 0.4683 -999.25 36.0980 0.6207 0.4683 0.6175
2024.5000 17.5000 -999.25 -999.25 61.6821 -999.25 -999.25 0.6876 0.5490 0.4700 -999.25 36.1525 0.6105 0.4700 0.6127
2024.7000 17.5000 -999.25 -999.25 57.1424 -999.25 -999.25 0.6856 0.5483 0.4757 -999.25 36.1567 0.6202 0.4757 0.6203
2024.9000 17.5000 -999.25 -999.25 61.0477 -999.25 -999.25 0.6685 0.5384 0.4882 -999.25 36.1480 0.5992 0.4883 0.5904
2025.1000 17.5000 -999.25 -999.25 61.7125 -999.25 -999.25 0.6939 0.5502 0.4682 -999.25 36.1371 0.5756 0.4682 0.5803
2025.3000 17.5000 -999.25 -999.25 63.8330 -999.25 -999.25 0.6793 0.5588 0.4744 -999.25 36.1219 0.6025 0.4744 0.6034
2025.5000 17.5000 -999.25 -999.25 62.2572 -999.25 -999.25 0.6872 0.5738 0.4940 -999.25 36.1082 0.6071 0.4940 0.6122
2025.7000 17.5000 -999.25 -999.25 60.3959 -999.25 -999.25 0.7406 0.5773 0.5380 -999.25 36.1002 0.6453 0.5380 0.6584
2025.9000 17.5000 -999.25 -999.25 58.7810 -999.25 -999.25 0.6576 0.5612 0.6108 -999.25 36.0580 0.7663 0.6108 0.7586
2026.1000 17.5000 -999.25 -999.25 59.7936 -999.25 -999.25 0.7824 0.5774 0.5247 -999.25 35.8345 0.6452 0.5247 0.6544
2026.3000 17.5000 -999.25 -999.25 64.5104 -999.25 -999.25 0.7182 0.5705 0.4746 -999.25 35.8724 0.5856 0.4746 0.5901
2026.5000 17.5000 -999.25 -999.25 61.3742 -999.25 -999.25 0.6752 0.5617 0.4794 -999.25 36.1171 0.6027 0.4794 0.6010
