~Version Information
VERS.                     2.0: CWLS log ASCII Standard Version 2.00
WRAP.                      NO: One line per depth step

~Well Information Block
#MNEM.UNIT                 Value                       Information
#------------              -----                       -----------
STRT.M                    145.9000                    :START
STOP.M                   3681.9000                    :STOP
STEP.M                      0.1000                    :STEP
NULL.                     -999.25                     :NULL VALUE
COMP.         Statoil Petroleum AS                    :Company
WELL.         15/9-F-1 A                              :Well
FLD .         VOLVE                                   :Field
LOC .         Maersk Inspirer                         :Location
PROV.                                                 :Province
CNTY.         Unused                                  :County
STATE.                                                 :State
CTRY.                                                 :Country
DATE.                                                 :Log Date
SRVC.                                                 :Service Company
UWI .         1A                                     :Unique Well Identifier
API .                                                 :API Number
LATI.         058 26' 29.907" N    DMS                :Latitude
LONG.         001 53' 14.708" E    DMS                :Longtitude
PD  .         MSL                                     :Permanent Datum
ELZ .M                 0.0000                         :Elev. Log Zero

~Curve Information
#MNEM   .UNIT             API CODE Curve Description
#------------             -------- -----------------
DEPTH   .M            00 001 00 00:   0  Depth
BS      .inches       00 000 00 00:   5  BS:COMPOSITE:rC:NONE:v1
CALI    .inches       70 280 00 01:   6  CALI:COMPOSITE:rC:0001:v1
DRHO    .g/cm3        45 356 01 01:   7  DRHO:COMPOSITE:rC:0001:v1
DT      .us/ft        60 520 32 01:   8  DT:COMPOSITE:rC:0001:v1
DTS     .us/ft        00 000 00 00:   9  DTS:COMPOSITE:rC:0001:v1
GR      .API          30 150 01 01:  10  GR:COMPOSITE:rC:0001:v1
NPHI    .v/v          42 890 01 01:  11  NPHI:COMPOSITE:rC:0001:v1
PEF     .b/elec       45 358 01 01:  12  PEF:COMPOSITE:rC:0001:v1
RACEHM  .UNKNOWN      95 220 00 01:  13  RACEHM:COMPOSITE:rC:0001:v1
RACELM  .UNKNOWN      00 524 01 00:  14  RACELM:COMPOSITE:rC:0001:v1
RHOB    .g/cm3        45 350 01 01:  15  RHOB:COMPOSITE:rC:0001:v1
ROP     .m/hr         00 000 00 00:  16  ROP:COMPOSITE:rC:0001:v1
RPCEHM  .UNKNOWN      00 000 00 00:  17  RPCEHM:COMPOSITE:rC:0001:v1
RPCELM  .UNKNOWN      00 000 00 00:  18  RPCELM:COMPOSITE:rC:0001:v1
RT      .ohm.m        00 000 00 00:  19  RT:COMPOSITE:rC:0001:v1

~Parameter Information
#MNEM.UNIT       Value           Description
#------------    -----           -----------
HLD .         Terms and Conditions.:Header Legal Disclaimer
RUN .         1                 :Run number

~Other Information
# Subset of the Equinor Volve composite LAS (andymcdgeo/Petrophysics-Python-Series Data/Volve): unused columns removed; data rows copied verbatim. Thinned to every 2nd depth sample (0.2 m) for web delivery.
PETROPHYSICAL INTERPRETATION: INPUT

# --- LOG MNEMONICS AND UNITS ---
#Depth          ABDCQF01        ABDCQF02        ABDCQF03        ABDCQF04        BS              CALI            DRHO            DT              DTS             GR              NPHI            PEF             RACEHM          RACELM          RHOB            ROP             RPCEHM          RPCELM          RT             
#M              g/cm3           g/cm3           g/cm3           g/cm3           inches          inches          g/cm3           us/ft           us/ft           API             v/v             b/elec          UNKNOWN         UNKNOWN         g/cm3           m/hr            UNKNOWN         UNKNOWN         ohm.m          

~A
# ...
1156.7000 26.0000 -999.25 -999.25 -999.25 -999.25 40.3162 -999.25 -999.25 1.1975 1.2257 -999.25 23.3601 1.1472 1.1574 1.1472
1156.9000 26.0000 -999.25 -999.25 -999.25 -999.25 40.2272 -999.25 -999.25 1.2026 1.2288 -999.25 23.9754 1.1485 1.1610 1.1485
1157.1000 26.0000 -999.25 -999.25 -999.25 -999.25 40.3154 -999.25 -999.25 1.2131 1.2294 -999.25 24.6732 1.1717 1.1728 1.1717
1157.3000 26.0000 -999.25 -999.25 -999.25 -999.25 41.9883 -999.25 -999.25 1.2235 1.2309 -999.25 25.1264 1.1966 1.1855 1.1966
1157.5000 26.0000 -999.25 -999.25 -999.25 -999.25 40.2157 -999.25 -999.25 1.2416 1.2387 -999.25 25.3794 1.1867 1.1808 1.1867
1157.7000 26.0000 -999.25 -999.25 -999.25 -999.25 41.4348 -999.25 -999.25 1.2503 1.2420 -999.25 25.4327 1.1717 1.1805 1.1717
1157.9000 26.0000 -999.25 -999.25 -999.25 -999.25 43.3963 -999.25 -999.25 1.2635 1.2510 -999.25 25.0555 1.2398 1.2172 1.2398
1158.1000 26.0000 -999.25 -999.25 -999.25 -999.25 41.9947 -999.25 -999.25 1.2914 1.2683 -999.25 24.5924 1.2629 1.2346 1.2629
1158.3000 26.0000 -999.25 -999.25 -999.25 -999.25 45.9391 -999.25 -999.25 1.3068 1.2475 -999.25 24.0441 1.2587 1.2332 1.2587
1158.5000 26.0000 -999.25 -999.25 -999.25 -999.25 42.2190 -999.25 -999.25 1.3027 1.2675 -999.25 23.5383 1.2842 1.2434 1.2842
1158.7000 26.0000 -999.25 -999.25 -999.25 -999.25 46.1374 -999.25 -999.25 1.2976 1.2815 -999.25 23.0256 1.2662 1.2635 1.2662
1158.9000 26.0000 -999.25 -999.25 -999.25 -999.25 45.7229 -999.25 -999.25 1.2955 1.2748 -999.25 22.5060 1.2739 1.2227 1.2739
1159.1000 26.0000 -999.25 -999.25 -999.25 -999.25 47.0930 -999.25 -999.25 1.2992 1.3172 -999.25 21.9521 1.2845 1.2713 1.2845
1159.3000 26.0000 -999.25 -999.25 -999.25 -999.25 44.7497 -999.25 -999.25 1.2912 1.2912 -999.25 21.4328 1.2369 1.2608 1.2369
1159.5000 26.0000 -999.25 -999.25 -999.25 -999.25 43.4314 -999.25 -999.25 1.2978 1.2626 -999.25 20.9484 1.2594 1.2164 1.2594
1159.7000 26.0000 -999.25 -999.25 -999.25 -999.25 42.8365 -999.25 -999.25 1.2766 1.2911 -999.25 21.0398 1.2075 1.2105 1.2075
1159.9000 26.0000 -999.25 -999.25 -999.25 -999.25 43.4736 -999.25 -999.25 1.2774 1.2453 -999.25 21.2296 1.2095 1.2099 1.2095
1160.1000 26.0000 -999.25 -999.25 -999.25 -999.25 43.5378 -999.25 -999.25 1.2957 1.2707 -999.25 21.5173 1.2345 1.2168 1.2345
1160.3000 26.0000 -999.25 -999.25 -999.25 -999.25 45.0668 -999.25 -999.25 1.3145 1.2604 -999.25 21.9467 1.2253 1.2871 1.2253
1160.5000 26.0000 -999.25 -999.25 -999.25 -999.25 47.2173 -999.25 -999.25 1.3263 1.2985 -999.25 22.4123 1.2330 1.2452 1.2330
1160.7000 26.0000 -999.25 -999.25 -999.25 -999.25 45.5346 -999.25 -999.25 1.3312 1.3108 -999.25 22.9141 1.2487 1.2513 1.2487
1160.9000 26.0000 -999.25 -999.25 -999.25 -999.25 51.3502 -999.25 -999.25 1.3525 1.2979 -999.25 23.4959 1.2918 1.2471 1.2918
1161.1000 26.0000 -999.25 -999.25 -999.25 -999.25 48.7464 -999.25 -999.25 1.3467 1.3189 -999.25 24.0130 1.2469 1.2697 1.2469
1161.3000 26.0000 -999.25 -999.25 -999.25 -999.25 45.5897 -999.25 -999.25 1.3754 1.3023 -999.25 24.4649 1.2673 1.2787 1.2673
1161.5000 26.0000 -999.25 -999.25 -999.25 -999.25 47.1549 -999.25 -999.25 1.3797 1.3326 -999.25 24.6094 1.2914 1.2686 1.2914
1161.7000 26.0000 -999.25 -999.25 -999.25 -999.25 42.7129 -999.25 -999.25 1.3906 1.3115 -999.25 24.4754 1.2514 1.2915 1.2514
1161.9000 26.0000 -999.25 -999.25 -999.25 -999.25 38.8510 -999.25 -999.25 1.4004 1.3452 -999.25 24.0641 1.3258 1.3395 1.3258
1162.1000 26.0000 -999.25 -999.25 -999.25 -999.25 37.9245 -999.25 -999.25 1.4045 1.3516 -999.25 23.4192 1.3328 1.3481 1.3328
1162.3000 26.0000 -999.25 -999.25 -999.25 -999.25 38.4943 -999.25 -999.25 1.4011 1.3495 -999.25 22.7217 1.3175 1.2890 1.3175
1162.5000 26.0000 -999.25 -999.25 -999.25 -999.25 44.9332 -999.25 -999.25 1.3980 1.3473 -999.25 21.9727 1.3126 1.3167 1.3126
1162.7000 26.0000 -999.25 -999.25 -999.25 -999.25 51.0940 -999.25 -999.25 1.4034 1.3288 -999.25 21.5924 1.3129 1.3059 1.3129
1162.9000 26.0000 -999.25 -999.25 -999.25 -999.25 56.0226 -999.25 -999.25 1.4190 1.3367 -999.25 21.1273 1.3442 1.3225 1.3442
1163.1000 26.0000 -999.25 -999.25 -999.25 -999.25 56.3356 -999.25 -999.25 1.4374 1.3866 -999.25 20.5771 1.3881 1.3639 1.3881
1163.3000 26.0000 -999.25 -999.25 -999.25 -999.25 55.6426 -999.25 -999.25 1.4366 1.4154 -999.25 19.5586 1.3522 1.3432 1.3522
1163.5000 26.0000 -999.25 -999.25 -999.25 -999.25 56.2886 -999.25 -999.25 1.4352 1.3871 -999.25 18.9743 1.3126 1.3503 1.3126
1163.7000 26.0000 -999.25 -999.25 -999.25 -999.25 58.1372 -999.25 -999.25 1.4580 1.3699 -999.25 18.8221 1.3894 1.3275 1.3894
1163.9000 26.0000 -999.25 -999.25 -999.25 -999.25 56.2847 -999.25 -999.25 1.4451 1.3537 -999.25 19.0523 1.3664 1.3161 1.3664
1164.1000 26.0000 -999.25 -999.25 -999.25 -999.25 55.9262 -999.25 -999.25 1.4750 1.3675 -999.25 19.4729 1.5476 1.4348 1.5476
1164.3000 26.0000 -999.25 -999.25 -999.25 -999.25 56.5029 -999.25 -999.25 1.4899 1.3788 -999.25 20.0829 1.5071 1.3931 1.5071
1164.5000 26.0000 -999.25 -999.25 -999.25 -999.25 56.3022 -999.25 -999.25 1.4794 1.3747 -999.25 20.8212 1.4981 1.4038 1.4981
1164.7000 26.0000 -999.25 -999.25 -999.25 -999.25 59.1391 -999.25 -999.25 1.4291 1.3583 -999.25 21.4508 1.3491 1.3499 1.3491
1164.9000 26.0000 -999.25 -999.25 -999.25 -999.25 60.0309 -999.25 -999.25 1.3936 1.3551 -999.25 21.9724 1.3856 1.3522 1.3856
1165.1000 26.0000 -999.25 -999.25 -999.25 -999.25 53.3481 -999.25 -999.25 1.4129 1.3368 -999.25 22.6083 1.3266 1.2847 1.3266
1165.3000 26.0000 -999.25 -999.25 -999.25 -999.25 58.3206 -999.25 -999.25 1.3918 1.3274 -999.25 23.1630 1.3239 1.2817 1.3239
1165.5000 26.0000 -999.25 -999.25 -999.25 -999.25 60.8891 -999.25 -999.25 1.4073 1.3146 -999.25 23.6360 1.3258 1.2841 1.3258
1165.7000 26.0000 -999.25 -999.25 -999.25 -999.25 61.3043 -999.25 -999.25 1.3502 1.2949 -999.25 23.4736 1.2651 1.2422 1.2651
1165.9000 26.0000 -999.25 -999.25 -999.25 -999.25 61.4390 -999.25 -999.25 1.3180 1.2901 -999.25 23.2486 1.3139 1.2416 1.3139
1166.1000 26.0000 -999.25 -999.25 -999.25 -999.25 58.1809 -999.25 -999.25 1.3024 1.2891 -999.25 22.9615 1.2702 1.2144 1.2702
1166.3000 26.0000 -999.25 -999.25 -999.25 -999.25 58.8513 -999.25 -999.25 1.2762 1.2639 -999.25 22.7882 1.1981 1.2079 1.1981
1166.5000 26.0000 -999.25 -999.25 -999.25 -999.25 60.6794 -999.25 -999.25 1.3149 1.2533 -999.25 22.5004 1.3063 1.2439 1.3063
1166.7000 26.0000 -999.25 -999.25 -999.25 -999.25 60.0097 -999.25 -999.25 1.4092 1.2507 -999.25 22.0987 1.4048 1.2814 1.4048
1166.9000 26.0000 -999.25 -999.25 -999.25 -999.25 58.0920 -999.25 -999.25 1.3748 1.2641 -999.25 21.7405 1.3491 1.2724 1.3491
1167.1000 26.0000 -999.25 -999.25 -999.25 -999.25 60.7261 -999.25 -999.25 1.3728 1.2432 -999.25 21.3318 1.3192 1.2377 1.3192
1167.3000 26.0000 -999.25 -999.25 -999.25 -999.25 60.2817 -999.25 -999.25 1.3084 1.2621 -999.25 20.8733 1.2685 1.2587 1.2685
1167.5000 26.0000 -999.25 -999.25 -999.25 -999.25 59.6220 -999.25 -999.25 1.2971 1.2362 -999.25 20.5915 1.2479 1.2257 1.2479
1167.7000 26.0000 -999.25 -999.25 -999.25 -999.25 55.9458 -999.25 -999.25 1.3183 1.2519 -999.25 20.4587 1.2811 1.2287 1.2811
1167.9000 26.0000 -999.25 -999.25 -999.25 -999.25 56.2221 -999.25 -999.25 1.3409 1.2398 -999.25 20.4750 1.3026 1.2073 1.3026
1168.1000 26.0000 -999.25 -999.25 -999.25 -999.25 55.7712 -999.25 -999.25 1.3280 1.3010 -999.25 21.0690 1.2955 1.2125 1.2955
1168.3000 26.0000 -999.25 -999.25 -999.25 -999.25 55.2409 -999.25 -999.25 1.3037 1.2262 -999.25 21.2401 1.2402 1.2140 1.2402
1168.5000 26.0000 -999.25 -999.25 -999.25 -999.25 55.1931 -999.25 -999.25 1.2763 1.2378 -999.25 20.9902 1.2283 1.1999 1.2283
1168.7000 26.0000 -999.25 -999.25 -999.25 -999.25 54.5017 -999.25 -999.25 1.2628 1.2266 -999.25 20.1669 1.2106 1.2330 1.2106
1168.9000 26.0000 -999.25 -999.25 -999.25 -999.25 57.4155 -999.25 -999.25 1.2905 1.2218 -999.25 19.4102 1.2480 1.2192 1.2480
1169.1000 26.0000 -999.25 -999.25 -999.25 -999.25 52.5495 -999.25 -999.25 1.2415 1.2059 -999.25 18.7204 1.2083 1.1911 1.2083
1169.3000 26.0000 -999.25 -999.25 -999.25 -999.25 54.0290 -999.25 -999.25 1.2452 1.2040 -999.25 18.6691 1.2058 1.1581 1.2058
