~Version Information
VERS.                     2.0: CWLS log ASCII Standard Version 2.00
WRAP.                      NO: One line per depth step

~Well Information Block
#MNEM.UNIT                 Value                       Information
#------------              -----                       -----------
STRT.M                    145.9000                    :START
STOP.M                   4684.9000                    :STOP
STEP.M                      0.1000                    :STEP
NULL.                     -999.25                     :NULL VALUE
COMP.         STATOIL PETROLEUM AS                    :Company
WELL.         15/9-F-15 D                             :Well
FLD .         VOLVE                                   :Field
LOC .                                                 :Location
PROV.                                                 :Province
CNTY.         MAERSK INSPIRER                         :County
STATE.                                                 :State
CTRY.         NORWAY                                  :Country
DATE.                                                 :Log Date
SRVC.                                                 :Service Company
UWI .                                                 :Unique Well Identifier
API .                                                 :API Number
LATI.         058 26' 29.706" N    DMS                :Latitude
LONG.         001 53' 15.149" E    DMS                :Longtitude
PD  .         MSL                                     :Permanent Datum
EDF .M                54.9000                         :Elevations D.F.
EGL .M               -91.0000                         :Elevations G.L.
ELZ .M                54.9000                         :Elev. Log Zero
LMF .         DF                                      :Log Measured From
MP  .         DF                                      :Drill Measured From

~Curve Information
#MNEM   .UNIT             API CODE Curve Description
#------------             -------- -----------------
DEPTH   .M            00 001 00 00:   0  Depth
BS      .inches       00 000 00 00:   5  BS:COMPOSITE:rC:NONE:v1
CALI    .inches       70 280 00 01:   6  CALI:COMPOSITE:rC:NONE:v1
DRHO    .g/cm3        45 356 01 01:   7  DRHO:COMPOSITE:rC:NONE:v1
GR      .API          30 150 01 01:   8  GR:COMPOSITE:rC:NONE:v1
NPHI    .v/v          42 890 01 01:  10  NPHI:COMPOSITE:rC:NONE:v1
PEF     .b/elec       45 358 01 01:  11  PEF:COMPOSITE:rC:NONE:v1
RACEHM  .ohm.m        95 220 00 01:  12  RACEHM:COMPOSITE:rC:NONE:v1
RACELM  .ohm.m        00 524 01 00:  13  RACELM:COMPOSITE:rC:NONE:v1
RD      .ohm.m        00 000 00 00:  14  RD:COMPOSITE:rC:NONE:v1
RHOB    .g/cm3        45 350 01 01:  15  RHOB:COMPOSITE:rC:NONE:v1
ROP     .m/hr         00 000 00 00:  17  ROP:COMPOSITE:rC:NONE:v1
RPCEHM  .ohm.m        00 000 00 00:  18  RPCEHM:COMPOSITE:rC:NONE:v1
RPCELM  .ohm.m        00 000 00 00:  19  RPCELM:COMPOSITE:rC:NONE:v1
RT      .ohm.m        00 000 00 00:  20  RT:COMPOSITE:rC:NONE:v1

~Parameter Information
#MNEM.UNIT       Value           Description
#------------    -----           -----------
RUN .         .                 :Run Number

~Other Information
# Subset of the Equinor Volve composite LAS (BinWang0213/Course-PETE4241_19SP_ProjectCode Data/Petrophysics): unused columns removed; data rows copied verbatim. Thinned to every 2nd depth sample (0.2 m) for web delivery.
PETROPHYSICAL INTERPRETATION: INPUT

# --- LOG MNEMONICS AND UNITS ---
#Depth          ABDCQF01        ABDCQF02        ABDCQF03        ABDCQF04        BS              CALI            DRHO            GR              NBGRCFM         NPHI            PEF             RACEHM          RACELM          RD              RHOB            RM              ROP             RPCEHM          RPCELM          RT             
#M              g/cm3           g/cm3           g/cm3           g/cm3           inches          inches          g/cm3           API             API             v/v             b/elec          ohm.m           ohm.m           ohm.m           g/cm3           ohm.m           m/hr            ohm.m           ohm.m           ohm.m          

~A
# ...
2442.3000 17.5000 -999.25 -999.25 41.1589 -999.25 -999.25 0.9483 0.8928 0.8169 -999.25 6.2868 0.7894 0.8169 0.8133
2442.5000 17.5000 -999.25 -999.25 39.9426 -999.25 -999.25 0.9253 0.8891 0.8510 -999.25 7.0458 0.8530 0.8510 0.8509
2442.7000 17.5000 -999.25 -999.25 39.2732 -999.25 -999.25 0.9651 0.8988 0.8530 -999.25 7.6724 0.8523 0.8530 0.8506
2442.9000 17.5000 -999.25 -999.25 40.7118 -999.25 -999.25 0.9733 0.9007 0.8643 -999.25 7.9247 0.8766 0.8643 0.8649
2443.1000 17.5000 -999.25 -999.25 39.9533 -999.25 -999.25 0.9733 0.9020 0.8756 -999.25 8.1801 0.9109 0.8756 0.9042
2443.3000 17.5000 -999.25 -999.25 38.3932 -999.25 -999.25 0.9550 0.9171 0.8735 -999.25 8.2422 0.8835 0.8735 0.8865
2443.5000 17.5000 -999.25 -999.25 35.3043 -999.25 -999.25 0.9511 0.9313 0.8849 -999.25 8.4835 0.8904 0.8849 0.8972
2443.7000 17.5000 -999.25 -999.25 36.2315 -999.25 -999.25 1.0338 0.9565 0.9042 -999.25 9.3687 0.9025 0.9042 0.8994
2443.9000 17.5000 -999.25 -999.25 39.0571 -999.25 -999.25 1.0983 0.9851 0.9247 -999.25 9.0766 0.9149 0.9247 0.9330
2444.1000 17.5000 -999.25 -999.25 40.0659 -999.25 -999.25 1.0715 1.0002 0.9938 -999.25 8.1359 1.0250 0.9938 1.0304
2444.3000 17.5000 -999.25 -999.25 41.0397 -999.25 -999.25 1.1390 1.0310 1.0157 -999.25 7.5421 1.0238 1.0157 1.0332
2444.5000 17.5000 -999.25 -999.25 42.6376 -999.25 -999.25 1.2270 1.0582 1.0410 -999.25 7.3170 1.0825 1.0410 1.0941
2444.7000 17.5000 -999.25 -999.25 44.0482 -999.25 -999.25 1.1353 1.0659 1.0953 -999.25 7.2249 1.2027 1.0953 1.1916
2444.9000 17.5000 -999.25 -999.25 47.2624 -999.25 -999.25 1.1808 1.0952 1.0649 -999.25 6.8845 1.1056 1.0649 1.0953
2445.1000 17.5000 -999.25 -999.25 50.6012 -999.25 -999.25 1.2320 1.1325 1.0558 -999.25 6.7415 1.0452 1.0558 1.0471
2445.3000 17.5000 -999.25 -999.25 59.6006 -999.25 -999.25 1.2114 1.1411 1.0664 -999.25 6.7225 1.0523 1.0664 1.0490
2445.5000 17.5000 -999.25 -999.25 67.9353 -999.25 -999.25 1.2482 1.1741 1.0666 -999.25 6.7046 1.0248 1.0666 1.0438
2445.7000 17.5000 -999.25 -999.25 73.9144 -999.25 -999.25 1.2787 1.1951 1.0987 -999.25 6.5249 1.0990 1.0987 1.0893
2445.9000 17.5000 -999.25 -999.25 74.9309 -999.25 -999.25 1.3697 1.2336 1.1197 -999.25 6.1972 1.1132 1.1197 1.1112
2446.1000 17.5000 -999.25 -999.25 73.1179 -999.25 -999.25 1.4360 1.2599 1.1211 -999.25 6.2346 1.1224 1.1210 1.1272
2446.3000 17.5000 -999.25 -999.25 71.6448 -999.25 -999.25 1.3214 1.2637 1.1570 -999.25 5.9103 1.1569 1.1570 1.1266
2446.5000 17.5000 -999.25 -999.25 69.7887 -999.25 -999.25 1.3388 1.2938 1.1579 -999.25 5.6511 1.0649 1.1579 1.0602
2446.7000 17.5000 -999.25 -999.25 62.1536 -999.25 -999.25 1.5551 1.3324 1.1793 -999.25 5.8308 1.0251 1.1793 1.0788
2446.9000 17.5000 -999.25 -999.25 49.5416 -999.25 -999.25 1.7630 1.3270 1.3296 -999.25 6.4917 1.3736 1.3296 1.6284
2447.1000 17.5000 -999.25 -999.25 37.9244 -999.25 -999.25 1.5941 1.2762 1.5579 -999.25 6.9985 2.1510 1.5579 2.1247
2447.3000 17.5000 -999.25 -999.25 30.2205 -999.25 -999.25 1.3678 1.2175 1.5566 -999.25 6.5806 2.1879 1.5566 1.9721
2447.5000 17.5000 -999.25 -999.25 36.8994 -999.25 -999.25 1.3098 1.2085 1.1784 -999.25 5.1260 1.2177 1.1784 1.2142
2447.7000 17.5000 -999.25 -999.25 48.2743 -999.25 -999.25 1.2001 1.1758 1.0228 -999.25 3.6868 0.8962 1.0228 0.9127
2447.9000 17.5000 -999.25 -999.25 61.0944 -999.25 -999.25 1.1329 1.1293 1.0092 -999.25 3.4769 0.9096 1.0092 0.9440
2448.1000 17.5000 -999.25 -999.25 65.2623 -999.25 -999.25 1.1297 1.0836 1.0734 -999.25 3.6980 1.1114 1.0734 1.1009
2448.3000 17.5000 -999.25 -999.25 65.0703 -999.25 -999.25 1.1658 1.0493 1.0803 -999.25 4.0492 1.1567 1.0803 1.1495
2448.5000 17.5000 -999.25 -999.25 57.2677 -999.25 -999.25 1.1112 1.0142 1.0357 -999.25 4.4414 1.1064 1.0357 1.0857
2448.7000 17.5000 -999.25 -999.25 47.7593 -999.25 -999.25 1.0337 0.9784 0.9217 -999.25 4.4148 0.9099 0.9217 0.9140
2448.9000 17.5000 -999.25 -999.25 43.0180 -999.25 -999.25 0.9609 0.9405 0.8310 -999.25 4.2578 0.7820 0.8310 0.7933
2449.1000 17.5000 -999.25 -999.25 41.0401 -999.25 -999.25 0.8782 0.9020 0.8167 -999.25 4.7294 0.7887 0.8167 0.7919
2449.3000 17.5000 -999.25 -999.25 39.3741 -999.25 -999.25 0.8621 0.8775 0.8071 -999.25 5.4114 0.8012 0.8071 0.7959
2449.5000 17.5000 -999.25 -999.25 37.3185 -999.25 -999.25 0.9046 0.8743 0.7892 -999.25 6.3158 0.7838 0.7892 0.7802
2449.7000 17.5000 -999.25 -999.25 36.9677 -999.25 -999.25 0.9242 0.8688 0.7836 -999.25 6.6974 0.7808 0.7836 0.7825
2449.9000 17.5000 -999.25 -999.25 36.8168 -999.25 -999.25 0.8985 0.8648 0.7940 -999.25 7.1971 0.7908 0.7940 0.7922
2450.1000 17.5000 -999.25 -999.25 41.0637 -999.25 -999.25 0.8959 0.8674 0.7922 -999.25 7.9661 0.7874 0.7922 0.7878
2450.3000 17.5000 -999.25 -999.25 43.8254 -999.25 -999.25 0.8922 0.8725 0.8014 -999.25 8.7540 0.7918 0.8014 0.7972
2450.5000 17.5000 -999.25 -999.25 40.4012 -999.25 -999.25 0.9310 0.8801 0.8220 -999.25 9.2999 0.8261 0.8220 0.8472
2450.7000 17.5000 -999.25 -999.25 40.7563 -999.25 -999.25 0.9955 0.8972 0.8811 -999.25 8.8854 0.9636 0.8811 0.9549
2450.9000 17.5000 -999.25 -999.25 46.5305 -999.25 -999.25 0.9862 0.9047 0.8924 -999.25 7.9574 0.9486 0.8924 0.9384
2451.1000 17.5000 -999.25 -999.25 52.8056 -999.25 -999.25 1.0511 0.9258 0.8617 -999.25 6.8736 0.8414 0.8617 0.8637
2451.3000 17.5000 -999.25 -999.25 47.0420 -999.25 -999.25 0.9710 0.9125 0.9313 -999.25 6.1807 1.0247 0.9313 0.9778
2451.5000 17.5000 -999.25 -999.25 45.1559 -999.25 -999.25 1.0034 0.9210 0.9014 -999.25 5.5833 0.9498 0.9014 0.9466
2451.7000 17.5000 -999.25 -999.25 49.6180 -999.25 -999.25 0.9955 0.9277 0.8579 -999.25 5.2658 0.8298 0.8579 0.8325
2451.9000 17.5000 -999.25 -999.25 52.8034 -999.25 -999.25 0.9722 0.9226 0.8632 -999.25 5.2308 0.8629 0.8632 0.8626
2452.1000 17.5000 -999.25 -999.25 53.6267 -999.25 -999.25 0.9789 0.9185 0.8616 -999.25 4.9695 0.8863 0.8616 0.8813
2452.3000 17.5000 -999.25 -999.25 55.2315 -999.25 -999.25 0.9293 0.9144 0.8561 -999.25 4.1645 0.8565 0.8561 0.8497
2452.5000 17.5000 -999.25 -999.25 58.1175 -999.25 -999.25 0.9472 0.9183 0.8383 -999.25 3.5186 0.8094 0.8383 0.8190
2452.7000 17.5000 -999.25 -999.25 64.7405 -999.25 -999.25 0.9617 0.9212 0.8542 -999.25 3.6556 0.8353 0.8542 0.8481
2452.9000 17.5000 -999.25 -999.25 67.8663 -999.25 -999.25 0.9640 0.9209 0.8682 -999.25 3.9375 0.8719 0.8682 0.8751
2453.1000 17.5000 -999.25 -999.25 71.2405 -999.25 -999.25 0.9789 0.9195 0.8818 -999.25 4.2663 0.8918 0.8818 0.8952
2453.3000 17.5000 -999.25 -999.25 71.2486 -999.25 -999.25 0.9248 0.9116 0.8879 -999.25 4.6867 0.8947 0.8879 0.8791
2453.5000 17.5000 -999.25 -999.25 70.4478 -999.25 -999.25 0.9263 0.9031 0.8632 -999.25 5.1138 0.8501 0.8632 0.8484
2453.7000 17.5000 -999.25 -999.25 77.2003 -999.25 -999.25 0.9046 0.8960 0.8582 -999.25 5.6003 0.8283 0.8582 0.8264
2453.9000 17.5000 -999.25 -999.25 80.4611 -999.25 -999.25 0.9173 0.8929 0.8400 -999.25 5.8222 0.8053 0.8400 0.8021
2454.1000 17.5000 -999.25 -999.25 82.0224 -999.25 -999.25 0.9234 0.8870 0.8269 -999.25 5.9519 0.8064 0.8269 0.8089
2454.3000 17.5000 -999.25 -999.25 79.3477 -999.25 -999.25 0.9043 0.8738 0.8261 -999.25 6.0680 0.8368 0.8261 0.8395
2454.5000 17.5000 -999.25 -999.25 79.3300 -999.25 -999.25 0.8882 0.8619 0.8297 -999.25 6.2513 0.8336 0.8297 0.8305
2454.7000 17.5000 -999.25 -999.25 79.8813 -999.25 -999.25 0.8777 0.8486 0.8115 -999.25 6.4313 0.8017 0.8115 0.8042
2454.9000 17.5000 -999.25 -999.25 81.9695 -999.25 -999.25 0.9188 0.8485 0.7981 -999.25 6.5234 0.7928 0.7981 0.7940
2455.1000 17.5000 -999.25 -999.25 90.0248 -999.25 -999.25 0.9272 0.8348 0.7890 -999.25 5.8279 0.8058 0.7890 0.8090
2455.3000 17.5000 -999.25 -999.25 94.4691 -999.25 -999.25 0.9333 0.8234 0.7744 -999.25 5.6929 0.8154 0.7744 0.8141
2455.5000 17.5000 -999.25 -999.25 86.2709 -999.25 -999.25 0.8598 0.8048 0.7613 -999.25 6.0906 0.7985 0.7613 0.7883
2455.7000 17.5000 -999.25 -999.25 77.9777 -999.25 -999.25 0.8527 0.7905 0.7143 -999.25 6.5583 0.7149 0.7143 0.7260
2455.9000 17.5000 -999.25 -999.25 73.0859 -999.25 -999.25 0.8638 0.7795 0.7014 -999.25 8.2327 0.7128 0.7014 0.7229
2456.1000 17.5000 -999.25 -999.25 81.9712 -999.25 -999.25 0.9108 0.7765 0.6881 -999.25 9.6576 0.7371 0.6881 0.7229
