~Version Information
VERS.                     2.0: CWLS log ASCII Standard Version 2.00
WRAP.                      NO: One line per depth step

~Well Information Block
#MNEM.UNIT                 Value                       Information
#------------              -----                       -----------
STRT.M                    145.9000                    :START
STOP.M                   4684.9000                    :STOP
STEP.M                      0.1000                    :STEP
NULL.                     -999.25                     :NULL VALUE
COMP.         STATOIL PETROLEUM AS                    :Company
WELL.         15/9-F-15 D                             :Well
FLD .         VOLVE                                   :Field
LOC .                                                 :Location
PROV.                                                 :Province
CNTY.         MAERSK INSPIRER                         :County
STATE.                                                 :State
CTRY.         NORWAY                                  :Country
DATE.                                                 :Log Date
SRVC.                                                 :Service Company
UWI .                                                 :Unique Well Identifier
API .                                                 :API Number
LATI.         058 26' 29.706" N    DMS                :Latitude
LONG.         001 53' 15.149" E    DMS                :Longtitude
PD  .         MSL                                     :Permanent Datum
EDF .M                54.9000                         :Elevations D.F.
EGL .M               -91.0000                         :Elevations G.L.
ELZ .M                54.9000                         :Elev. Log Zero
LMF .         DF                                      :Log Measured From
MP  .         DF                                      :Drill Measured From

~Curve Information
#MNEM   .UNIT             API CODE Curve Description
#------------             -------- -----------------
DEPTH   .M            00 001 00 00:   0  Depth
BS      .inches       00 000 00 00:   5  BS:COMPOSITE:rC:NONE:v1
CALI    .inches       70 280 00 01:   6  CALI:COMPOSITE:rC:NONE:v1
DRHO    .g/cm3        45 356 01 01:   7  DRHO:COMPOSITE:rC:NONE:v1
GR      .API          30 150 01 01:   8  GR:COMPOSITE:rC:NONE:v1
NPHI    .v/v          42 890 01 01:  10  NPHI:COMPOSITE:rC:NONE:v1
PEF     .b/elec       45 358 01 01:  11  PEF:COMPOSITE:rC:NONE:v1
RACEHM  .ohm.m        95 220 00 01:  12  RACEHM:COMPOSITE:rC:NONE:v1
RACELM  .ohm.m        00 524 01 00:  13  RACELM:COMPOSITE:rC:NONE:v1
RD      .ohm.m        00 000 00 00:  14  RD:COMPOSITE:rC:NONE:v1
RHOB    .g/cm3        45 350 01 01:  15  RHOB:COMPOSITE:rC:NONE:v1
ROP     .m/hr         00 000 00 00:  17  ROP:COMPOSITE:rC:NONE:v1
RPCEHM  .ohm.m        00 000 00 00:  18  RPCEHM:COMPOSITE:rC:NONE:v1
RPCELM  .ohm.m        00 000 00 00:  19  RPCELM:COMPOSITE:rC:NONE:v1
RT      .ohm.m        00 000 00 00:  20  RT:COMPOSITE:rC:NONE:v1

~Parameter Information
#MNEM.UNIT       Value           Description
#------------    -----           -----------
RUN .         .                 :Run Number

~Other Information
# Subset of the Equinor Volve composite LAS (BinWang0213/Course-PETE4241_19SP_ProjectCode Data/Petrophysics): unused columns removed; data rows copied verbatim. Thinned to every 2nd depth sample (0.2 m) for web delivery.
PETROPHYSICAL INTERPRETATION: INPUT

# --- LOG MNEMONICS AND UNITS ---
#Depth          ABDCQF01        ABDCQF02        ABDCQF03        ABDCQF04        BS              CALI            DRHO            GR              NBGRCFM         NPHI            PEF             RACEHM          RACELM          RD              RHOB            RM              ROP             RPCEHM          RPCELM          RT             
#M              g/cm3           g/cm3           g/cm3           g/cm3           inches          inches          g/cm3           API             API             v/v             b/elec          ohm.m           ohm.m           ohm.m           g/cm3           ohm.m           m/hr            ohm.m           ohm.m           ohm.m          

~A
# ...
2220.3000 17.5000 -999.25 -999.25 68.7425 -999.25 -999.25 0.5381 0.5136 0.4741 -999.25 36.1226 0.5158 0.4741 0.5224
2220.5000 17.5000 -999.25 -999.25 71.8862 -999.25 -999.25 0.5483 0.5138 0.4637 -999.25 36.1303 0.5180 0.4637 0.5201
2220.7000 17.5000 -999.25 -999.25 71.0961 -999.25 -999.25 0.5349 0.5033 0.4587 -999.25 36.1368 0.5273 0.4587 0.5228
2220.9000 17.5000 -999.25 -999.25 67.6287 -999.25 -999.25 0.5368 0.4968 0.4444 -999.25 36.1163 0.5095 0.4444 0.5055
2221.1000 17.5000 -999.25 -999.25 67.5075 -999.25 -999.25 0.5207 0.4852 0.4322 -999.25 36.0766 0.4882 0.4322 0.4881
2221.3000 17.5000 -999.25 -999.25 66.6887 -999.25 -999.25 0.5074 0.4843 0.4262 -999.25 36.0541 0.4835 0.4262 0.4852
2221.5000 17.5000 -999.25 -999.25 67.1840 -999.25 -999.25 0.5038 0.4825 0.4247 -999.25 36.0339 0.4908 0.4247 0.4869
2221.7000 17.5000 -999.25 -999.25 69.7082 -999.25 -999.25 0.5031 0.4862 0.4268 -999.25 35.9832 0.4859 0.4268 0.4860
2221.9000 17.5000 -999.25 -999.25 75.7156 -999.25 -999.25 0.4987 0.4884 0.4380 -999.25 35.8853 0.4861 0.4380 0.4854
2222.1000 17.5000 -999.25 -999.25 76.0074 -999.25 -999.25 0.5091 0.4885 0.4460 -999.25 35.8370 0.4832 0.4460 0.4873
2222.3000 17.5000 -999.25 -999.25 73.2951 -999.25 -999.25 0.5189 0.4917 0.4472 -999.25 35.8607 0.4957 0.4472 0.4958
2222.5000 17.5000 -999.25 -999.25 73.9887 -999.25 -999.25 0.5315 0.4987 0.4483 -999.25 35.8903 0.5032 0.4483 0.5056
2222.7000 17.5000 -999.25 -999.25 73.9462 -999.25 -999.25 0.5392 0.5089 0.4561 -999.25 35.8862 0.5247 0.4561 0.5234
2222.9000 17.5000 -999.25 -999.25 75.6637 -999.25 -999.25 0.5550 0.5117 0.4773 -999.25 35.8692 0.5403 0.4773 0.5420
2223.1000 17.5000 -999.25 -999.25 73.0548 -999.25 -999.25 0.5595 0.5154 0.5000 -999.25 35.7555 0.5650 0.5000 0.5655
2223.3000 17.5000 -999.25 -999.25 69.4789 -999.25 -999.25 0.5844 0.5225 0.4905 -999.25 35.6055 0.5563 0.4905 0.5522
2223.5000 17.5000 -999.25 -999.25 68.8737 -999.25 -999.25 0.5726 0.5272 0.4744 -999.25 35.4340 0.5287 0.4744 0.5294
2223.7000 17.5000 -999.25 -999.25 78.0467 -999.25 -999.25 0.5634 0.5279 0.4634 -999.25 34.6109 0.5103 0.4634 0.5124
2223.9000 17.5000 -999.25 -999.25 79.4180 -999.25 -999.25 0.5795 0.5330 0.4774 -999.25 33.4085 0.5298 0.4774 0.5321
2224.1000 17.5000 -999.25 -999.25 82.6580 -999.25 -999.25 0.5927 0.5360 0.5042 -999.25 32.0911 0.5693 0.5042 0.5714
2224.3000 17.5000 -999.25 -999.25 87.2605 -999.25 -999.25 0.6144 0.5524 0.5028 -999.25 32.0821 0.5750 0.5028 0.5744
2224.5000 17.5000 -999.25 -999.25 93.8456 -999.25 -999.25 0.6280 0.5559 0.5034 -999.25 32.4660 0.5696 0.5033 0.5769
2224.7000 17.5000 -999.25 -999.25 100.0770 -999.25 -999.25 0.6114 0.5532 0.5136 -999.25 32.6789 0.5874 0.5136 0.5753
2224.9000 17.5000 -999.25 -999.25 98.9292 -999.25 -999.25 0.6086 0.5548 0.5081 -999.25 32.5307 0.5544 0.5081 0.5580
2225.1000 17.5000 -999.25 -999.25 91.4445 -999.25 -999.25 0.6206 0.5598 0.5062 -999.25 32.2311 0.5650 0.5062 0.5703
2225.3000 17.5000 -999.25 -999.25 83.3207 -999.25 -999.25 0.6243 0.5599 0.5118 -999.25 32.3143 0.5849 0.5118 0.5812
2225.5000 17.5000 -999.25 -999.25 81.4076 -999.25 -999.25 0.6254 0.5605 0.5126 -999.25 32.4618 0.5774 0.5126 0.5785
2225.7000 17.5000 -999.25 -999.25 76.1584 -999.25 -999.25 0.6213 0.5598 0.5223 -999.25 32.7810 0.5797 0.5223 0.5842
2225.9000 17.5000 -999.25 -999.25 75.6105 -999.25 -999.25 0.6076 0.5533 0.5281 -999.25 33.5053 0.6118 0.5281 0.6045
2226.1000 17.5000 -999.25 -999.25 73.7750 -999.25 -999.25 0.6137 0.5509 0.5231 -999.25 34.0158 0.5982 0.5231 0.5971
2226.3000 17.5000 -999.25 -999.25 68.7244 -999.25 -999.25 0.6173 0.5466 0.4959 -999.25 34.4560 0.5719 0.4959 0.5713
2226.5000 17.5000 -999.25 -999.25 66.1221 -999.25 -999.25 0.6051 0.5379 0.4785 -999.25 34.7383 0.5679 0.4785 0.5573
2226.7000 17.5000 -999.25 -999.25 64.1070 -999.25 -999.25 0.5749 0.5259 0.4602 -999.25 34.9418 0.5424 0.4602 0.5408
2226.9000 17.5000 -999.25 -999.25 64.2063 -999.25 -999.25 0.5668 0.5193 0.4463 -999.25 35.0957 0.5166 0.4463 0.5172
2227.1000 17.5000 -999.25 -999.25 65.3833 -999.25 -999.25 0.5563 0.5128 0.4454 -999.25 35.1151 0.5180 0.4454 0.5239
2227.3000 17.5000 -999.25 -999.25 64.9743 -999.25 -999.25 0.5756 0.5156 0.4499 -999.25 35.1731 0.5349 0.4499 0.5316
2227.5000 17.5000 -999.25 -999.25 64.0879 -999.25 -999.25 0.5934 0.5195 0.4511 -999.25 35.2422 0.5320 0.4511 0.5336
2227.7000 17.5000 -999.25 -999.25 61.7655 -999.25 -999.25 0.5910 0.5222 0.4543 -999.25 35.3799 0.5401 0.4543 0.5419
2227.9000 17.5000 -999.25 -999.25 62.8968 -999.25 -999.25 0.5870 0.5242 0.4611 -999.25 35.5111 0.5532 0.4611 0.5496
2228.1000 17.5000 -999.25 -999.25 61.8208 -999.25 -999.25 0.5681 0.5287 0.4722 -999.25 35.6234 0.5474 0.4722 0.5466
2228.3000 17.5000 -999.25 -999.25 63.0529 -999.25 -999.25 0.5771 0.5379 0.4805 -999.25 35.7394 0.5405 0.4805 0.5524
2228.5000 17.5000 -999.25 -999.25 64.4724 -999.25 -999.25 0.6491 0.5664 0.5398 -999.25 35.7970 0.6187 0.5398 0.5993
2228.7000 17.5000 -999.25 -999.25 61.1203 -999.25 -999.25 0.6745 0.5699 0.5425 -999.25 35.8217 0.6233 0.5425 0.6267
2228.9000 17.5000 -999.25 -999.25 51.7463 -999.25 -999.25 0.6777 0.5679 0.5417 -999.25 35.8059 0.6538 0.5417 0.6503
2229.1000 17.5000 -999.25 -999.25 48.0970 -999.25 -999.25 0.6597 0.5595 0.5210 -999.25 34.9751 0.6086 0.5210 0.6207
2229.3000 17.5000 -999.25 -999.25 47.8785 -999.25 -999.25 0.6878 0.5592 0.5047 -999.25 33.6244 0.6218 0.5047 0.6181
2229.5000 17.5000 -999.25 -999.25 49.4157 -999.25 -999.25 0.6031 0.5388 0.5247 -999.25 31.0572 0.6152 0.5247 0.6115
2229.7000 17.5000 -999.25 -999.25 50.6710 -999.25 -999.25 0.6282 0.5381 0.5043 -999.25 29.3640 0.6026 0.5043 0.6086
2229.9000 17.5000 -999.25 -999.25 58.0544 -999.25 -999.25 0.7012 0.5486 0.4728 -999.25 28.2127 0.5817 0.4728 0.5772
2230.1000 17.5000 -999.25 -999.25 65.9207 -999.25 -999.25 0.6488 0.5482 0.4548 -999.25 27.7406 0.4762 0.4548 0.4874
2230.3000 17.5000 -999.25 -999.25 69.5700 -999.25 -999.25 0.7649 0.5628 0.5056 -999.25 27.5548 0.6232 0.5056 0.6082
2230.5000 17.5000 -999.25 -999.25 69.4827 -999.25 -999.25 0.8207 0.5744 0.5452 -999.25 27.0907 0.7380 0.5452 0.7386
2230.7000 17.5000 -999.25 -999.25 66.3658 -999.25 -999.25 0.7848 0.5780 0.5800 -999.25 26.5005 0.7541 0.5799 0.7542
2230.9000 17.5000 -999.25 -999.25 61.5796 -999.25 -999.25 0.7438 0.5682 0.5588 -999.25 26.2404 0.7539 0.5588 0.7584
2231.1000 17.5000 -999.25 -999.25 57.7713 -999.25 -999.25 0.7301 0.5713 0.5232 -999.25 26.8106 0.7165 0.5232 0.6820
2231.3000 17.5000 -999.25 -999.25 60.9489 -999.25 -999.25 0.7586 0.5816 0.5056 -999.25 27.7523 0.5755 0.5056 0.5976
2231.5000 17.5000 -999.25 -999.25 66.1832 -999.25 -999.25 0.7487 0.5638 0.5680 -999.25 29.3371 0.6571 0.5680 0.6964
2231.7000 17.5000 -999.25 -999.25 74.5531 -999.25 -999.25 0.7601 0.5603 0.5870 -999.25 31.0837 0.8004 0.5870 0.7890
2231.9000 17.5000 -999.25 -999.25 82.9023 -999.25 -999.25 0.8960 0.5687 0.5495 -999.25 32.6317 0.7968 0.5495 0.7904
2232.1000 17.5000 -999.25 -999.25 81.2289 -999.25 -999.25 0.9000 0.5529 0.5318 -999.25 33.8692 0.7472 0.5318 0.7470
2232.3000 17.5000 -999.25 -999.25 79.1645 -999.25 -999.25 0.8650 0.5256 0.5350 -999.25 33.9988 0.7395 0.5350 0.7643
2232.5000 17.5000 -999.25 -999.25 76.6464 -999.25 -999.25 0.8476 0.5049 0.5480 -999.25 33.6329 0.7910 0.5479 0.8061
2232.7000 17.5000 -999.25 -999.25 72.0391 -999.25 -999.25 0.7979 0.4779 0.6012 -999.25 33.3313 0.9282 0.6012 0.9390
2232.9000 17.5000 -999.25 -999.25 66.2843 -999.25 -999.25 0.6941 0.4564 0.6429 -999.25 33.5181 0.9858 0.6429 0.9998
2233.1000 17.5000 -999.25 -999.25 61.9833 -999.25 -999.25 0.6235 0.4349 0.6388 -999.25 33.7783 1.0069 0.6388 0.9785
2233.3000 17.5000 -999.25 -999.25 57.8227 -999.25 -999.25 0.5666 0.4081 0.5324 -999.25 34.2101 0.7174 0.5324 0.6935
2233.5000 17.5000 -999.25 -999.25 55.3878 -999.25 -999.25 0.5635 0.3909 0.4810 -999.25 34.6563 0.5596 0.4810 0.5570
2233.7000 17.5000 -999.25 -999.25 46.1609 -999.25 -999.25 0.5262 0.3661 0.4759 -999.25 35.2714 0.5039 0.4759 0.5135
2233.9000 17.5000 -999.25 -999.25 37.0864 -999.25 -999.25 0.4375 0.3420 0.4501 -999.25 35.7019 0.4418 0.4501 0.4226
