~Version Information
VERS.                     2.0: CWLS log ASCII Standard Version 2.00
WRAP.                      NO: One line per depth step

~Well Information Block
#MNEM.UNIT                 Value                       Information
#------------              -----                       -----------
STRT.M                    145.9000                    :START
STOP.M                   4684.9000                    :STOP
STEP.M                      0.1000                    :STEP
NULL.                     -999.25                     :NULL VALUE
COMP.         STATOIL PETROLEUM AS                    :Company
WELL.         15/9-F-15 D                             :Well
FLD .         VOLVE                                   :Field
LOC .                                                 :Location
PROV.                                                 :Province
CNTY.         MAERSK INSPIRER                         :County
STATE.                                                 :State
CTRY.         NORWAY                                  :Country
DATE.                                                 :Log Date
SRVC.                                                 :Service Company
UWI .                                                 :Unique Well Identifier
API .                                                 :API Number
LATI.         058 26' 29.706" N    DMS                :Latitude
LONG.         001 53' 15.149" E    DMS                :Longtitude
PD  .         MSL                                     :Permanent Datum
EDF .M                54.9000                         :Elevations D.F.
EGL .M               -91.0000                         :Elevations G.L.
ELZ .M                54.9000                         :Elev. Log Zero
LMF .         DF                                      :Log Measured From
MP  .         DF                                      :Drill Measured From

~Curve Information
#MNEM   .UNIT             API CODE Curve Description
#------------             -------- -----------------
DEPTH   .M            00 001 00 00:   0  Depth
BS      .inches       00 000 00 00:   5  BS:COMPOSITE:rC:NONE:v1
CALI    .inches       70 280 00 01:   6  CALI:COMPOSITE:rC:NONE:v1
DRHO    .g/cm3        45 356 01 01:   7  DRHO:COMPOSITE:rC:NONE:v1
GR      .API          30 150 01 01:   8  GR:COMPOSITE:rC:NONE:v1
NPHI    .v/v          42 890 01 01:  10  NPHI:COMPOSITE:rC:NONE:v1
PEF     .b/elec       45 358 01 01:  11  PEF:COMPOSITE:rC:NONE:v1
RACEHM  .ohm.m        95 220 00 01:  12  RACEHM:COMPOSITE:rC:NONE:v1
RACELM  .ohm.m        00 524 01 00:  13  RACELM:COMPOSITE:rC:NONE:v1
RD      .ohm.m        00 000 00 00:  14  RD:COMPOSITE:rC:NONE:v1
RHOB    .g/cm3        45 350 01 01:  15  RHOB:COMPOSITE:rC:NONE:v1
ROP     .m/hr         00 000 00 00:  17  ROP:COMPOSITE:rC:NONE:v1
RPCEHM  .ohm.m        00 000 00 00:  18  RPCEHM:COMPOSITE:rC:NONE:v1
RPCELM  .ohm.m        00 000 00 00:  19  RPCELM:COMPOSITE:rC:NONE:v1
RT      .ohm.m        00 000 00 00:  20  RT:COMPOSITE:rC:NONE:v1

~Parameter Information
#MNEM.UNIT       Value           Description
#------------    -----           -----------
RUN .         .                 :Run Number

~Other Information
# Subset of the Equinor Volve composite LAS (BinWang0213/Course-PETE4241_19SP_ProjectCode Data/Petrophysics): unused columns removed; data rows copied verbatim. Thinned to every 2nd depth sample (0.2 m) for web delivery.
PETROPHYSICAL INTERPRETATION: INPUT

# --- LOG MNEMONICS AND UNITS ---
#Depth          ABDCQF01        ABDCQF02        ABDCQF03        ABDCQF04        BS              CALI            DRHO            GR              NBGRCFM         NPHI            PEF             RACEHM          RACELM          RD              RHOB            RM              ROP             RPCEHM          RPCELM          RT             
#M              g/cm3           g/cm3           g/cm3           g/cm3           inches          inches          g/cm3           API             API             v/v             b/elec          ohm.m           ohm.m           ohm.m           g/cm3           ohm.m           m/hr            ohm.m           ohm.m           ohm.m          

~A
# ...
4213.9000 8.5000 8.5469 0.0372 25.2130 0.2049 4.3132 9.3137 6.3181 10.6562 2.1934 28.8331 12.5964 10.6562 12.5753
4214.1000 8.5000 8.5469 0.0404 26.2844 0.1980 4.4241 9.2692 6.3035 10.5887 2.1977 28.8411 12.4646 10.5887 12.4759
4214.3000 8.5000 8.5469 0.0416 27.4862 0.1960 4.4430 9.1908 6.3128 10.5048 2.2000 28.8279 12.4136 10.5048 12.4091
4214.5000 8.5000 8.5469 0.0394 25.0070 0.1975 4.3871 9.1187 6.2769 10.4229 2.1969 28.8265 12.3055 10.4229 12.2861
4214.7000 8.5000 8.5469 0.0391 25.7578 0.2004 4.3759 9.0960 6.2621 10.2942 2.1941 28.8379 12.1154 10.2942 12.1348
4214.9000 8.5000 8.5469 0.0403 25.2636 0.2017 4.3973 8.9837 6.2523 10.2383 2.1933 28.8170 12.0114 10.2383 11.9467
4215.1000 8.5000 8.5469 0.0386 25.6655 0.2017 4.4023 8.9010 6.1774 10.1682 2.1902 28.7998 11.8621 10.1682 11.8504
4215.3000 8.5000 8.5469 0.0356 28.0433 0.2061 4.4677 8.8779 6.1985 10.1216 2.1837 28.7938 11.7887 10.1216 11.8037
4215.5000 8.5000 8.5781 0.0359 27.1280 0.2026 4.5887 8.7962 6.1962 10.0762 2.1838 28.8262 11.8491 10.0762 11.8778
4215.7000 8.5000 8.5469 0.0375 25.7037 0.2037 4.6119 8.7490 6.1750 10.0910 2.1897 28.8272 11.8957 10.0910 11.8954
4215.9000 8.5000 8.5779 0.0346 25.2171 0.2075 4.6206 8.7097 6.1765 10.0303 2.1893 28.8193 11.8884 10.0303 11.8384
4216.1000 8.5000 8.5003 0.0327 25.3756 0.2091 4.6487 8.7085 6.1392 9.9403 2.1866 28.6861 11.6297 9.9403 11.6359
4216.3000 8.5000 8.5471 0.0421 25.5457 0.2062 4.7663 8.6858 6.1834 9.9254 2.1950 24.6991 11.5716 9.9254 11.5706
4216.5000 8.5000 8.5784 0.0461 25.5197 0.2021 4.7483 8.7187 6.1375 9.8671 2.1989 17.8080 11.5657 9.8670 11.5948
4216.7000 8.5000 8.5781 0.0417 26.6777 0.2068 4.5830 8.7054 6.1184 9.9554 2.1975 15.6024 11.7153 9.9554 11.6760
4216.9000 8.5000 8.5781 0.0407 26.8027 0.2100 4.5733 8.7253 6.0622 9.9255 2.1985 15.1215 11.6694 9.9255 11.6756
4217.1000 8.5000 8.6250 0.0409 28.0181 0.2032 4.7207 8.7414 6.0759 9.9700 2.1963 16.3539 11.6885 9.9700 11.6650
4217.3000 8.5000 8.5781 0.0415 26.4529 0.1970 4.7677 8.7811 6.0691 9.8526 2.1950 19.8210 11.5521 9.8525 11.5566
4217.5000 8.5000 8.5469 0.0422 26.6892 0.1928 4.6172 8.8517 6.0409 9.8811 2.1969 23.1121 11.4816 9.8811 11.4986
4217.7000 8.5000 8.5466 0.0395 26.8701 0.1983 4.4390 8.8657 6.0406 9.8376 2.1948 26.8388 11.5453 9.8376 11.5303
4217.9000 8.5000 8.5000 0.0364 27.1020 0.2039 4.3403 8.9310 6.0268 9.8821 2.1916 29.6368 11.5849 9.8820 11.5678
4218.1000 8.5000 8.5001 0.0357 27.4883 0.2087 4.2935 9.0251 6.0059 10.0153 2.1943 31.6226 11.8360 10.0153 11.8645
4218.3000 8.5000 8.5469 0.0370 27.6296 0.2087 4.3456 9.1125 5.9308 10.1686 2.1972 32.0648 12.0282 10.1686 12.1303
4218.5000 8.5000 8.5469 0.0380 27.5949 0.1996 4.3944 9.3779 5.9163 10.3032 2.1931 32.0497 12.5835 10.3031 12.6699
4218.7000 8.5000 8.5469 0.0386 28.2463 0.1944 4.3726 9.4464 5.9154 10.4724 2.1899 32.0234 12.9229 10.4724 13.0211
4218.9000 8.5000 8.5469 0.0398 26.6163 0.1983 4.3624 9.5715 5.8660 10.5389 2.1924 31.9810 13.1647 10.5389 13.2026
4219.1000 8.5000 8.5469 0.0399 26.4994 0.2007 4.3606 9.6618 5.9089 10.6993 2.1941 31.8322 13.4069 10.6993 13.4693
4219.3000 8.5000 8.5469 0.0379 26.7711 0.2016 4.3162 9.8022 5.8556 10.8112 2.1902 31.6615 13.6367 10.8112 13.6023
4219.5000 8.5000 8.5469 0.0372 26.8574 0.1954 4.2733 9.8630 5.8844 10.8463 2.1873 31.4930 13.7211 10.8463 13.7028
4219.7000 8.5000 8.5469 0.0362 27.7682 0.1926 4.2391 9.8055 5.8698 10.8990 2.1844 31.2955 13.7034 10.8990 13.6635
4219.9000 8.5000 8.5469 0.0358 28.6961 0.1967 4.2433 9.8137 5.9538 10.8990 2.1841 31.1680 13.6112 10.8990 13.5411
4220.1000 8.5000 8.5469 0.0371 27.3013 0.1944 4.2918 9.7707 5.9314 10.8994 2.1866 31.0869 13.6621 10.8994 13.6581
4220.3000 8.5000 8.5000 0.0336 27.2439 0.1921 4.2442 9.8301 5.9456 10.9001 2.1850 31.0877 13.8405 10.9000 13.8437
4220.5000 8.5000 8.4845 0.0273 28.5019 0.1898 4.0452 9.8589 5.9514 11.0431 2.1814 31.1284 13.8234 11.0431 13.8509
4220.7000 8.5000 8.3753 0.0266 27.0526 0.1946 3.8936 9.9023 6.0639 11.1152 2.1840 31.1809 13.8745 11.1153 13.8530
4220.9000 8.5000 8.4688 0.0329 29.1001 0.2022 4.0038 9.9467 6.0299 11.0971 2.1920 31.1900 13.7290 11.0971 13.7124
4221.1000 8.5000 8.5469 0.0378 28.4074 0.1971 4.2624 9.9464 6.0483 10.9704 2.1934 31.1864 13.5611 10.9704 13.5418
4221.3000 8.5000 8.5469 0.0383 28.8086 0.1920 4.3640 9.9690 6.0231 10.9698 2.1905 31.1731 13.3804 10.9699 13.3498
4221.5000 8.5000 8.5469 0.0391 30.0954 0.1931 4.3261 9.9118 6.0479 10.9348 2.1900 31.1607 13.4731 10.9348 13.5495
4221.7000 8.5000 8.5469 0.0409 29.3094 0.1919 4.3564 9.7137 5.9297 10.9164 2.1897 31.1452 13.9259 10.9164 13.8802
4221.9000 8.5000 8.5469 0.0429 28.0580 0.1934 4.4192 9.5689 5.9200 10.8104 2.1915 31.1382 13.7033 10.8105 13.6388
4222.1000 8.5000 8.5471 0.0428 27.8731 0.1949 4.4331 9.3976 5.8469 10.5720 2.1902 31.1399 13.5940 10.5720 13.5582
4222.3000 8.5000 8.5471 0.0425 27.3477 0.1958 4.4000 9.2039 5.8034 10.4306 2.1923 31.1444 13.4086 10.4307 13.3551
4222.5000 8.5000 8.5471 0.0440 26.0285 0.1999 4.3343 9.0218 5.8042 10.3743 2.1978 31.1474 13.3233 10.3743 13.2170
4222.7000 8.5000 8.5779 0.0423 25.4886 0.2018 4.3609 8.7803 5.7691 10.2466 2.1935 31.1501 13.1089 10.2466 13.1081
4222.9000 8.5000 8.5469 0.0412 26.4035 0.2008 4.4186 8.5718 5.6893 10.0913 2.1904 31.1535 13.0218 10.0913 12.9925
4223.1000 8.5000 8.5469 0.0404 26.5133 0.1977 4.4223 8.3915 5.6697 9.9403 2.1892 31.1508 12.8899 9.9403 12.8003
4223.3000 8.5000 8.5469 0.0386 26.2773 0.1941 4.4084 8.2067 5.6087 9.7648 2.1874 31.1411 12.5745 9.7648 12.5812
4223.5000 8.5000 8.5469 0.0379 25.7722 0.1955 4.3619 8.1019 5.5845 9.6651 2.1903 31.1285 12.4135 9.6652 12.3954
4223.7000 8.5000 8.5469 0.0386 25.8211 0.2006 4.3628 7.9444 5.5638 9.5819 2.1907 31.1192 12.3064 9.5819 12.3459
4223.9000 8.5000 8.5469 0.0378 27.2830 0.2008 4.3733 7.9849 5.5316 9.5544 2.1859 31.1088 12.3419 9.5544 12.3457
4224.1000 8.5000 8.5469 0.0386 25.0920 0.1951 4.4519 7.9833 5.5179 9.5957 2.1846 31.1031 12.3638 9.5957 12.3755
4224.3000 8.5000 8.5469 0.0401 25.2851 0.1908 4.5049 8.0544 5.4927 9.5680 2.1857 31.1076 12.4939 9.5680 12.4618
4224.5000 8.5000 8.5471 0.0399 27.6301 0.1896 4.4642 8.1473 5.4728 9.7077 2.1870 31.1187 12.6339 9.7077 12.6066
4224.7000 8.5000 8.5469 0.0410 29.1247 0.1883 4.3794 8.2239 5.3941 9.8083 2.1883 31.1229 12.8374 9.8083 12.9139
4224.9000 8.5000 8.5471 0.0398 28.8858 0.1986 4.2550 8.3521 5.4109 9.9276 2.1842 30.5298 13.3002 9.9276 13.4562
4225.1000 8.5000 8.5624 0.0373 27.3386 0.2082 4.2554 8.6238 5.3576 10.2315 2.1755 27.9711 14.0401 10.2315 13.9675
4225.3000 8.5000 8.5469 0.0383 26.9404 0.2019 4.4125 8.8284 5.3652 10.4729 2.1720 27.7596 14.3353 10.4729 14.4052
4225.5000 8.5000 8.5469 0.0411 28.2180 0.1951 4.4662 9.2451 5.3744 10.7248 2.1774 28.8576 14.8940 10.7248 14.9088
4225.7000 8.5000 8.5469 0.0418 29.2276 0.1982 4.3915 9.3561 5.3495 10.9174 2.1822 29.8061 15.1576 10.9173 15.1527
4225.9000 8.5000 8.5470 0.0395 28.4937 0.1980 4.3060 9.4935 5.3362 10.9536 2.1803 30.5233 15.3385 10.9536 15.3944
4226.1000 8.5000 8.5469 0.0368 26.7112 0.1984 4.3112 9.8993 5.4218 11.1916 2.1764 31.1444 15.7860 11.1915 15.8803
4226.3000 8.5000 8.5469 0.0366 26.5831 0.1982 4.4026 10.2223 5.4019 11.3973 2.1767 31.1302 16.0117 11.3974 16.1193
4226.5000 8.5000 8.5469 0.0358 26.5969 0.1973 4.4675 10.2314 5.3995 11.4545 2.1762 31.1166 16.1190 11.4545 16.0975
4226.7000 8.5000 8.5469 0.0369 26.8149 0.2003 4.4218 10.2082 5.3510 11.2361 2.1782 31.1013 15.9203 11.2361 15.8557
4226.9000 8.5000 8.5469 0.0351 27.3994 0.2070 4.2875 9.9306 5.3976 11.0238 2.1765 31.0935 15.2055 11.0238 15.3150
4227.1000 8.5000 8.5469 0.0326 27.6549 0.2090 4.2621 9.7756 5.4022 10.8631 2.1726 31.0915 14.7689 10.8632 14.8149
4227.3000 8.5000 8.5469 0.0347 27.5114 0.2060 4.3256 9.5595 5.3770 10.6892 2.1764 31.0949 14.5977 10.6893 14.5066
4227.5000 8.5000 8.5469 0.0337 28.1433 0.2040 4.2977 9.3276 5.3107 10.3250 2.1792 31.0978 13.4676 10.3251 13.5354
4227.7000 8.5000 8.5469 0.0323 27.7530 0.1984 4.2279 8.9436 5.3882 9.9693 2.1819 31.1075 12.5284 9.9693 12.3533
4227.9000 8.5000 8.5469 0.0319 27.3802 0.2025 4.3217 8.6896 5.3695 9.6370 2.1851 31.1132 11.8612 9.6371 11.8122
