~Version Information
VERS.                     2.0: CWLS log ASCII Standard Version 2.00
WRAP.                      NO: One line per depth step

~Well Information Block
#MNEM.UNIT                 Value                       Information
#------------              -----                       -----------
STRT.M                    145.9000                    :START
STOP.M                   3681.9000                    :STOP
STEP.M                      0.1000                    :STEP
NULL.                     -999.25                     :NULL VALUE
COMP.         Statoil Petroleum AS                    :Company
WELL.         15/9-F-1 A                              :Well
FLD .         VOLVE                                   :Field
LOC .         Maersk Inspirer                         :Location
PROV.                                                 :Province
CNTY.         Unused                                  :County
STATE.                                                 :State
CTRY.                                                 :Country
DATE.                                                 :Log Date
SRVC.                                                 :Service Company
UWI .         1A                                     :Unique Well Identifier
API .                                                 :API Number
LATI.         058 26' 29.907" N    DMS                :Latitude
LONG.         001 53' 14.708" E    DMS                :Longtitude
PD  .         MSL                                     :Permanent Datum
ELZ .M                 0.0000                         :Elev. Log Zero

~Curve Information
#MNEM   .UNIT             API CODE Curve Description
#------------             -------- -----------------
DEPTH   .M            00 001 00 00:   0  Depth
BS      .inches       00 000 00 00:   5  BS:COMPOSITE:rC:NONE:v1
CALI    .inches       70 280 00 01:   6  CALI:COMPOSITE:rC:0001:v1
DRHO    .g/cm3        45 356 01 01:   7  DRHO:COMPOSITE:rC:0001:v1
DT      .us/ft        60 520 32 01:   8  DT:COMPOSITE:rC:0001:v1
DTS     .us/ft        00 000 00 00:   9  DTS:COMPOSITE:rC:0001:v1
GR      .API          30 150 01 01:  10  GR:COMPOSITE:rC:0001:v1
NPHI    .v/v          42 890 01 01:  11  NPHI:COMPOSITE:rC:0001:v1
PEF     .b/elec       45 358 01 01:  12  PEF:COMPOSITE:rC:0001:v1
RACEHM  .UNKNOWN      95 220 00 01:  13  RACEHM:COMPOSITE:rC:0001:v1
RACELM  .UNKNOWN      00 524 01 00:  14  RACELM:COMPOSITE:rC:0001:v1
RHOB    .g/cm3        45 350 01 01:  15  RHOB:COMPOSITE:rC:0001:v1
ROP     .m/hr         00 000 00 00:  16  ROP:COMPOSITE:rC:0001:v1
RPCEHM  .UNKNOWN      00 000 00 00:  17  RPCEHM:COMPOSITE:rC:0001:v1
RPCELM  .UNKNOWN      00 000 00 00:  18  RPCELM:COMPOSITE:rC:0001:v1
RT      .ohm.m        00 000 00 00:  19  RT:COMPOSITE:rC:0001:v1

~Parameter Information
#MNEM.UNIT       Value           Description
#------------    -----           -----------
HLD .         Terms and Conditions.:Header Legal Disclaimer
RUN .         1                 :Run number

~Other Information
# Subset of the Equinor Volve composite LAS (andymcdgeo/Petrophysics-Python-Series Data/Volve): unused columns removed; data rows copied verbatim. Thinned to every 2nd depth sample (0.2 m) for web delivery.
PETROPHYSICAL INTERPRETATION: INPUT

# --- LOG MNEMONICS AND UNITS ---
#Depth          ABDCQF01        ABDCQF02        ABDCQF03        ABDCQF04        BS              CALI            DRHO            DT              DTS             GR              NPHI            PEF             RACEHM          RACELM          RHOB            ROP             RPCEHM          RPCELM          RT             
#M              g/cm3           g/cm3           g/cm3           g/cm3           inches          inches          g/cm3           us/ft           us/ft           API             v/v             b/elec          UNKNOWN         UNKNOWN         g/cm3           m/hr            UNKNOWN         UNKNOWN         ohm.m          

~A
# ...
234.3000 26.0000 -999.25 -999.25 -999.25 -999.25 19.6910 -999.25 -999.25 2.2703 2.2063 -999.25 36.0057 2.2099 2.1892 2.2099
234.5000 26.0000 -999.25 -999.25 -999.25 -999.25 19.2967 -999.25 -999.25 2.1692 2.1779 -999.25 35.5186 2.2411 2.1801 2.2411
234.7000 26.0000 -999.25 -999.25 -999.25 -999.25 22.9559 -999.25 -999.25 2.1085 2.1405 -999.25 35.2539 1.9733 2.0163 1.9733
234.9000 26.0000 -999.25 -999.25 -999.25 -999.25 23.3258 -999.25 -999.25 1.8952 2.0482 -999.25 35.2101 1.8503 1.8335 1.8503
235.1000 26.0000 -999.25 -999.25 -999.25 -999.25 23.1628 -999.25 -999.25 1.8589 2.0039 -999.25 35.0020 1.8621 1.7836 1.8621
235.3000 26.0000 -999.25 -999.25 -999.25 -999.25 22.4580 -999.25 -999.25 1.8646 2.0322 -999.25 34.7518 1.6105 1.7005 1.6105
235.5000 26.0000 -999.25 -999.25 -999.25 -999.25 23.3502 -999.25 -999.25 2.0795 2.1554 -999.25 34.4591 1.6849 1.8547 1.6849
235.7000 26.0000 -999.25 -999.25 -999.25 -999.25 23.3696 -999.25 -999.25 2.2942 2.1982 -999.25 33.6469 1.9331 2.0507 1.9331
235.9000 26.0000 -999.25 -999.25 -999.25 -999.25 23.3949 -999.25 -999.25 2.1793 2.1643 -999.25 32.6886 1.8823 2.0284 1.8823
236.1000 26.0000 -999.25 -999.25 -999.25 -999.25 24.3634 -999.25 -999.25 2.2724 2.2224 -999.25 31.5850 1.8820 2.0227 1.8820
236.3000 26.0000 -999.25 -999.25 -999.25 -999.25 25.2549 -999.25 -999.25 2.1598 2.1783 -999.25 30.5846 1.9807 2.0413 1.9807
236.5000 26.0000 -999.25 -999.25 -999.25 -999.25 24.6390 -999.25 -999.25 2.1175 2.1608 -999.25 29.4651 1.9511 1.9836 1.9511
236.7000 26.0000 -999.25 -999.25 -999.25 -999.25 26.5806 -999.25 -999.25 2.0917 2.1377 -999.25 28.2275 2.0828 2.0291 2.0828
236.9000 26.0000 -999.25 -999.25 -999.25 -999.25 26.8915 -999.25 -999.25 2.0589 2.1266 -999.25 27.0326 2.1598 2.0470 2.1598
237.1000 26.0000 -999.25 -999.25 -999.25 -999.25 27.1601 -999.25 -999.25 2.0512 2.1369 -999.25 26.3810 2.2710 2.1006 2.2710
237.3000 26.0000 -999.25 -999.25 -999.25 -999.25 25.3919 -999.25 -999.25 2.0661 2.1455 -999.25 26.2689 2.2873 2.1144 2.2873
237.5000 26.0000 -999.25 -999.25 -999.25 -999.25 26.6027 -999.25 -999.25 2.0911 2.1454 -999.25 25.6642 2.2636 2.1137 2.2636
237.7000 26.0000 -999.25 -999.25 -999.25 -999.25 26.5685 -999.25 -999.25 2.0852 2.1588 -999.25 24.2834 2.2177 2.0935 2.2177
237.9000 26.0000 -999.25 -999.25 -999.25 -999.25 25.8900 -999.25 -999.25 2.1267 2.2104 -999.25 22.1313 2.0888 2.0699 2.0888
238.1000 26.0000 -999.25 -999.25 -999.25 -999.25 24.9804 -999.25 -999.25 2.2522 2.2936 -999.25 20.2061 1.9300 2.0435 1.9300
238.3000 26.0000 -999.25 -999.25 -999.25 -999.25 24.2059 -999.25 -999.25 2.3401 2.3491 -999.25 18.9848 1.9261 2.0826 1.9261
238.5000 26.0000 -999.25 -999.25 -999.25 -999.25 22.7150 -999.25 -999.25 2.3409 2.3856 -999.25 18.4640 2.0488 2.1632 2.0488
238.7000 26.0000 -999.25 -999.25 -999.25 -999.25 23.4778 -999.25 -999.25 2.3608 2.4188 -999.25 18.3644 2.2304 2.2638 2.2304
238.9000 26.0000 -999.25 -999.25 -999.25 -999.25 23.8670 -999.25 -999.25 2.3693 2.4484 -999.25 18.1657 2.3147 2.3140 2.3147
239.1000 26.0000 -999.25 -999.25 -999.25 -999.25 23.7108 -999.25 -999.25 2.3434 2.4305 -999.25 17.8673 2.4290 2.3580 2.4290
239.3000 26.0000 -999.25 -999.25 -999.25 -999.25 23.3227 -999.25 -999.25 2.3333 2.4506 -999.25 16.9074 2.3947 2.3494 2.3947
239.5000 26.0000 -999.25 -999.25 -999.25 -999.25 23.1866 -999.25 -999.25 2.2614 2.4306 -999.25 16.5380 2.3327 2.3077 2.3327
239.7000 26.0000 -999.25 -999.25 -999.25 -999.25 23.1551 -999.25 -999.25 2.2852 2.4683 -999.25 16.7560 2.4161 2.3585 2.4161
239.9000 26.0000 -999.25 -999.25 -999.25 -999.25 23.0103 -999.25 -999.25 2.4274 2.4920 -999.25 17.0078 2.4052 2.4062 2.4052
240.1000 26.0000 -999.25 -999.25 -999.25 -999.25 23.3045 -999.25 -999.25 2.5069 2.4982 -999.25 17.3321 2.4973 2.4115 2.4973
240.3000 26.0000 -999.25 -999.25 -999.25 -999.25 23.7944 -999.25 -999.25 2.3153 2.4625 -999.25 17.7280 2.3765 2.3157 2.3765
240.5000 26.0000 -999.25 -999.25 -999.25 -999.25 22.8793 -999.25 -999.25 2.3077 2.4420 -999.25 17.9126 2.1972 2.2219 2.1972
240.7000 26.0000 -999.25 -999.25 -999.25 -999.25 22.1899 -999.25 -999.25 2.2071 2.4211 -999.25 18.0973 2.1034 2.1693 2.1034
240.9000 26.0000 -999.25 -999.25 -999.25 -999.25 21.9561 -999.25 -999.25 2.2841 2.4060 -999.25 18.2817 2.0255 2.1472 2.0255
241.1000 26.0000 -999.25 -999.25 -999.25 -999.25 22.1953 -999.25 -999.25 2.3466 2.4031 -999.25 18.1433 2.1670 2.2176 2.1670
241.3000 26.0000 -999.25 -999.25 -999.25 -999.25 22.9602 -999.25 -999.25 2.4183 2.3935 -999.25 17.9083 2.3750 2.3238 2.3750
241.5000 26.0000 -999.25 -999.25 -999.25 -999.25 23.0893 -999.25 -999.25 2.3535 2.3521 -999.25 17.5777 2.4722 2.3331 2.4722
241.7000 26.0000 -999.25 -999.25 -999.25 -999.25 23.9012 -999.25 -999.25 2.3434 2.3584 -999.25 17.4907 2.4125 2.3051 2.4125
241.9000 26.0000 -999.25 -999.25 -999.25 -999.25 23.5746 -999.25 -999.25 2.5402 2.3930 -999.25 17.4637 2.1210 2.2188 2.1210
242.1000 26.0000 -999.25 -999.25 -999.25 -999.25 23.6658 -999.25 -999.25 2.6510 2.4023 -999.25 17.4969 1.9323 2.1406 1.9323
242.3000 26.0000 -999.25 -999.25 -999.25 -999.25 23.6157 -999.25 -999.25 2.5001 2.3579 -999.25 17.6813 1.8443 2.0846 1.8443
242.5000 26.0000 -999.25 -999.25 -999.25 -999.25 23.3636 -999.25 -999.25 2.4864 2.3323 -999.25 18.0209 1.8055 2.0607 1.8055
242.7000 26.0000 -999.25 -999.25 -999.25 -999.25 23.7085 -999.25 -999.25 2.4082 2.2960 -999.25 18.5129 1.8648 2.0686 1.8648
242.9000 26.0000 -999.25 -999.25 -999.25 -999.25 23.2390 -999.25 -999.25 2.3903 2.2499 -999.25 17.6137 2.0082 2.1012 2.0082
243.1000 26.0000 -999.25 -999.25 -999.25 -999.25 23.4922 -999.25 -999.25 2.2690 2.1999 -999.25 16.1326 2.0571 2.0765 2.0571
243.3000 26.0000 -999.25 -999.25 -999.25 -999.25 23.8912 -999.25 -999.25 2.2794 2.1738 -999.25 14.0741 1.9675 2.0276 1.9675
243.5000 26.0000 -999.25 -999.25 -999.25 -999.25 24.2267 -999.25 -999.25 2.3716 2.1752 -999.25 12.7478 1.9285 2.0180 1.9285
243.7000 26.0000 -999.25 -999.25 -999.25 -999.25 23.6234 -999.25 -999.25 2.3430 2.1922 -999.25 12.0343 1.7796 1.9682 1.7796
243.9000 26.0000 -999.25 -999.25 -999.25 -999.25 22.1912 -999.25 -999.25 2.1353 2.1577 -999.25 11.9302 1.7900 1.9423 1.7900
244.1000 26.0000 -999.25 -999.25 -999.25 -999.25 22.0961 -999.25 -999.25 1.9622 2.1140 -999.25 12.0688 1.8752 1.9390 1.8752
244.3000 26.0000 -999.25 -999.25 -999.25 -999.25 23.2019 -999.25 -999.25 2.0940 2.1225 -999.25 12.6159 1.8021 1.9269 1.8021
244.5000 26.0000 -999.25 -999.25 -999.25 -999.25 24.4926 -999.25 -999.25 2.0056 2.0621 -999.25 13.5689 1.9805 1.9830 1.9805
244.7000 26.0000 -999.25 -999.25 -999.25 -999.25 24.9184 -999.25 -999.25 1.9103 1.9971 -999.25 14.5378 2.2374 2.0466 2.2374
244.9000 26.0000 -999.25 -999.25 -999.25 -999.25 25.4245 -999.25 -999.25 1.9503 1.9516 -999.25 15.5222 2.0447 1.9733 2.0447
245.1000 26.0000 -999.25 -999.25 -999.25 -999.25 25.3105 -999.25 -999.25 2.1231 1.9011 -999.25 16.5213 1.6983 1.8407 1.6983
245.3000 26.0000 -999.25 -999.25 -999.25 -999.25 24.4347 -999.25 -999.25 1.8670 1.7662 -999.25 16.9432 1.7863 1.8057 1.7863
245.5000 26.0000 -999.25 -999.25 -999.25 -999.25 25.9136 -999.25 -999.25 1.5807 1.5648 -999.25 17.3441 2.1509 1.7964 2.1509
245.7000 26.0000 -999.25 -999.25 -999.25 -999.25 26.6459 -999.25 -999.25 1.5008 1.4181 -999.25 17.7251 2.1605 1.7522 2.1605
245.9000 26.0000 -999.25 -999.25 -999.25 -999.25 25.2807 -999.25 -999.25 1.3711 1.2520 -999.25 18.7280 2.0230 1.6210 2.0230
246.1000 26.0000 -999.25 -999.25 -999.25 -999.25 23.7738 -999.25 -999.25 1.2511 1.1041 -999.25 19.5949 1.7901 1.4427 1.7901
246.3000 26.0000 -999.25 -999.25 -999.25 -999.25 22.8426 -999.25 -999.25 1.1094 0.9479 -999.25 20.3246 1.4782 1.1976 1.4782
246.5000 26.0000 -999.25 -999.25 -999.25 -999.25 20.8900 -999.25 -999.25 0.8490 0.8093 -999.25 19.8155 0.9254 0.8784 0.9254
246.7000 26.0000 -999.25 -999.25 -999.25 -999.25 15.7375 -999.25 -999.25 0.5751 0.6876 -999.25 19.8729 0.5591 0.5873 0.5591
246.9000 26.0000 -999.25 -999.25 -999.25 -999.25 10.4174 -999.25 -999.25 0.4002 0.5753 -999.25 20.4945 0.3627 0.4121 0.3627
247.1000 26.0000 -999.25 -999.25 -999.25 -999.25 6.0909 -999.25 -999.25 0.2639 0.4682 -999.25 21.7196 0.2659 0.2919 0.2659
