~Version Information
VERS.                     2.0: CWLS log ASCII Standard Version 2.00
WRAP.                      NO: One line per depth step

~Well Information Block
#MNEM.UNIT                 Value                       Information
#------------              -----                       -----------
STRT.M                    145.9000                    :START
STOP.M                   4684.9000                    :STOP
STEP.M                      0.1000                    :STEP
NULL.                     -999.25                     :NULL VALUE
COMP.         STATOIL PETROLEUM AS                    :Company
WELL.         15/9-F-15 D                             :Well
FLD .         VOLVE                                   :Field
LOC .                                                 :Location
PROV.                                                 :Province
CNTY.         MAERSK INSPIRER                         :County
STATE.                                                 :State
CTRY.         NORWAY                                  :Country
DATE.                                                 :Log Date
SRVC.                                                 :Service Company
UWI .                                                 :Unique Well Identifier
API .                                                 :API Number
LATI.         058 26' 29.706" N    DMS                :Latitude
LONG.         001 53' 15.149" E    DMS                :Longtitude
PD  .         MSL                                     :Permanent Datum
EDF .M                54.9000                         :Elevations D.F.
EGL .M               -91.0000                         :Elevations G.L.
ELZ .M                54.9000                         :Elev. Log Zero
LMF .         DF                                      :Log Measured From
MP  .         DF                                      :Drill Measured From

~Curve Information
#MNEM   .UNIT             API CODE Curve Description
#------------             -------- -----------------
DEPTH   .M            00 001 00 00:   0  Depth
BS      .inches       00 000 00 00:   5  BS:COMPOSITE:rC:NONE:v1
CALI    .inches       70 280 00 01:   6  CALI:COMPOSITE:rC:NONE:v1
DRHO    .g/cm3        45 356 01 01:   7  DRHO:COMPOSITE:rC:NONE:v1
GR      .API          30 150 01 01:   8  GR:COMPOSITE:rC:NONE:v1
NPHI    .v/v          42 890 01 01:  10  NPHI:COMPOSITE:rC:NONE:v1
PEF     .b/elec       45 358 01 01:  11  PEF:COMPOSITE:rC:NONE:v1
RACEHM  .ohm.m        95 220 00 01:  12  RACEHM:COMPOSITE:rC:NONE:v1
RACELM  .ohm.m        00 524 01 00:  13  RACELM:COMPOSITE:rC:NONE:v1
RD      .ohm.m        00 000 00 00:  14  RD:COMPOSITE:rC:NONE:v1
RHOB    .g/cm3        45 350 01 01:  15  RHOB:COMPOSITE:rC:NONE:v1
ROP     .m/hr         00 000 00 00:  17  ROP:COMPOSITE:rC:NONE:v1
RPCEHM  .ohm.m        00 000 00 00:  18  RPCEHM:COMPOSITE:rC:NONE:v1
RPCELM  .ohm.m        00 000 00 00:  19  RPCELM:COMPOSITE:rC:NONE:v1
RT      .ohm.m        00 000 00 00:  20  RT:COMPOSITE:rC:NONE:v1

~Parameter Information
#MNEM.UNIT       Value           Description
#------------    -----           -----------
RUN .         .                 :Run Number

~Other Information
# Subset of the Equinor Volve composite LAS (BinWang0213/Course-PETE4241_19SP_ProjectCode Data/Petrophysics): unused columns removed; data rows copied verbatim. Thinned to every 2nd depth sample (0.2 m) for web delivery.
PETROPHYSICAL INTERPRETATION: INPUT

# --- LOG MNEMONICS AND UNITS ---
#Depth          ABDCQF01        ABDCQF02        ABDCQF03        ABDCQF04        BS              CALI            DRHO            GR              NBGRCFM         NPHI            PEF             RACEHM          RACELM          RD              RHOB            RM              ROP             RPCEHM          RPCELM          RT             
#M              g/cm3           g/cm3           g/cm3           g/cm3           inches          inches          g/cm3           API             API             v/v             b/elec          ohm.m           ohm.m           ohm.m           g/cm3           ohm.m           m/hr            ohm.m           ohm.m           ohm.m          

~A
# ...
3777.5000 8.5000 8.5469 0.0267 25.7441 0.1840 4.8625 33.8850 22.7160 40.9999 2.2679 32.6743 46.0534 41.0006 46.1793
3777.7000 8.5000 8.5469 0.0319 25.2353 0.1827 4.9000 35.4282 24.3662 36.9032 2.2799 32.9997 39.0565 36.9034 39.0274
3777.9000 8.5000 8.5469 0.0287 23.0510 0.1712 4.7659 32.6817 24.8823 35.4742 2.2686 32.9463 36.5478 35.4741 36.7359
3778.1000 8.5000 8.5469 0.0286 21.5078 0.1638 4.4878 31.9858 25.3283 34.9287 2.2569 32.8697 37.1511 34.9284 38.6864
3778.3000 8.5000 8.5469 0.0317 21.1463 0.1634 4.3035 35.0489 25.8499 35.7396 2.2459 32.6637 36.7849 35.7400 36.6427
3778.5000 8.5000 8.5469 0.0332 21.0982 0.1610 4.4147 41.2722 26.1317 34.1482 2.2450 32.3481 32.7832 34.1475 35.1303
3778.7000 8.5000 8.5469 0.0336 22.3714 0.1604 4.6250 32.5100 24.5753 38.9401 2.2586 32.2614 43.5966 38.9403 42.8769
3778.9000 8.5000 8.5469 0.0359 21.7458 0.1584 4.7263 31.6949 23.8369 39.9367 2.2749 32.3542 45.3683 39.9375 43.1702
3779.1000 8.5000 8.5469 0.0377 19.5332 0.1556 4.7760 36.1966 24.9888 32.1545 2.2802 32.5635 29.2920 32.1551 28.7359
3779.3000 8.5000 8.5469 0.0400 17.3816 0.1528 4.7113 34.5104 25.0522 31.2381 2.2650 32.3297 30.1740 31.2369 33.8106
3779.5000 8.5000 8.5469 0.0426 16.8198 0.1500 4.5413 33.5938 22.9480 36.9087 2.2445 32.1012 42.5712 36.9087 41.7767
3779.7000 8.5000 8.5469 0.0422 17.2730 0.1458 4.4482 32.7146 22.7313 36.1694 2.2315 31.8132 42.4969 36.1696 41.3594
3779.9000 8.5000 8.5469 0.0404 17.5443 0.1444 4.4372 29.8873 22.6847 33.5584 2.2299 31.5627 37.1356 33.5586 36.7873
3780.1000 8.5000 8.5469 0.0382 19.4484 0.1504 4.4939 29.7684 21.7060 32.7579 2.2368 31.4150 36.2244 32.7580 35.9829
3780.3000 8.5000 8.5469 0.0337 20.1275 0.1507 4.6444 29.8856 21.3164 32.7609 2.2471 31.3353 36.9243 32.7609 36.4877
3780.5000 8.5000 8.5469 0.0228 19.1173 0.1458 4.7197 29.0366 21.3287 32.0481 2.2612 31.3344 35.1110 32.0484 34.0997
3780.7000 8.5000 8.5469 0.0253 20.3100 0.1518 4.7352 29.6304 21.8854 30.8343 2.2968 31.3376 33.3251 30.8342 33.1778
3780.9000 8.5000 8.5469 0.0486 21.1484 0.1635 4.6757 28.6033 21.8646 31.7122 2.3398 32.1151 34.5597 31.7122 33.4641
3781.1000 8.5000 8.5469 0.0436 21.0608 0.1655 4.7584 30.0499 23.2043 27.6108 2.3334 36.7090 28.9800 27.6115 26.3404
3781.3000 8.5000 8.5469 0.0249 21.8225 0.1611 5.0089 44.0656 26.3496 23.1840 2.3180 37.5770 19.3414 23.1847 17.4674
3781.5000 8.5000 8.5469 0.0293 22.4631 0.1589 5.0410 69.5557 30.9409 22.2339 2.3220 36.7276 16.8027 22.2332 17.6812
3781.7000 8.5000 8.5469 0.0404 21.0729 0.1548 4.9265 38.4948 25.6538 25.8149 2.3116 35.2452 24.7417 25.8148 24.6275
3781.9000 8.5000 8.5469 0.0448 19.2240 0.1520 4.7633 35.5596 23.8885 26.6154 2.2874 33.9011 25.7757 26.6152 25.5277
3782.1000 8.5000 8.5469 0.0407 19.5851 0.1483 4.6807 36.4491 23.8315 27.5482 2.2652 32.7269 27.4337 27.5479 27.3322
3782.3000 8.5000 8.5469 0.0411 18.9846 0.1419 4.6500 38.1257 23.8368 28.0842 2.2625 32.0661 28.5261 28.0838 29.5706
3782.5000 8.5000 8.5469 0.0436 18.5642 0.1340 4.5595 32.1952 21.8539 30.4145 2.2635 31.7876 33.9442 30.4144 34.3214
3782.7000 8.5000 8.5469 0.0403 17.7381 0.1305 4.4443 29.6534 20.9858 31.2748 2.2608 31.6553 36.8888 31.2745 36.6643
3782.9000 8.5000 8.5469 0.0396 16.9045 0.1388 4.3902 29.1146 20.2603 32.2848 2.2609 31.4903 37.9501 32.2849 37.5806
3783.1000 8.5000 8.5469 0.0422 17.0840 0.1494 4.5908 29.4523 21.5235 31.8206 2.2531 31.3691 36.3796 31.8209 35.5402
3783.3000 8.5000 8.5469 0.0401 17.8486 0.1527 4.8326 29.7680 21.2022 30.5151 2.2324 31.3367 33.6442 30.5151 34.3733
3783.5000 8.5000 8.5469 0.0346 17.6998 0.1519 4.7469 26.6705 20.8018 32.2922 2.2118 31.3613 39.2450 32.2920 38.3216
3783.7000 8.5000 8.5469 0.0344 17.4990 0.1532 4.6005 27.6751 21.3734 31.8262 2.2060 31.3580 36.5524 31.8262 36.4836
3783.9000 8.5000 8.5469 0.0370 17.6531 0.1553 4.5837 27.4955 22.0422 31.6021 2.2051 31.3502 36.5559 31.6020 36.7847
3784.1000 8.5000 8.5469 0.0363 16.1937 0.1559 4.5390 27.0541 21.3760 31.6010 2.1991 31.3850 36.9636 31.6010 36.7073
3784.3000 8.5000 8.5469 0.0364 14.2419 0.1539 4.5358 27.4440 21.3808 31.6031 2.1936 31.4180 35.4442 31.6031 36.0122
3784.5000 8.5000 8.5469 0.0376 14.6702 0.1499 4.6465 26.9047 20.3193 32.0519 2.1954 31.4213 35.8657 32.0520 36.1403
3784.7000 8.5000 8.5469 0.0390 15.4838 0.1496 4.7144 26.6745 20.5019 32.0551 2.2043 31.4241 36.3912 32.0551 36.4296
3784.9000 8.5000 8.5469 0.0381 16.2451 0.1517 4.7430 26.0320 21.6667 31.9477 2.2131 31.4274 37.4736 31.9474 37.4356
3785.1000 8.5000 8.5469 0.0344 15.7138 0.1555 4.7933 25.2836 21.6541 32.7640 2.2218 31.4292 38.1649 32.7638 37.4514
3785.3000 8.5000 8.5469 0.0152 15.2582 0.1622 5.0403 25.8212 22.1970 32.7069 2.2258 31.4283 37.6423 32.7068 37.4683
3785.5000 8.5000 8.5469 -0.0072 15.7184 0.1642 5.3639 27.1827 21.5551 32.6414 2.2317 31.4196 36.4303 32.6414 36.4133
3785.7000 8.5000 8.5469 0.0055 16.5530 0.1566 5.3081 27.3546 22.6001 32.7763 2.2538 31.4056 35.8910 32.7757 38.2513
3785.9000 8.5000 8.5469 0.0259 17.7733 0.1558 4.9411 24.9048 21.1273 37.6651 2.2594 31.3920 48.0713 37.6652 44.6816
3786.1000 8.5000 8.5469 0.0255 16.5081 0.1614 4.6769 29.4684 22.9823 32.8649 2.2432 31.3769 34.2467 32.8656 33.8624
3786.3000 8.5000 8.5469 0.0306 14.6676 0.1588 4.5906 28.1680 24.8881 29.3974 2.2472 31.3687 30.1826 29.3973 30.2592
3786.5000 8.5000 8.5469 0.0367 15.8323 0.1561 4.5429 28.5455 24.6810 30.4167 2.2534 31.3719 32.0431 30.4164 32.7862
3786.7000 8.5000 8.5469 0.0354 17.3236 0.1567 4.5346 29.4262 24.5921 31.7086 2.2483 31.3792 32.9726 31.7090 33.0598
3786.9000 8.5000 8.5469 0.0340 16.7803 0.1558 4.5084 28.6515 24.5002 33.1138 2.2495 31.3890 33.0669 33.1142 32.0995
3787.1000 8.5000 8.5469 0.0358 17.5010 0.1533 4.4408 30.9291 27.0338 30.5129 2.2561 31.3917 29.0478 30.5132 30.3336
3787.3000 8.5000 8.5469 0.0420 17.8513 0.1492 4.4427 31.3915 26.5266 30.7287 2.2578 31.3856 30.4236 30.7286 29.8549
3787.5000 8.5000 8.5469 0.0411 17.3725 0.1493 4.5633 34.1900 29.2752 28.5353 2.2439 31.3719 27.2882 28.5352 27.0253
3787.7000 8.5000 8.5469 0.0378 16.6028 0.1520 4.6782 32.7214 29.0079 29.9057 2.2311 31.3574 29.0070 29.9052 29.2907
3787.9000 8.5000 8.5469 0.0376 16.7177 0.1559 4.7255 31.9277 26.8855 31.6007 2.2350 31.3473 30.9278 31.6007 30.7981
3788.1000 8.5000 8.5469 0.0383 18.0413 0.1550 4.6443 33.3498 26.4984 31.7115 2.2377 31.3384 30.1534 31.7116 30.2337
3788.3000 8.5000 8.5469 0.0413 17.9449 0.1500 4.5158 33.4987 27.5323 31.6584 2.2347 31.3329 30.3939 31.6583 30.5881
3788.5000 8.5000 8.5469 0.0410 16.9266 0.1514 4.4493 33.5172 25.7968 32.0508 2.2229 31.3322 30.7866 32.0510 30.6966
3788.7000 8.5000 8.5469 0.0355 16.6777 0.1612 4.3563 33.5358 27.0611 31.6025 2.2104 31.3357 30.1960 31.6025 30.1716
3788.9000 8.5000 8.5469 0.0344 17.5989 0.1637 4.3638 35.0519 27.3647 31.8262 2.2125 31.3387 30.0030 31.8262 30.0110
3789.1000 8.5000 8.5469 0.0357 18.8005 0.1601 4.4301 36.3644 28.3049 31.9389 2.2145 31.3709 30.1527 31.9389 30.1271
3789.3000 8.5000 8.5469 0.0362 19.2451 0.1571 4.4870 37.2912 28.3620 32.4041 2.2095 31.4183 30.3932 32.4041 30.4544
3789.5000 8.5000 8.5469 0.0369 19.4449 0.1582 4.5742 36.6540 28.7298 32.1125 2.2074 31.3483 30.7252 32.1126 30.5480
3789.7000 8.5000 8.5469 0.0372 18.3236 0.1580 4.5389 38.1815 28.1722 31.9417 2.2089 31.3657 29.8838 31.9417 29.8791
3789.9000 8.5000 8.5469 0.0404 18.1238 0.1529 4.4735 40.2237 29.9296 32.5305 2.2171 31.3954 30.2483 32.5304 30.4190
3790.1000 8.5000 8.5469 0.0404 17.4462 0.1492 4.4492 40.5625 30.4273 33.1272 2.2230 31.3817 31.4177 33.1271 31.5128
3790.3000 8.5000 8.5469 0.0352 16.5824 0.1523 4.3937 40.5649 29.5168 33.9410 2.2158 31.2467 32.2344 33.9408 32.3800
3790.5000 8.5000 8.5469 0.0340 16.8081 0.1531 4.2923 40.1995 29.2542 34.3936 2.2094 31.1430 33.3652 34.3934 33.4654
3790.7000 8.5000 8.5469 0.0370 17.1050 0.1522 4.2343 40.7454 30.1201 35.8925 2.2068 31.3209 34.4743 35.8924 34.9465
3790.9000 8.5000 8.5469 0.0377 17.7656 0.1545 4.2256 39.1415 28.6827 36.7601 2.2012 31.3872 35.7181 36.7601 36.7321
3791.1000 8.5000 8.5469 0.0392 16.9193 0.1551 4.2384 37.7262 28.2569 38.2157 2.1992 31.3697 38.0284 38.2158 37.9864
