~Version Information
VERS.                     2.0: CWLS log ASCII Standard Version 2.00
WRAP.                      NO: One line per depth step

~Well Information Block
#MNEM.UNIT                 Value                       Information
#------------              -----                       -----------
STRT.M                    145.9000                    :START
STOP.M                   3681.9000                    :STOP
STEP.M                      0.1000                    :STEP
NULL.                     -999.25                     :NULL VALUE
COMP.         Statoil Petroleum AS                    :Company
WELL.         15/9-F-1 A                              :Well
FLD .         VOLVE                                   :Field
LOC .         Maersk Inspirer                         :Location
PROV.                                                 :Province
CNTY.         Unused                                  :County
STATE.                                                 :State
CTRY.                                                 :Country
DATE.                                                 :Log Date
SRVC.                                                 :Service Company
UWI .         1A                                     :Unique Well Identifier
API .                                                 :API Number
LATI.         058 26' 29.907" N    DMS                :Latitude
LONG.         001 53' 14.708" E    DMS                :Longtitude
PD  .         MSL                                     :Permanent Datum
ELZ .M                 0.0000                         :Elev. Log Zero

~Curve Information
#MNEM   .UNIT             API CODE Curve Description
#------------             -------- -----------------
DEPTH   .M            00 001 00 00:   0  Depth
BS      .inches       00 000 00 00:   5  BS:COMPOSITE:rC:NONE:v1
CALI    .inches       70 280 00 01:   6  CALI:COMPOSITE:rC:0001:v1
DRHO    .g/cm3        45 356 01 01:   7  DRHO:COMPOSITE:rC:0001:v1
DT      .us/ft        60 520 32 01:   8  DT:COMPOSITE:rC:0001:v1
DTS     .us/ft        00 000 00 00:   9  DTS:COMPOSITE:rC:0001:v1
GR      .API          30 150 01 01:  10  GR:COMPOSITE:rC:0001:v1
NPHI    .v/v          42 890 01 01:  11  NPHI:COMPOSITE:rC:0001:v1
PEF     .b/elec       45 358 01 01:  12  PEF:COMPOSITE:rC:0001:v1
RACEHM  .UNKNOWN      95 220 00 01:  13  RACEHM:COMPOSITE:rC:0001:v1
RACELM  .UNKNOWN      00 524 01 00:  14  RACELM:COMPOSITE:rC:0001:v1
RHOB    .g/cm3        45 350 01 01:  15  RHOB:COMPOSITE:rC:0001:v1
ROP     .m/hr         00 000 00 00:  16  ROP:COMPOSITE:rC:0001:v1
RPCEHM  .UNKNOWN      00 000 00 00:  17  RPCEHM:COMPOSITE:rC:0001:v1
RPCELM  .UNKNOWN      00 000 00 00:  18  RPCELM:COMPOSITE:rC:0001:v1
RT      .ohm.m        00 000 00 00:  19  RT:COMPOSITE:rC:0001:v1

~Parameter Information
#MNEM.UNIT       Value           Description
#------------    -----           -----------
HLD .         Terms and Conditions.:Header Legal Disclaimer
RUN .         1                 :Run number

~Other Information
# Subset of the Equinor Volve composite LAS (andymcdgeo/Petrophysics-Python-Series Data/Volve): unused columns removed; data rows copied verbatim. Thinned to every 2nd depth sample (0.2 m) for web delivery.
PETROPHYSICAL INTERPRETATION: INPUT

# --- LOG MNEMONICS AND UNITS ---
#Depth          ABDCQF01        ABDCQF02        ABDCQF03        ABDCQF04        BS              CALI            DRHO            DT              DTS             GR              NPHI            PEF             RACEHM          RACELM          RHOB            ROP             RPCEHM          RPCELM          RT             
#M              g/cm3           g/cm3           g/cm3           g/cm3           inches          inches          g/cm3           us/ft           us/ft           API             v/v             b/elec          UNKNOWN         UNKNOWN         g/cm3           m/hr            UNKNOWN         UNKNOWN         ohm.m          

~A
# ...
702.5000 26.0000 -999.25 -999.25 -999.25 -999.25 68.2254 -999.25 -999.25 2.0946 1.9729 -999.25 29.8571 1.9868 1.9536 1.9868
702.7000 26.0000 -999.25 -999.25 -999.25 -999.25 65.0214 -999.25 -999.25 2.1017 1.9950 -999.25 29.4101 2.0349 1.9679 2.0349
702.9000 26.0000 -999.25 -999.25 -999.25 -999.25 66.4686 -999.25 -999.25 2.1284 2.0193 -999.25 29.1544 2.0104 1.9710 2.0104
703.1000 26.0000 -999.25 -999.25 -999.25 -999.25 68.1624 -999.25 -999.25 2.1377 2.0355 -999.25 29.0565 2.0735 2.0029 2.0735
703.3000 26.0000 -999.25 -999.25 -999.25 -999.25 64.9696 -999.25 -999.25 2.0930 2.0352 -999.25 29.0770 2.1164 2.0286 2.1164
703.5000 26.0000 -999.25 -999.25 -999.25 -999.25 67.5473 -999.25 -999.25 2.0855 2.0353 -999.25 29.2146 2.2299 2.0939 2.2299
703.7000 26.0000 -999.25 -999.25 -999.25 -999.25 68.0682 -999.25 -999.25 2.1347 2.0446 -999.25 28.9433 2.3043 2.1159 2.3043
703.9000 26.0000 -999.25 -999.25 -999.25 -999.25 67.8750 -999.25 -999.25 2.2102 2.0244 -999.25 28.9311 2.1862 2.0784 2.1862
704.1000 26.0000 -999.25 -999.25 -999.25 -999.25 65.5023 -999.25 -999.25 2.0811 1.9959 -999.25 29.1765 2.1349 2.0354 2.1349
704.3000 26.0000 -999.25 -999.25 -999.25 -999.25 59.6059 -999.25 -999.25 2.1124 1.9494 -999.25 29.3747 2.2350 2.0294 2.2350
704.5000 26.0000 -999.25 -999.25 -999.25 -999.25 59.8713 -999.25 -999.25 2.0745 1.8968 -999.25 29.5399 2.0565 1.9251 2.0565
704.7000 26.0000 -999.25 -999.25 -999.25 -999.25 59.1742 -999.25 -999.25 1.9993 1.8589 -999.25 29.6717 1.8746 1.8245 1.8746
704.9000 26.0000 -999.25 -999.25 -999.25 -999.25 61.8994 -999.25 -999.25 1.7997 1.7870 -999.25 29.4576 1.8206 1.7251 1.8206
705.1000 26.0000 -999.25 -999.25 -999.25 -999.25 63.2489 -999.25 -999.25 1.5904 1.7136 -999.25 28.1453 1.3566 1.4272 1.3566
705.3000 26.0000 -999.25 -999.25 -999.25 -999.25 62.0715 -999.25 -999.25 1.4167 1.6224 -999.25 25.7395 1.1585 1.2467 1.1585
705.5000 26.0000 -999.25 -999.25 -999.25 -999.25 62.0356 -999.25 -999.25 1.2068 1.5445 -999.25 22.0762 1.0663 1.1353 1.0663
705.7000 26.0000 -999.25 -999.25 -999.25 -999.25 66.1269 -999.25 -999.25 1.0944 1.4602 -999.25 19.0622 1.1248 1.0874 1.1248
705.9000 26.0000 -999.25 -999.25 -999.25 -999.25 67.4956 -999.25 -999.25 1.1675 1.4363 -999.25 16.6952 1.0966 1.0933 1.0966
706.1000 26.0000 -999.25 -999.25 -999.25 -999.25 64.1197 -999.25 -999.25 1.2793 1.4669 -999.25 15.5374 1.1555 1.1607 1.1555
706.3000 26.0000 -999.25 -999.25 -999.25 -999.25 64.1708 -999.25 -999.25 1.3379 1.4711 -999.25 16.5100 1.4524 1.3346 1.4524
706.5000 26.0000 -999.25 -999.25 -999.25 -999.25 64.2841 -999.25 -999.25 1.4918 1.5223 -999.25 19.5969 1.6818 1.5042 1.6818
706.7000 26.0000 -999.25 -999.25 -999.25 -999.25 65.1787 -999.25 -999.25 1.7754 1.6221 -999.25 20.1440 1.9747 1.7205 1.9747
706.9000 26.0000 -999.25 -999.25 -999.25 -999.25 66.8412 -999.25 -999.25 2.0299 1.7088 -999.25 20.7338 2.2523 1.9035 2.2523
707.1000 26.0000 -999.25 -999.25 -999.25 -999.25 65.3264 -999.25 -999.25 2.2296 1.8176 -999.25 21.3643 2.2339 2.0120 2.2339
707.3000 26.0000 -999.25 -999.25 -999.25 -999.25 65.5827 -999.25 -999.25 2.2966 1.9011 -999.25 20.7367 2.3240 2.1085 2.3240
707.5000 26.0000 -999.25 -999.25 -999.25 -999.25 64.6305 -999.25 -999.25 2.3332 1.9873 -999.25 19.8920 2.3387 2.1857 2.3387
707.7000 26.0000 -999.25 -999.25 -999.25 -999.25 68.9014 -999.25 -999.25 2.3821 2.0603 -999.25 18.8312 2.3696 2.2139 2.3696
707.9000 26.0000 -999.25 -999.25 -999.25 -999.25 65.6506 -999.25 -999.25 2.3407 2.1144 -999.25 17.6267 2.3080 2.2271 2.3080
708.1000 26.0000 -999.25 -999.25 -999.25 -999.25 67.5661 -999.25 -999.25 2.3316 2.1551 -999.25 16.5865 2.2752 2.2010 2.2752
708.3000 26.0000 -999.25 -999.25 -999.25 -999.25 66.7493 -999.25 -999.25 2.3855 2.1869 -999.25 15.7111 2.3469 2.2291 2.3469
708.5000 26.0000 -999.25 -999.25 -999.25 -999.25 65.3785 -999.25 -999.25 2.4098 2.2039 -999.25 15.6912 2.3331 2.2165 2.3331
708.7000 26.0000 -999.25 -999.25 -999.25 -999.25 65.7143 -999.25 -999.25 2.3871 2.2012 -999.25 15.6731 2.3421 2.2447 2.3421
708.9000 26.0000 -999.25 -999.25 -999.25 -999.25 65.9644 -999.25 -999.25 2.3674 2.1998 -999.25 15.6569 2.3206 2.2151 2.3206
709.1000 26.0000 -999.25 -999.25 -999.25 -999.25 62.2652 -999.25 -999.25 2.3407 2.2037 -999.25 15.6706 2.2738 2.1827 2.2738
709.3000 26.0000 -999.25 -999.25 -999.25 -999.25 63.7753 -999.25 -999.25 2.3523 2.1936 -999.25 15.7236 2.2689 2.1653 2.2689
709.5000 26.0000 -999.25 -999.25 -999.25 -999.25 65.8340 -999.25 -999.25 2.3687 2.1751 -999.25 15.8159 2.2189 2.1430 2.2189
709.7000 26.0000 -999.25 -999.25 -999.25 -999.25 65.0226 -999.25 -999.25 2.3223 2.1750 -999.25 16.0412 2.1736 2.1233 2.1736
709.9000 26.0000 -999.25 -999.25 -999.25 -999.25 64.2112 -999.25 -999.25 2.3273 2.1520 -999.25 16.2170 2.2437 2.1239 2.2437
710.1000 26.0000 -999.25 -999.25 -999.25 -999.25 63.3999 -999.25 -999.25 2.2892 2.1880 -999.25 16.3435 2.2713 2.1625 2.2713
710.3000 26.0000 -999.25 -999.25 -999.25 -999.25 62.5885 -999.25 -999.25 2.3134 2.1815 -999.25 16.3701 2.2900 2.1820 2.2900
710.5000 26.0000 -999.25 -999.25 -999.25 -999.25 61.7771 -999.25 -999.25 2.3099 2.1966 -999.25 16.4104 2.3097 2.1682 2.3097
710.7000 26.0000 -999.25 -999.25 -999.25 -999.25 60.9658 -999.25 -999.25 2.3015 2.1648 -999.25 16.4641 2.2872 2.1763 2.2872
710.9000 26.0000 -999.25 -999.25 -999.25 -999.25 60.1544 -999.25 -999.25 2.3067 2.2016 -999.25 16.5817 2.3107 2.2020 2.3107
711.1000 26.0000 -999.25 -999.25 -999.25 -999.25 59.3386 -999.25 -999.25 2.3527 2.1528 -999.25 16.6524 2.2886 2.1693 2.2886
711.3000 26.0000 -999.25 -999.25 -999.25 -999.25 54.1128 -999.25 -999.25 2.3380 2.1922 -999.25 16.6771 2.3447 2.2031 2.3447
711.5000 26.0000 -999.25 -999.25 -999.25 -999.25 54.7915 -999.25 -999.25 2.3063 2.1579 -999.25 16.8857 2.2210 2.1534 2.2210
711.7000 26.0000 -999.25 -999.25 -999.25 -999.25 55.7177 -999.25 -999.25 2.3692 2.1653 -999.25 17.0913 2.3306 2.1734 2.3306
711.9000 26.0000 -999.25 -999.25 -999.25 -999.25 61.2722 -999.25 -999.25 2.3670 2.1666 -999.25 17.2938 2.3477 2.1810 2.3477
712.1000 26.0000 -999.25 -999.25 -999.25 -999.25 64.8380 -999.25 -999.25 2.3648 2.1678 -999.25 17.3469 2.3649 2.1887 2.3649
712.3000 26.0000 -999.25 -999.25 -999.25 -999.25 66.0258 -999.25 -999.25 2.3626 2.1690 -999.25 17.3986 2.3820 2.1963 2.3820
712.5000 26.0000 -999.25 -999.25 -999.25 -999.25 68.4034 -999.25 -999.25 2.3603 2.1702 -999.25 17.4489 2.3992 2.2040 2.3992
712.7000 26.0000 -999.25 -999.25 -999.25 -999.25 68.1993 -999.25 -999.25 2.3581 2.1714 -999.25 17.5700 2.4163 2.2116 2.4163
712.9000 26.0000 -999.25 -999.25 -999.25 -999.25 66.4006 -999.25 -999.25 2.3559 2.1727 -999.25 17.7437 2.4335 2.2193 2.4335
713.1000 26.0000 -999.25 -999.25 -999.25 -999.25 66.5778 -999.25 -999.25 2.3537 2.1739 -999.25 17.9698 2.4506 2.2269 2.4506
713.3000 26.0000 -999.25 -999.25 -999.25 -999.25 68.4920 -999.25 -999.25 2.3283 2.1905 -999.25 18.2312 2.4372 2.2273 2.4372
713.5000 26.0000 -999.25 -999.25 -999.25 -999.25 63.9262 -999.25 -999.25 2.2740 2.1894 -999.25 18.4330 2.2101 2.1714 2.2101
713.7000 26.0000 -999.25 -999.25 -999.25 -999.25 63.2141 -999.25 -999.25 2.3427 2.2556 -999.25 18.5764 2.2167 2.2318 2.2167
713.9000 26.0000 -999.25 -999.25 -999.25 -999.25 62.5637 -999.25 -999.25 2.3480 2.2613 -999.25 19.1523 2.2915 2.2007 2.2915
714.1000 26.0000 -999.25 -999.25 -999.25 -999.25 62.2562 -999.25 -999.25 2.3551 2.2574 -999.25 19.6678 2.3244 2.2648 2.3244
714.3000 26.0000 -999.25 -999.25 -999.25 -999.25 60.4966 -999.25 -999.25 2.3720 2.2444 -999.25 20.1227 2.3398 2.2284 2.3398
714.5000 26.0000 -999.25 -999.25 -999.25 -999.25 59.0058 -999.25 -999.25 2.4167 2.2989 -999.25 20.3388 2.2689 2.1892 2.2689
714.7000 26.0000 -999.25 -999.25 -999.25 -999.25 59.1276 -999.25 -999.25 2.5213 2.3337 -999.25 20.6605 2.2494 2.2403 2.2494
714.9000 26.0000 -999.25 -999.25 -999.25 -999.25 62.5603 -999.25 -999.25 2.5209 2.3420 -999.25 21.0873 2.2059 2.2151 2.2059
715.1000 26.0000 -999.25 -999.25 -999.25 -999.25 60.7185 -999.25 -999.25 2.5201 2.2871 -999.25 21.6484 2.3588 2.2639 2.3588
715.3000 26.0000 -999.25 -999.25 -999.25 -999.25 62.1801 -999.25 -999.25 2.5169 2.2789 -999.25 21.8913 2.6251 2.3740 2.6251
