~Version Information
VERS.                     2.0: CWLS log ASCII Standard Version 2.00
WRAP.                      NO: One line per depth step

~Well Information Block
#MNEM.UNIT                 Value                       Information
#------------              -----                       -----------
STRT.M                    145.9000                    :START
STOP.M                   4684.9000                    :STOP
STEP.M                      0.1000                    :STEP
NULL.                     -999.25                     :NULL VALUE
COMP.         STATOIL PETROLEUM AS                    :Company
WELL.         15/9-F-15 D                             :Well
FLD .         VOLVE                                   :Field
LOC .                                                 :Location
PROV.                                                 :Province
CNTY.         MAERSK INSPIRER                         :County
STATE.                                                 :State
CTRY.         NORWAY                                  :Country
DATE.                                                 :Log Date
SRVC.                                                 :Service Company
UWI .                                                 :Unique Well Identifier
API .                                                 :API Number
LATI.         058 26' 29.706" N    DMS                :Latitude
LONG.         001 53' 15.149" E    DMS                :Longtitude
PD  .         MSL                                     :Permanent Datum
EDF .M                54.9000                         :Elevations D.F.
EGL .M               -91.0000                         :Elevations G.L.
ELZ .M                54.9000                         :Elev. Log Zero
LMF .         DF                                      :Log Measured From
MP  .         DF                                      :Drill Measured From

~Curve Information
#MNEM   .UNIT             API CODE Curve Description
#------------             -------- -----------------
DEPTH   .M            00 001 00 00:   0  Depth
BS      .inches       00 000 00 00:   5  BS:COMPOSITE:rC:NONE:v1
CALI    .inches       70 280 00 01:   6  CALI:COMPOSITE:rC:NONE:v1
DRHO    .g/cm3        45 356 01 01:   7  DRHO:COMPOSITE:rC:NONE:v1
GR      .API          30 150 01 01:   8  GR:COMPOSITE:rC:NONE:v1
NPHI    .v/v          42 890 01 01:  10  NPHI:COMPOSITE:rC:NONE:v1
PEF     .b/elec       45 358 01 01:  11  PEF:COMPOSITE:rC:NONE:v1
RACEHM  .ohm.m        95 220 00 01:  12  RACEHM:COMPOSITE:rC:NONE:v1
RACELM  .ohm.m        00 524 01 00:  13  RACELM:COMPOSITE:rC:NONE:v1
RD      .ohm.m        00 000 00 00:  14  RD:COMPOSITE:rC:NONE:v1
RHOB    .g/cm3        45 350 01 01:  15  RHOB:COMPOSITE:rC:NONE:v1
ROP     .m/hr         00 000 00 00:  17  ROP:COMPOSITE:rC:NONE:v1
RPCEHM  .ohm.m        00 000 00 00:  18  RPCEHM:COMPOSITE:rC:NONE:v1
RPCELM  .ohm.m        00 000 00 00:  19  RPCELM:COMPOSITE:rC:NONE:v1
RT      .ohm.m        00 000 00 00:  20  RT:COMPOSITE:rC:NONE:v1

~Parameter Information
#MNEM.UNIT       Value           Description
#------------    -----           -----------
RUN .         .                 :Run Number

~Other Information
# Subset of the Equinor Volve composite LAS (BinWang0213/Course-PETE4241_19SP_ProjectCode Data/Petrophysics): unused columns removed; data rows copied verbatim. Thinned to every 2nd depth sample (0.2 m) for web delivery.
PETROPHYSICAL INTERPRETATION: INPUT

# --- LOG MNEMONICS AND UNITS ---
#Depth          ABDCQF01        ABDCQF02        ABDCQF03        ABDCQF04        BS              CALI            DRHO            GR              NBGRCFM         NPHI            PEF             RACEHM          RACELM          RD              RHOB            RM              ROP             RPCEHM          RPCELM          RT             
#M              g/cm3           g/cm3           g/cm3           g/cm3           inches          inches          g/cm3           API             API             v/v             b/elec          ohm.m           ohm.m           ohm.m           g/cm3           ohm.m           m/hr            ohm.m           ohm.m           ohm.m          

~A
# ...
3987.9000 8.5000 8.5781 0.0576 92.5529 0.3025 6.5123 4.1288 5.2093 4.9767 2.5741 31.4225 6.0262 4.9767 6.0862
3988.1000 8.5000 8.5781 0.0506 90.3756 0.2980 6.6919 4.0562 5.1444 4.9184 2.5647 31.4245 6.3352 4.9184 6.3158
3988.3000 8.5000 8.5781 0.0496 87.6846 0.2958 6.9055 3.8944 5.0601 4.7115 2.5667 31.4176 6.2116 4.7115 6.2050
3988.5000 8.5000 8.5781 0.0535 86.8408 0.2883 6.7970 3.4424 5.0264 4.4261 2.5748 31.4021 5.9189 4.4261 5.9140
3988.7000 8.5000 8.5779 0.0412 85.2719 0.2809 6.8683 3.6110 4.9647 4.5005 2.5695 31.3941 6.0087 4.5005 5.8416
3988.9000 8.5000 8.5469 0.0399 82.6118 0.2792 6.9047 3.4294 4.8806 4.2577 2.5766 31.3830 5.7229 4.2578 5.7214
3989.1000 8.5000 8.5469 0.0469 81.9556 0.2792 6.6854 3.0565 4.7788 4.0639 2.5835 31.3886 5.5478 4.0639 5.6261
3989.3000 8.5000 8.5469 0.0472 80.4449 0.2823 6.4258 3.0891 4.6808 4.0930 2.5765 31.5535 5.9923 4.0930 5.8977
3989.5000 8.5000 8.5469 0.0491 78.6901 0.2782 6.3305 3.1881 4.6153 4.0766 2.5708 32.1078 5.9584 4.0766 5.8603
3989.7000 8.5000 8.5469 0.0505 79.9883 0.2866 6.3762 3.0971 4.5083 3.9219 2.5662 32.5284 5.7182 3.9219 5.6371
3989.9000 8.5000 8.5469 0.0537 82.9154 0.2906 6.3992 2.7597 4.3901 3.6519 2.5608 32.5968 5.2566 3.6520 5.1967
3990.1000 8.5000 8.5469 0.0545 80.4133 0.2775 6.3672 2.5781 4.2308 3.4251 2.5526 32.5510 5.0489 3.4251 4.9293
3990.3000 8.5000 8.5469 0.0534 79.3861 0.2690 6.4018 2.4957 4.1861 3.2884 2.5494 32.5439 4.7130 3.2884 4.6694
3990.5000 8.5000 8.5469 0.0485 80.5819 0.2686 6.5066 2.5291 4.1781 3.2145 2.5473 32.8373 4.3761 3.2145 4.3382
3990.7000 8.5000 8.5781 0.0434 79.5424 0.2627 6.5245 2.4737 4.0914 3.1238 2.5397 32.8083 4.1961 3.1238 4.1650
3990.9000 8.5000 8.5781 0.0464 76.9495 0.2596 6.4260 2.3683 4.0397 2.9896 2.5387 32.6601 4.0602 2.9896 4.0216
3991.1000 8.5000 8.5781 0.0454 73.3782 0.2660 6.2695 2.3100 3.9449 2.8355 2.5332 32.5429 3.7583 2.8355 3.6976
3991.3000 8.5000 8.5781 0.0403 75.0364 0.2680 6.2217 2.2844 3.8512 2.7808 2.5294 32.4194 3.6687 2.7808 3.6496
3991.5000 8.5000 8.5781 0.0425 75.9599 0.2656 6.3476 2.2828 3.7484 2.7775 2.5329 32.2659 3.7775 2.7775 3.7901
3991.7000 8.5000 8.5781 0.0513 79.0924 0.2658 6.3187 2.2458 3.6219 2.7685 2.5389 31.9317 3.9866 2.7686 3.9635
3991.9000 8.5000 8.5779 0.0585 78.7230 0.2665 6.1658 2.1874 3.6173 2.6839 2.5450 31.8390 3.7650 2.6839 3.8327
3992.1000 8.5000 8.5469 0.0521 79.6593 0.2652 6.2795 2.2797 3.5280 2.7463 2.5406 31.8688 4.0449 2.7463 3.9871
3992.3000 8.5000 8.5469 0.0482 79.0973 0.2616 6.2725 2.3830 3.5008 2.8018 2.5400 31.8062 4.0509 2.8018 4.0509
3992.5000 8.5000 8.5626 0.0535 79.2920 0.2572 6.1886 2.4247 3.4631 2.8449 2.5449 31.7708 4.1567 2.8449 4.1159
3992.7000 8.5000 8.5781 0.0577 79.2683 0.2585 6.2670 2.4035 3.4728 2.8323 2.5455 31.7540 4.0863 2.8323 4.1209
3992.9000 8.5000 8.5781 0.0567 80.1442 0.2600 6.3633 2.4809 3.4669 2.9166 2.5481 31.7423 4.2457 2.9165 4.2642
3993.1000 8.5000 8.5781 0.0531 76.1803 0.2651 6.3421 2.6526 3.4934 3.0847 2.5520 31.7292 4.3965 3.0847 4.3930
3993.3000 8.5000 8.5781 0.0509 77.3454 0.2687 6.3732 2.6932 3.6177 3.1669 2.5569 31.7164 4.3899 3.1669 4.3854
3993.5000 8.5000 8.5781 0.0527 77.6209 0.2664 6.3969 2.7193 3.6707 3.1753 2.5578 31.7044 4.2708 3.1753 4.2662
3993.7000 8.5000 8.5781 0.0498 79.3689 0.2648 6.3259 2.7432 3.7157 3.1907 2.5514 31.6934 4.1699 3.1907 4.1529
3993.9000 8.5000 8.5781 0.0431 81.3024 0.2600 6.3362 2.8575 3.8078 3.2620 2.5483 31.6844 4.1543 3.2619 4.1469
3994.1000 8.5000 8.5781 0.0410 81.3893 0.2511 6.3733 3.0278 3.9220 3.4428 2.5504 31.6747 4.1165 3.4428 4.1587
3994.3000 8.5000 8.5781 0.0460 81.2958 0.2549 6.3373 3.1660 4.0572 3.6384 2.5560 31.6702 4.3509 3.6384 4.3653
3994.5000 8.5000 8.5781 0.0523 80.0747 0.2669 6.3212 3.3619 4.1259 3.6800 2.5590 31.6919 4.3645 3.6800 4.3378
3994.7000 8.5000 8.5781 0.0506 80.7151 0.2742 6.3635 3.3259 4.1497 3.7251 2.5570 31.7331 4.3082 3.7251 4.2931
3994.9000 8.5000 8.5781 0.0384 81.2610 0.2683 6.4406 3.6424 4.2942 3.8812 2.5512 31.7685 4.1974 3.8812 4.2554
3995.1000 8.5000 8.5779 0.0325 80.3372 0.2640 6.5089 3.9702 4.3270 4.1234 2.5558 31.7710 4.6784 4.1234 4.6443
3995.3000 8.5000 8.5469 0.0373 81.3260 0.2715 6.4998 4.1490 4.3180 4.3118 2.5628 31.7691 5.3222 4.3118 5.1304
3995.5000 8.5000 8.5469 0.0381 83.6063 0.2842 6.3526 3.9098 4.4503 4.2244 2.5575 31.7598 4.6188 4.2244 4.6389
3995.7000 8.5000 8.5469 0.0277 83.9826 0.2932 6.1913 4.0214 4.4664 4.2776 2.5467 31.7494 4.7512 4.2775 4.8326
3995.9000 8.5000 8.5469 0.0295 85.7067 0.2851 6.2995 4.3067 4.4396 4.5073 2.5513 31.7391 5.0275 4.5074 4.8107
3996.1000 8.5000 8.5469 0.0482 86.4792 0.2725 6.3608 3.8074 4.4639 4.1221 2.5647 31.7315 4.3819 4.1221 4.3736
3996.3000 8.5000 8.5469 0.0543 89.7677 0.2639 6.3427 3.6742 4.4091 3.9720 2.5625 31.7249 4.2083 3.9720 4.2106
3996.5000 8.5000 8.5469 0.0503 89.7833 0.2615 6.3051 3.8565 4.4239 4.0614 2.5586 31.7302 4.4685 4.0613 4.6345
3996.7000 8.5000 8.5469 0.0481 90.2251 0.2638 6.2406 4.1554 4.4111 4.3415 2.5559 31.7350 4.8896 4.3414 4.9166
3996.9000 8.5000 8.5469 0.0532 89.9143 0.2748 6.2309 4.1067 4.4389 4.4796 2.5602 31.7409 5.0904 4.4796 5.0943
3997.1000 8.5000 8.5469 0.0514 89.3694 0.2842 6.2161 4.1390 4.3670 4.4183 2.5578 31.7460 4.9681 4.4182 5.0394
3997.3000 8.5000 8.5469 0.0490 87.2208 0.2909 6.1797 4.3916 4.4521 4.6393 2.5540 31.7423 5.1218 4.6393 5.1524
3997.5000 8.5000 8.5781 0.0547 87.1699 0.2986 6.2765 4.6345 4.5229 4.8744 2.5592 31.7604 5.4441 4.8744 5.3998
3997.7000 8.5000 8.5781 0.0532 84.8802 0.2980 6.3775 4.6968 4.5399 4.8399 2.5549 31.9217 5.2799 4.8399 5.2812
3997.9000 8.5000 8.5779 0.0484 86.4223 0.2873 6.3333 4.9252 4.5964 4.8185 2.5542 31.8890 5.1684 4.8185 5.2173
3998.1000 8.5000 8.5469 0.0463 87.4881 0.2797 6.2824 5.0891 4.6603 5.0368 2.5612 31.6482 5.3985 5.0368 5.4356
3998.3000 8.5000 8.5469 0.0501 88.1293 0.2773 6.3123 5.1668 4.6772 5.1075 2.5719 31.2185 5.5550 5.1075 5.5432
3998.5000 8.5000 8.5469 0.0528 87.3219 0.2890 6.3695 5.3796 4.7825 5.3280 2.5742 30.8500 5.7363 5.3280 5.6955
3998.7000 8.5000 8.5469 0.0501 86.7728 0.3022 6.4145 4.8236 4.7950 5.1183 2.5765 30.4654 5.7745 5.1183 5.7516
3998.9000 8.5000 8.5469 0.0488 84.1253 0.2981 6.5637 4.7089 4.8868 4.9982 2.5846 30.0777 5.6477 4.9982 5.5284
3999.1000 8.5000 8.5470 0.0504 85.6170 0.3011 6.5469 4.3695 4.8774 4.7585 2.5843 29.5911 5.1532 4.7585 5.2865
3999.3000 8.5000 8.5779 0.0502 89.6777 0.3036 6.3953 4.5265 4.9444 4.8614 2.5787 29.3513 5.4250 4.8614 5.4202
3999.5000 8.5000 8.5781 0.0507 95.0670 0.2995 6.4943 4.3403 4.8706 4.7743 2.5764 29.3818 5.4678 4.7743 5.3828
3999.7000 8.5000 8.5779 0.0593 93.4346 0.2930 6.4487 3.8683 4.9203 4.4436 2.5796 29.3795 5.0520 4.4436 5.1441
3999.9000 8.5000 8.5470 0.0596 91.3101 0.2848 6.2575 3.7698 4.7915 4.3921 2.5665 29.3639 5.1160 4.3920 5.1827
4000.1000 8.5000 8.5781 0.0558 89.9347 0.2891 6.2677 3.7627 4.6983 4.3773 2.5479 29.3526 5.5274 4.3773 5.5625
4000.3000 8.5000 8.5781 0.0554 91.4769 0.3043 6.3068 3.7506 4.7653 4.3223 2.5379 29.3638 5.4401 4.3223 5.3706
4000.5000 8.5000 8.5781 0.0540 91.2837 0.3078 6.3140 3.5793 4.7197 4.1662 2.5353 29.3759 5.1842 4.1662 5.2036
4000.7000 8.5000 8.5624 0.0494 91.0656 0.2996 6.3815 3.3879 4.6823 4.1258 2.5406 29.3525 5.2623 4.1258 5.2483
4000.9000 8.5000 8.5469 0.0446 90.1634 0.2934 6.5074 3.4175 4.6981 4.0462 2.5518 29.3603 5.0310 4.0462 5.1443
4001.1000 8.5000 8.5471 0.0519 90.3029 0.2990 6.4678 3.3002 4.7283 4.0377 2.5731 29.3773 5.0265 4.0378 4.9997
4001.3000 8.5000 8.5469 0.0549 91.8912 0.3109 6.3381 3.2176 4.7337 3.8711 2.5730 29.3505 4.7072 3.8711 4.6698
4001.5000 8.5000 8.5469 0.0467 89.7264 0.3087 6.2567 3.1024 4.7043 3.7493 2.5576 29.3340 4.5259 3.7493 4.5217
4001.7000 8.5000 8.5779 0.0441 88.0343 0.3009 6.2605 3.0875 4.7403 3.7724 2.5574 29.3293 4.5200 3.7724 4.5384
4001.9000 8.5000 8.5469 0.0444 86.4037 0.2916 6.3426 3.2084 4.7789 3.8745 2.5583 29.3586 4.7505 3.8745 4.8102
4002.1000 8.5000 8.5469 0.0458 87.8595 0.2887 6.3227 3.2034 4.7050 3.9435 2.5551 29.3658 5.0593 3.9435 5.1383
4002.3000 8.5000 8.5469 0.0441 87.8839 0.2963 6.2318 2.7724 4.5777 3.7352 2.5510 29.3556 5.2526 3.7352 5.2834
