~Version Information
VERS.                     2.0: CWLS log ASCII Standard Version 2.00
WRAP.                      NO: One line per depth step

~Well Information Block
#MNEM.UNIT                 Value                       Information
#------------              -----                       -----------
STRT.M                    145.9000                    :START
STOP.M                   3681.9000                    :STOP
STEP.M                      0.1000                    :STEP
NULL.                     -999.25                     :NULL VALUE
COMP.         Statoil Petroleum AS                    :Company
WELL.         15/9-F-1 A                              :Well
FLD .         VOLVE                                   :Field
LOC .         Maersk Inspirer                         :Location
PROV.                                                 :Province
CNTY.         Unused                                  :County
STATE.                                                 :State
CTRY.                                                 :Country
DATE.                                                 :Log Date
SRVC.                                                 :Service Company
UWI .         1A                                     :Unique Well Identifier
API .                                                 :API Number
LATI.         058 26' 29.907" N    DMS                :Latitude
LONG.         001 53' 14.708" E    DMS                :Longtitude
PD  .         MSL                                     :Permanent Datum
ELZ .M                 0.0000                         :Elev. Log Zero

~Curve Information
#MNEM   .UNIT             API CODE Curve Description
#------------             -------- -----------------
DEPTH   .M            00 001 00 00:   0  Depth
BS      .inches       00 000 00 00:   5  BS:COMPOSITE:rC:NONE:v1
CALI    .inches       70 280 00 01:   6  CALI:COMPOSITE:rC:0001:v1
DRHO    .g/cm3        45 356 01 01:   7  DRHO:COMPOSITE:rC:0001:v1
DT      .us/ft        60 520 32 01:   8  DT:COMPOSITE:rC:0001:v1
DTS     .us/ft        00 000 00 00:   9  DTS:COMPOSITE:rC:0001:v1
GR      .API          30 150 01 01:  10  GR:COMPOSITE:rC:0001:v1
NPHI    .v/v          42 890 01 01:  11  NPHI:COMPOSITE:rC:0001:v1
PEF     .b/elec       45 358 01 01:  12  PEF:COMPOSITE:rC:0001:v1
RACEHM  .UNKNOWN      95 220 00 01:  13  RACEHM:COMPOSITE:rC:0001:v1
RACELM  .UNKNOWN      00 524 01 00:  14  RACELM:COMPOSITE:rC:0001:v1
RHOB    .g/cm3        45 350 01 01:  15  RHOB:COMPOSITE:rC:0001:v1
ROP     .m/hr         00 000 00 00:  16  ROP:COMPOSITE:rC:0001:v1
RPCEHM  .UNKNOWN      00 000 00 00:  17  RPCEHM:COMPOSITE:rC:0001:v1
RPCELM  .UNKNOWN      00 000 00 00:  18  RPCELM:COMPOSITE:rC:0001:v1
RT      .ohm.m        00 000 00 00:  19  RT:COMPOSITE:rC:0001:v1

~Parameter Information
#MNEM.UNIT       Value           Description
#------------    -----           -----------
HLD .         Terms and Conditions.:Header Legal Disclaimer
RUN .         1                 :Run number

~Other Information
# Subset of the Equinor Volve composite LAS (andymcdgeo/Petrophysics-Python-Series Data/Volve): unused columns removed; data rows copied verbatim. Thinned to every 2nd depth sample (0.2 m) for web delivery.
PETROPHYSICAL INTERPRETATION: INPUT

# --- LOG MNEMONICS AND UNITS ---
#Depth          ABDCQF01        ABDCQF02        ABDCQF03        ABDCQF04        BS              CALI            DRHO            DT              DTS             GR              NPHI            PEF             RACEHM          RACELM          RHOB            ROP             RPCEHM          RPCELM          RT             
#M              g/cm3           g/cm3           g/cm3           g/cm3           inches          inches          g/cm3           us/ft           us/ft           API             v/v             b/elec          UNKNOWN         UNKNOWN         g/cm3           m/hr            UNKNOWN         UNKNOWN         ohm.m          

~A
# ...
3425.7000 8.5000 8.6250 0.0881 87.3996 -999.25 136.0871 0.3171 7.0830 1.8967 2.0206 2.6359 17.6574 3.8555 2.4971 3.8555
3425.9000 8.5000 8.6251 0.0794 86.6874 -999.25 133.2130 0.3223 6.6785 1.5900 2.0834 2.5592 19.9621 1.0756 1.3567 1.0756
3426.1000 8.5000 8.6250 0.0640 86.3666 -999.25 129.2443 0.3347 6.5371 1.1799 1.8122 2.5065 19.8888 0.7620 1.0251 0.7620
3426.3000 8.5000 8.6250 0.0549 86.2871 188.2422 130.5062 0.3410 6.4349 2.4252 2.1184 2.4780 17.4569 1.8667 2.1604 1.8667
3426.5000 8.5000 8.6250 0.0456 86.5830 187.7179 133.2707 0.3418 6.3419 2.5262 2.2433 2.4628 19.2201 3.4156 3.0586 3.4156
3426.7000 8.5000 8.6250 0.0374 87.1158 187.3982 132.9350 0.3290 6.4262 2.1204 2.0029 2.4632 20.8674 3.1561 2.4803 3.1561
3426.9000 8.5000 8.6250 0.0405 87.7409 187.2109 132.4849 0.3245 6.4649 2.2926 1.9378 2.4791 22.3986 3.2626 2.4646 3.2626
3427.1000 8.5000 8.6250 0.0452 88.3029 187.2280 135.7938 0.3202 6.2441 2.7369 2.0231 2.4819 23.5857 3.5523 2.8597 3.5523
3427.3000 8.5000 8.6250 0.0433 88.5925 187.6318 133.9553 0.3186 6.1596 3.0385 2.1680 2.4689 25.0489 3.5183 3.1908 3.5183
3427.5000 8.5000 8.6250 0.0429 88.6780 188.3174 135.6521 0.3230 6.1276 2.8157 2.1035 2.4622 26.7847 3.6927 3.1411 3.6927
3427.7000 8.5000 8.6250 0.0465 88.3736 189.4997 141.2394 0.3302 6.1512 2.7259 2.0580 2.4638 27.1628 3.2988 2.8816 3.2988
3427.9000 8.5000 8.6250 0.0492 88.0830 190.7927 140.2922 0.3457 6.2458 2.6331 2.0259 2.4613 27.3587 3.2472 2.7933 3.2472
3428.1000 8.5000 8.6017 0.0485 87.8124 192.1299 143.7752 0.3608 6.2649 2.5964 2.0005 2.4546 27.3734 3.2582 2.7509 3.2582
3428.3000 8.5000 8.6015 0.0474 87.6769 193.0798 146.3897 0.3700 6.2715 2.6199 1.9602 2.4485 27.3290 3.1248 2.6619 3.1248
3428.5000 8.5000 8.6017 0.0473 87.7996 193.3765 140.0686 0.3645 6.2708 2.4739 1.8512 2.4445 27.3152 3.2740 2.5996 3.2740
3428.7000 8.5000 8.6250 0.0461 88.1391 193.1020 129.1386 0.3500 6.2958 2.2901 1.7399 2.4392 27.3317 3.6893 2.6316 3.6893
3428.9000 8.5000 8.6250 0.0469 88.6516 191.4901 112.5257 0.3365 6.4070 2.2562 1.6283 2.4377 27.2250 3.6791 2.5931 3.6791
3429.1000 8.5000 8.6017 0.0514 89.2694 189.3847 95.8598 0.3346 6.4648 2.0968 1.5158 2.4421 27.2539 3.4411 2.4440 3.4411
3429.3000 8.5000 8.6250 0.0527 89.9913 186.7881 81.1885 0.3244 6.4329 2.0262 1.4148 2.4456 27.4176 3.1633 2.3825 3.1633
3429.5000 8.5000 8.6250 0.0409 90.2611 184.6437 71.3661 0.3038 6.4736 1.9360 1.2639 2.4529 27.3883 3.2573 2.3534 3.2573
3429.7000 8.5000 8.6250 0.0201 90.4287 182.9737 58.8824 0.2886 6.9422 1.6309 1.2523 2.4882 27.3786 1.3180 1.1735 1.3180
3429.9000 8.5000 8.6251 0.0216 90.4861 181.8643 52.2706 0.2790 7.7945 0.8605 1.1326 2.5731 27.3882 0.5254 0.8282 0.5254
3430.1000 8.5000 8.6718 0.0544 90.2048 181.6544 47.1567 0.2676 8.1732 1.0736 1.1538 2.6581 27.2655 0.3545 0.6222 0.3545
3430.3000 8.5000 8.6719 0.0791 89.8306 181.5517 44.8912 0.2797 8.1065 0.7058 1.3231 2.6727 27.2783 0.1892 0.4322 0.1892
3430.5000 8.5000 8.6719 0.0650 89.3579 181.5035 44.0716 0.3091 8.3079 0.6940 1.2626 2.6483 27.4256 0.3115 0.3862 0.3115
3430.7000 8.5000 8.6718 0.0183 88.3903 181.4316 46.7487 0.3155 8.8069 0.6438 0.9425 2.6467 27.3809 0.5049 0.5359 0.5049
3430.9000 8.5000 8.6485 -0.0131 87.3850 181.3170 51.7650 0.3174 9.6201 0.5530 0.8594 2.7055 27.2976 0.6198 0.6504 0.6198
3431.1000 8.5000 8.6250 -0.0028 86.4334 181.1311 57.2889 0.3239 10.1683 0.4695 0.8145 2.7978 27.1760 0.7543 0.6570 0.7543
3431.3000 8.5000 8.6250 0.0321 85.3834 180.7211 58.2550 0.3357 10.2278 0.6048 0.7984 2.8557 27.3177 0.9451 0.7913 0.9451
3431.5000 8.5000 8.6250 0.0528 84.2768 180.0107 58.0765 0.3547 10.1385 0.6853 0.7386 2.8663 27.3959 1.4461 0.8648 1.4461
3431.7000 8.5000 8.6250 0.0470 83.0878 178.7282 59.7111 0.3694 10.0667 0.5252 0.6848 2.8819 27.4109 1.9845 0.8402 1.9845
3431.9000 8.5000 8.6250 0.0341 81.8187 176.5675 60.8837 0.3747 10.1510 0.4704 1.0012 2.8992 27.3662 0.8384 0.7527 0.8384
3432.1000 8.5000 8.6250 0.0223 80.5231 173.9023 60.0818 0.3853 10.2226 3.9292 1223.3916 2.9188 27.3488 0.6878 0.3129 0.6878
3432.3000 8.5000 8.6250 0.0110 79.2158 170.4934 63.2219 0.4038 10.2844 5464.3691 1934.8481 2.9309 27.3587 0.2476 0.1366 0.2476
3432.5000 8.5000 8.6251 0.0161 78.4289 166.9714 64.6131 0.4045 10.5476 1.4623 1.0441 2.9234 27.3735 0.6444 0.3182 0.6444
3432.7000 8.5000 8.6251 0.0193 77.9926 163.1078 64.5827 0.3934 10.7583 0.9636 2.6704 2.8967 27.2945 0.6925 0.2934 0.6925
3432.9000 8.5000 8.6250 0.0277 78.1638 158.1315 61.1568 0.3797 10.6008 0.5223 0.6486 2.8974 27.1222 0.6992 0.6408 0.6992
3433.1000 8.5000 8.6250 0.0339 79.1559 152.9908 59.2720 0.3634 10.2283 0.9943 0.8270 2.8926 27.2603 0.7171 1.1071 0.7171
3433.3000 8.5000 8.6718 0.0393 80.4594 147.8800 58.4074 0.3297 10.0648 1.5325 0.7646 2.8683 27.3340 0.6542 0.9307 0.6542
3433.5000 8.5000 8.6250 0.0481 81.4561 143.2983 59.0253 0.3049 9.7777 0.8569 0.6772 2.8261 27.3438 0.9309 0.9450 0.9309
3433.7000 8.5000 8.6250 0.0496 81.9454 139.7506 58.6051 0.2999 8.8623 0.8330 0.6581 2.7527 27.3587 1.1621 0.9801 1.1621
3433.9000 8.5000 8.6250 0.0553 82.0239 136.9988 65.9723 0.3117 8.0368 0.7980 0.6587 2.6961 27.3439 1.3058 0.9520 1.3058
3434.1000 8.5000 8.6250 0.0633 81.1505 135.8748 70.6767 0.3181 7.6386 0.7256 0.6125 2.6566 27.2994 1.5443 0.9853 1.5443
3434.3000 8.5000 8.6250 0.0532 80.1841 135.4722 72.5227 0.3055 7.4475 0.7853 0.5835 2.5898 27.1773 2.1501 1.0450 2.1501
3434.5000 8.5000 8.5781 0.0495 79.1947 135.5900 64.3046 0.2933 6.9979 0.8679 0.5721 2.5186 27.1906 2.6910 1.1324 2.6910
3434.7000 8.5000 8.5781 0.0571 78.7631 136.0408 54.6092 0.2692 6.3793 0.8959 0.5760 2.4662 27.3383 2.4817 1.1317 2.4817
3434.9000 8.5000 8.5781 0.0648 78.7955 136.5154 49.5079 0.2347 5.7536 0.8741 0.5742 2.4227 27.3689 2.3910 1.1417 2.3910
3435.1000 8.5000 8.5781 0.0659 79.2306 137.0038 48.2867 0.2086 5.3588 0.8137 0.5818 2.3785 27.3700 1.7759 1.0782 1.7759
3435.3000 8.5000 8.5781 0.0584 80.3631 137.2115 38.6371 0.1953 5.2491 0.7683 0.6041 2.3403 27.3416 0.8120 0.8245 0.8120
3435.5000 8.5000 8.5781 0.0511 81.5354 137.2213 29.4624 0.1894 5.2765 0.7014 0.6144 2.3153 27.3678 0.5773 0.6831 0.5773
3435.7000 8.5000 8.5781 0.0507 82.7478 137.0299 25.8226 0.1858 5.3522 0.6204 0.6123 2.3061 27.3859 0.4889 0.5910 0.4889
3435.9000 8.5000 8.5781 0.0540 83.6471 136.5017 23.9571 0.1919 5.4310 0.5113 0.5983 2.3085 27.3959 0.4314 0.5188 0.4314
3436.1000 8.5000 8.5781 0.0556 84.3467 135.4591 24.2384 0.2065 5.5010 0.4733 0.5921 2.3095 27.4108 0.4042 0.4784 0.4042
3436.3000 8.5000 8.5781 0.0515 84.8124 133.7981 25.2113 0.2168 5.5756 0.4351 0.5802 2.3095 27.3294 0.3768 0.4306 0.3768
3436.5000 8.5000 8.5781 0.0425 85.0489 133.1130 27.1613 0.2150 5.5395 0.4196 0.5680 2.3134 27.1528 0.3678 0.4044 0.3678
3436.7000 8.5000 8.5781 0.0385 85.2034 132.2042 29.8957 0.2098 5.5019 0.4011 0.5614 2.3210 27.2951 0.3557 0.3869 0.3557
3436.9000 8.5000 8.5782 0.0444 85.2630 130.8414 31.2243 0.2121 5.4486 0.3881 0.5601 2.3285 27.3736 0.3482 0.3798 0.3482
3437.1000 8.5000 8.5781 0.0452 84.9609 129.8271 31.3971 0.2129 5.3464 0.3950 0.5643 2.3262 27.3884 0.3570 0.3815 0.3570
3437.3000 8.5000 8.5781 0.0417 84.3285 127.9727 31.2423 0.2100 5.2323 0.4199 0.5804 2.3162 27.3983 0.3797 0.3975 0.3797
3437.5000 8.5000 8.5781 0.0465 83.1836 124.4880 29.7559 0.2021 5.1090 0.4405 0.6162 2.3093 27.3811 0.3976 0.4279 0.3976
3437.7000 8.5000 8.5781 0.0526 81.2433 122.3910 32.9549 0.1904 5.1021 0.4843 0.6786 2.3116 27.3371 0.4374 0.5044 0.4374
3437.9000 8.5000 8.5781 0.0495 78.9264 120.8075 31.5778 0.1769 5.0693 0.6587 0.7824 2.3196 27.3466 0.4953 0.6264 0.4953
3438.1000 8.5000 8.5781 0.0426 76.1273 119.7382 30.8838 0.1749 5.1177 0.9283 0.8905 2.3372 27.3587 0.5547 0.7683 0.5547
3438.3000 8.5000 8.5781 0.0470 73.1521 119.1762 29.7841 0.1761 5.2266 1.3697 1.0302 2.3728 27.3735 0.7175 0.9915 0.7175
3438.5000 8.5000 8.5781 0.0571 70.1929 118.1087 29.7808 0.1592 5.3158 1.7797 1.1759 2.3990 27.3834 1.6894 1.9461 1.6894
3438.7000 8.5000 8.5781 0.0446 67.4236 115.1642 28.4691 0.1304 5.4204 2.6814 1.3708 2.3987 27.3661 4.2544 3.5982 4.2544
3438.9000 8.5000 8.6250 0.0314 64.7954 110.5215 30.2155 0.1033 5.5334 3.4309 1.5693 2.4242 27.3219 4.7222 4.5014 4.7222
