~Version Information
VERS.                     2.0: CWLS log ASCII Standard Version 2.00
WRAP.                      NO: One line per depth step

~Well Information Block
#MNEM.UNIT                 Value                       Information
#------------              -----                       -----------
STRT.M                    145.9000                    :START
STOP.M                   3681.9000                    :STOP
STEP.M                      0.1000                    :STEP
NULL.                     -999.25                     :NULL VALUE
COMP.         Statoil Petroleum AS                    :Company
WELL.         15/9-F-1 A                              :Well
FLD .         VOLVE                                   :Field
LOC .         Maersk Inspirer                         :Location
PROV.                                                 :Province
CNTY.         Unused                                  :County
STATE.                                                 :State
CTRY.                                                 :Country
DATE.                                                 :Log Date
SRVC.                                                 :Service Company
UWI .         1A                                     :Unique Well Identifier
API .                                                 :API Number
LATI.         058 26' 29.907" N    DMS                :Latitude
LONG.         001 53' 14.708" E    DMS                :Longtitude
PD  .         MSL                                     :Permanent Datum
ELZ .M                 0.0000                         :Elev. Log Zero

~Curve Information
#MNEM   .UNIT             API CODE Curve Description
#------------             -------- -----------------
DEPTH   .M            00 001 00 00:   0  Depth
BS      .inches       00 000 00 00:   5  BS:COMPOSITE:rC:NONE:v1
CALI    .inches       70 280 00 01:   6  CALI:COMPOSITE:rC:0001:v1
DRHO    .g/cm3        45 356 01 01:   7  DRHO:COMPOSITE:rC:0001:v1
DT      .us/ft        60 520 32 01:   8  DT:COMPOSITE:rC:0001:v1
DTS     .us/ft        00 000 00 00:   9  DTS:COMPOSITE:rC:0001:v1
GR      .API          30 150 01 01:  10  GR:COMPOSITE:rC:0001:v1
NPHI    .v/v          42 890 01 01:  11  NPHI:COMPOSITE:rC:0001:v1
PEF     .b/elec       45 358 01 01:  12  PEF:COMPOSITE:rC:0001:v1
RACEHM  .UNKNOWN      95 220 00 01:  13  RACEHM:COMPOSITE:rC:0001:v1
RACELM  .UNKNOWN      00 524 01 00:  14  RACELM:COMPOSITE:rC:0001:v1
RHOB    .g/cm3        45 350 01 01:  15  RHOB:COMPOSITE:rC:0001:v1
ROP     .m/hr         00 000 00 00:  16  ROP:COMPOSITE:rC:0001:v1
RPCEHM  .UNKNOWN      00 000 00 00:  17  RPCEHM:COMPOSITE:rC:0001:v1
RPCELM  .UNKNOWN      00 000 00 00:  18  RPCELM:COMPOSITE:rC:0001:v1
RT      .ohm.m        00 000 00 00:  19  RT:COMPOSITE:rC:0001:v1

~Parameter Information
#MNEM.UNIT       Value           Description
#------------    -----           -----------
HLD .         Terms and Conditions.:Header Legal Disclaimer
RUN .         1                 :Run number

~Other Information
# Subset of the Equinor Volve composite LAS (andymcdgeo/Petrophysics-Python-Series Data/Volve): unused columns removed; data rows copied verbatim. Thinned to every 2nd depth sample (0.2 m) for web delivery.
PETROPHYSICAL INTERPRETATION: INPUT

# --- LOG MNEMONICS AND UNITS ---
#Depth          ABDCQF01        ABDCQF02        ABDCQF03        ABDCQF04        BS              CALI            DRHO            DT              DTS             GR              NPHI            PEF             RACEHM          RACELM          RHOB            ROP             RPCEHM          RPCELM          RT             
#M              g/cm3           g/cm3           g/cm3           g/cm3           inches          inches          g/cm3           us/ft           us/ft           API             v/v             b/elec          UNKNOWN         UNKNOWN         g/cm3           m/hr            UNKNOWN         UNKNOWN         ohm.m          

~A
# ...
936.5000 26.0000 -999.25 -999.25 -999.25 -999.25 9.5885 -999.25 -999.25 0.7986 0.8783 -999.25 98.2433 0.7957 0.8235 0.7957
936.7000 26.0000 -999.25 -999.25 -999.25 -999.25 8.0046 -999.25 -999.25 0.8092 0.8843 -999.25 95.1544 0.7874 0.8240 0.7874
936.9000 26.0000 -999.25 -999.25 -999.25 -999.25 7.8825 -999.25 -999.25 0.8280 0.8970 -999.25 91.2125 0.8095 0.8394 0.8095
937.1000 26.0000 -999.25 -999.25 -999.25 -999.25 10.5839 -999.25 -999.25 0.8638 0.9076 -999.25 88.6410 0.7925 0.8501 0.7925
937.3000 26.0000 -999.25 -999.25 -999.25 -999.25 9.3167 -999.25 -999.25 0.8695 0.9234 -999.25 86.4443 0.7947 0.8523 0.7947
937.5000 26.0000 -999.25 -999.25 -999.25 -999.25 10.2809 -999.25 -999.25 0.8498 0.9247 -999.25 84.6205 0.8038 0.8429 0.8038
937.7000 26.0000 -999.25 -999.25 -999.25 -999.25 10.2480 -999.25 -999.25 0.8119 0.9424 -999.25 82.9280 0.7614 0.8312 0.7614
937.9000 26.0000 -999.25 -999.25 -999.25 -999.25 8.7625 -999.25 -999.25 0.8098 0.9723 -999.25 81.5266 0.7758 0.8686 0.7758
938.1000 26.0000 -999.25 -999.25 -999.25 -999.25 12.3979 -999.25 -999.25 0.8258 0.9798 -999.25 80.4018 1.0244 0.9872 1.0244
938.3000 26.0000 -999.25 -999.25 -999.25 -999.25 18.1556 -999.25 -999.25 0.8717 0.9843 -999.25 70.3489 1.5124 1.1653 1.5124
938.5000 26.0000 -999.25 -999.25 -999.25 -999.25 24.4423 -999.25 -999.25 0.9672 0.9984 -999.25 63.5560 2.1157 1.3610 2.1157
938.7000 26.0000 -999.25 -999.25 -999.25 -999.25 25.5611 -999.25 -999.25 1.0945 1.0100 -999.25 59.9868 2.1734 1.3664 2.1734
938.9000 26.0000 -999.25 -999.25 -999.25 -999.25 21.4854 -999.25 -999.25 1.0700 1.0203 -999.25 44.3618 1.1226 1.0806 1.1226
939.1000 26.0000 -999.25 -999.25 -999.25 -999.25 16.3731 -999.25 -999.25 0.8451 0.9517 -999.25 36.3665 0.6231 0.7594 0.6231
939.3000 26.0000 -999.25 -999.25 -999.25 -999.25 11.8574 -999.25 -999.25 0.7601 0.9332 -999.25 35.9732 0.6346 0.7445 0.6346
939.5000 26.0000 -999.25 -999.25 -999.25 -999.25 12.6842 -999.25 -999.25 0.7082 0.9001 -999.25 46.5787 0.6709 0.7378 0.6709
939.7000 26.0000 -999.25 -999.25 -999.25 -999.25 10.2276 -999.25 -999.25 0.6856 0.8623 -999.25 57.1883 0.7418 0.7455 0.7418
939.9000 26.0000 -999.25 -999.25 -999.25 -999.25 11.4740 -999.25 -999.25 0.7033 0.8565 -999.25 67.7982 0.7443 0.7643 0.7443
940.1000 26.0000 -999.25 -999.25 -999.25 -999.25 10.7601 -999.25 -999.25 0.6897 0.8376 -999.25 75.8174 0.7743 0.7624 0.7743
940.3000 26.0000 -999.25 -999.25 -999.25 -999.25 10.6297 -999.25 -999.25 0.6754 0.8233 -999.25 86.1563 0.7626 0.7514 0.7626
940.5000 26.0000 -999.25 -999.25 -999.25 -999.25 10.5341 -999.25 -999.25 0.6761 0.8098 -999.25 98.7971 0.7500 0.7482 0.7500
940.7000 26.0000 -999.25 -999.25 -999.25 -999.25 8.0395 -999.25 -999.25 0.6751 0.7956 -999.25 108.1919 0.7993 0.7639 0.7993
940.9000 26.0000 -999.25 -999.25 -999.25 -999.25 10.8843 -999.25 -999.25 0.7152 0.8078 -999.25 112.0009 0.7756 0.7753 0.7756
941.1000 26.0000 -999.25 -999.25 -999.25 -999.25 9.8919 -999.25 -999.25 0.7514 0.8158 -999.25 110.2554 0.7371 0.7762 0.7371
941.3000 26.0000 -999.25 -999.25 -999.25 -999.25 8.2987 -999.25 -999.25 0.8013 0.8190 -999.25 107.9563 0.7596 0.7941 0.7596
941.5000 26.0000 -999.25 -999.25 -999.25 -999.25 8.9070 -999.25 -999.25 0.8495 0.8245 -999.25 105.8213 0.7776 0.8055 0.7776
941.7000 26.0000 -999.25 -999.25 -999.25 -999.25 7.6988 -999.25 -999.25 0.8635 0.8206 -999.25 103.8498 0.8344 0.8295 0.8344
941.9000 26.0000 -999.25 -999.25 -999.25 -999.25 8.9386 -999.25 -999.25 0.8712 0.8219 -999.25 102.2156 0.8545 0.8394 0.8545
942.1000 26.0000 -999.25 -999.25 -999.25 -999.25 10.8360 -999.25 -999.25 0.8709 0.8223 -999.25 101.0207 0.8496 0.8394 0.8496
942.3000 26.0000 -999.25 -999.25 -999.25 -999.25 12.7328 -999.25 -999.25 0.8618 0.8225 -999.25 100.2635 0.8398 0.8351 0.8398
942.5000 26.0000 -999.25 -999.25 -999.25 -999.25 10.9438 -999.25 -999.25 0.8324 0.8165 -999.25 100.1817 0.8308 0.8230 0.8308
942.7000 26.0000 -999.25 -999.25 -999.25 -999.25 11.1477 -999.25 -999.25 0.7982 0.8134 -999.25 100.1310 0.8194 0.8097 0.8194
942.9000 26.0000 -999.25 -999.25 -999.25 -999.25 11.2036 -999.25 -999.25 0.7549 0.8104 -999.25 100.1114 0.8026 0.7909 0.8026
943.1000 26.0000 -999.25 -999.25 -999.25 -999.25 8.9912 -999.25 -999.25 0.7377 0.8047 -999.25 100.3914 0.7997 0.7826 0.7997
943.3000 26.0000 -999.25 -999.25 -999.25 -999.25 10.0452 -999.25 -999.25 0.7403 0.8099 -999.25 100.4469 0.7582 0.7693 0.7582
943.5000 26.0000 -999.25 -999.25 -999.25 -999.25 11.3601 -999.25 -999.25 0.7502 0.8144 -999.25 100.2791 0.7193 0.7596 0.7193
943.7000 26.0000 -999.25 -999.25 -999.25 -999.25 11.3308 -999.25 -999.25 0.7652 0.8207 -999.25 100.1538 0.6909 0.7569 0.6909
943.9000 26.0000 -999.25 -999.25 -999.25 -999.25 10.9861 -999.25 -999.25 0.7634 0.8292 -999.25 100.1960 0.6975 0.7594 0.6975
944.1000 26.0000 -999.25 -999.25 -999.25 -999.25 11.1652 -999.25 -999.25 0.7561 0.8367 -999.25 100.4043 0.7003 0.7616 0.7003
944.3000 26.0000 -999.25 -999.25 -999.25 -999.25 10.2995 -999.25 -999.25 0.7549 0.8450 -999.25 100.3709 0.6864 0.7611 0.6864
944.5000 26.0000 -999.25 -999.25 -999.25 -999.25 9.9862 -999.25 -999.25 0.7581 0.8567 -999.25 100.3129 0.6775 0.7594 0.6775
944.7000 26.0000 -999.25 -999.25 -999.25 -999.25 11.9409 -999.25 -999.25 0.7617 0.8752 -999.25 100.2306 0.6698 0.7598 0.6698
944.9000 26.0000 -999.25 -999.25 -999.25 -999.25 10.4146 -999.25 -999.25 0.7673 0.8913 -999.25 100.1508 0.6670 0.7556 0.6670
945.1000 26.0000 -999.25 -999.25 -999.25 -999.25 9.5693 -999.25 -999.25 0.7572 0.9297 -999.25 100.2727 0.6704 0.7694 0.6704
945.3000 26.0000 -999.25 -999.25 -999.25 -999.25 12.2607 -999.25 -999.25 0.8029 0.9643 -999.25 100.5945 0.7559 0.8504 0.7559
945.5000 26.0000 -999.25 -999.25 -999.25 -999.25 15.4407 -999.25 -999.25 0.8927 0.9999 -999.25 100.4258 1.1409 1.0829 1.1409
945.7000 26.0000 -999.25 -999.25 -999.25 -999.25 18.1839 -999.25 -999.25 1.0648 1.0378 -999.25 90.1645 1.5596 1.3116 1.5596
945.9000 26.0000 -999.25 -999.25 -999.25 -999.25 19.0563 -999.25 -999.25 1.2746 1.0773 -999.25 69.8801 1.7151 1.3863 1.7151
946.1000 26.0000 -999.25 -999.25 -999.25 -999.25 16.3595 -999.25 -999.25 1.2405 1.0816 -999.25 57.5489 1.4151 1.2838 1.4151
946.3000 26.0000 -999.25 -999.25 -999.25 -999.25 14.3370 -999.25 -999.25 1.0551 1.0427 -999.25 48.4689 1.1488 1.1510 1.1488
946.5000 26.0000 -999.25 -999.25 -999.25 -999.25 11.0557 -999.25 -999.25 0.8912 1.0069 -999.25 42.6265 0.8405 0.9558 0.8405
946.7000 26.0000 -999.25 -999.25 -999.25 -999.25 13.5419 -999.25 -999.25 0.8165 0.9735 -999.25 40.4922 0.6847 0.8150 0.6847
946.9000 26.0000 -999.25 -999.25 -999.25 -999.25 13.1496 -999.25 -999.25 0.8093 0.9395 -999.25 39.0062 0.7218 0.7897 0.7218
947.1000 26.0000 -999.25 -999.25 -999.25 -999.25 14.4571 -999.25 -999.25 0.8321 0.9174 -999.25 38.1707 0.7665 0.8136 0.7665
947.3000 26.0000 -999.25 -999.25 -999.25 -999.25 13.3849 -999.25 -999.25 0.8360 0.8935 -999.25 41.6194 0.7935 0.8337 0.7935
947.5000 26.0000 -999.25 -999.25 -999.25 -999.25 11.5885 -999.25 -999.25 0.8144 0.8738 -999.25 46.6546 0.7899 0.8278 0.7899
947.7000 26.0000 -999.25 -999.25 -999.25 -999.25 10.6653 -999.25 -999.25 0.7861 0.8602 -999.25 53.2672 0.7732 0.7999 0.7732
947.9000 26.0000 -999.25 -999.25 -999.25 -999.25 9.0758 -999.25 -999.25 0.7311 0.8412 -999.25 59.8827 0.7471 0.7765 0.7471
948.1000 26.0000 -999.25 -999.25 -999.25 -999.25 8.5839 -999.25 -999.25 0.7645 0.8417 -999.25 65.4677 0.7277 0.7799 0.7277
948.3000 26.0000 -999.25 -999.25 -999.25 -999.25 8.2143 -999.25 -999.25 0.7872 0.8338 -999.25 70.0232 0.7528 0.7947 0.7528
948.5000 26.0000 -999.25 -999.25 -999.25 -999.25 9.1166 -999.25 -999.25 0.7930 0.8240 -999.25 71.3357 0.7934 0.8088 0.7934
948.7000 26.0000 -999.25 -999.25 -999.25 -999.25 7.1954 -999.25 -999.25 0.7924 0.8207 -999.25 74.5375 0.8054 0.8108 0.8054
948.9000 26.0000 -999.25 -999.25 -999.25 -999.25 7.8406 -999.25 -999.25 0.7874 0.8250 -999.25 79.6195 0.8367 0.8216 0.8367
949.1000 26.0000 -999.25 -999.25 -999.25 -999.25 9.5502 -999.25 -999.25 0.7926 0.8276 -999.25 85.8600 0.8127 0.8185 0.8127
949.3000 26.0000 -999.25 -999.25 -999.25 -999.25 10.2292 -999.25 -999.25 0.8063 0.8400 -999.25 89.9146 0.7761 0.8091 0.7761
