~Version Information
VERS.                     2.0: CWLS log ASCII Standard Version 2.00
WRAP.                      NO: One line per depth step

~Well Information Block
#MNEM.UNIT                 Value                       Information
#------------              -----                       -----------
STRT.M                    145.9000                    :START
STOP.M                   3681.9000                    :STOP
STEP.M                      0.1000                    :STEP
NULL.                     -999.25                     :NULL VALUE
COMP.         Statoil Petroleum AS                    :Company
WELL.         15/9-F-1 A                              :Well
FLD .         VOLVE                                   :Field
LOC .         Maersk Inspirer                         :Location
PROV.                                                 :Province
CNTY.         Unused                                  :County
STATE.                                                 :State
CTRY.                                                 :Country
DATE.                                                 :Log Date
SRVC.                                                 :Service Company
UWI .         1A                                     :Unique Well Identifier
API .                                                 :API Number
LATI.         058 26' 29.907" N    DMS                :Latitude
LONG.         001 53' 14.708" E    DMS                :Longtitude
PD  .         MSL                                     :Permanent Datum
ELZ .M                 0.0000                         :Elev. Log Zero

~Curve Information
#MNEM   .UNIT             API CODE Curve Description
#------------             -------- -----------------
DEPTH   .M            00 001 00 00:   0  Depth
BS      .inches       00 000 00 00:   5  BS:COMPOSITE:rC:NONE:v1
CALI    .inches       70 280 00 01:   6  CALI:COMPOSITE:rC:0001:v1
DRHO    .g/cm3        45 356 01 01:   7  DRHO:COMPOSITE:rC:0001:v1
DT      .us/ft        60 520 32 01:   8  DT:COMPOSITE:rC:0001:v1
DTS     .us/ft        00 000 00 00:   9  DTS:COMPOSITE:rC:0001:v1
GR      .API          30 150 01 01:  10  GR:COMPOSITE:rC:0001:v1
NPHI    .v/v          42 890 01 01:  11  NPHI:COMPOSITE:rC:0001:v1
PEF     .b/elec       45 358 01 01:  12  PEF:COMPOSITE:rC:0001:v1
RACEHM  .UNKNOWN      95 220 00 01:  13  RACEHM:COMPOSITE:rC:0001:v1
RACELM  .UNKNOWN      00 524 01 00:  14  RACELM:COMPOSITE:rC:0001:v1
RHOB    .g/cm3        45 350 01 01:  15  RHOB:COMPOSITE:rC:0001:v1
ROP     .m/hr         00 000 00 00:  16  ROP:COMPOSITE:rC:0001:v1
RPCEHM  .UNKNOWN      00 000 00 00:  17  RPCEHM:COMPOSITE:rC:0001:v1
RPCELM  .UNKNOWN      00 000 00 00:  18  RPCELM:COMPOSITE:rC:0001:v1
RT      .ohm.m        00 000 00 00:  19  RT:COMPOSITE:rC:0001:v1

~Parameter Information
#MNEM.UNIT       Value           Description
#------------    -----           -----------
HLD .         Terms and Conditions.:Header Legal Disclaimer
RUN .         1                 :Run number

~Other Information
# Subset of the Equinor Volve composite LAS (andymcdgeo/Petrophysics-Python-Series Data/Volve): unused columns removed; data rows copied verbatim. Thinned to every 2nd depth sample (0.2 m) for web delivery.
PETROPHYSICAL INTERPRETATION: INPUT

# --- LOG MNEMONICS AND UNITS ---
#Depth          ABDCQF01        ABDCQF02        ABDCQF03        ABDCQF04        BS              CALI            DRHO            DT              DTS             GR              NPHI            PEF             RACEHM          RACELM          RHOB            ROP             RPCEHM          RPCELM          RT             
#M              g/cm3           g/cm3           g/cm3           g/cm3           inches          inches          g/cm3           us/ft           us/ft           API             v/v             b/elec          UNKNOWN         UNKNOWN         g/cm3           m/hr            UNKNOWN         UNKNOWN         ohm.m          

~A
# ...
2284.1000 17.5000 -999.25 -999.25 -999.25 -999.25 18.5728 -999.25 -999.25 0.4376 0.3811 -999.25 11.7424 0.5043 0.3922 0.5043
2284.3000 17.5000 -999.25 -999.25 -999.25 -999.25 17.6531 -999.25 -999.25 0.4171 0.3798 -999.25 12.5684 0.4693 0.3800 0.4693
2284.5000 17.5000 -999.25 -999.25 -999.25 -999.25 20.3561 -999.25 -999.25 0.3474 0.3727 -999.25 14.1603 0.4165 0.3747 0.4165
2284.7000 17.5000 -999.25 -999.25 -999.25 -999.25 21.8372 -999.25 -999.25 0.3381 0.3697 -999.25 15.8965 0.3821 0.3694 0.3821
2284.9000 17.5000 -999.25 -999.25 -999.25 -999.25 20.0370 -999.25 -999.25 0.3557 0.3707 -999.25 17.5851 0.3742 0.3660 0.3742
2285.1000 17.5000 -999.25 -999.25 -999.25 -999.25 19.5340 -999.25 -999.25 0.3506 0.3726 -999.25 19.2244 0.3950 0.3681 0.3950
2285.3000 17.5000 -999.25 -999.25 -999.25 -999.25 17.6920 -999.25 -999.25 0.3720 0.3731 -999.25 19.6227 0.3743 0.3684 0.3743
2285.5000 17.5000 -999.25 -999.25 -999.25 -999.25 18.4988 -999.25 -999.25 0.4122 0.3701 -999.25 20.0025 0.3553 0.3704 0.3553
2285.7000 17.5000 -999.25 -999.25 -999.25 -999.25 17.8484 -999.25 -999.25 0.3906 0.3678 -999.25 20.3642 0.3675 0.3733 0.3675
2285.9000 17.5000 -999.25 -999.25 -999.25 -999.25 19.4412 -999.25 -999.25 0.3606 0.3693 -999.25 20.9334 0.3791 0.3760 0.3791
2286.1000 17.5000 -999.25 -999.25 -999.25 -999.25 17.8676 -999.25 -999.25 0.3765 0.3692 -999.25 21.2832 0.3946 0.3874 0.3946
2286.3000 17.5000 -999.25 -999.25 -999.25 -999.25 16.8435 -999.25 -999.25 0.3638 0.3698 -999.25 21.4148 0.3987 0.3873 0.3987
2286.5000 17.5000 -999.25 -999.25 -999.25 -999.25 18.3071 -999.25 -999.25 0.3487 0.3638 -999.25 21.4368 0.3922 0.3779 0.3922
2286.7000 17.5000 -999.25 -999.25 -999.25 -999.25 19.8201 -999.25 -999.25 0.3603 0.3617 -999.25 21.2662 0.3841 0.3725 0.3841
2286.9000 17.5000 -999.25 -999.25 -999.25 -999.25 16.3497 -999.25 -999.25 0.3583 0.3636 -999.25 20.9043 0.3614 0.3662 0.3614
2287.1000 17.5000 -999.25 -999.25 -999.25 -999.25 14.7762 -999.25 -999.25 0.3550 0.3652 -999.25 20.6140 0.3731 0.3687 0.3731
2287.3000 17.5000 -999.25 -999.25 -999.25 -999.25 16.8194 -999.25 -999.25 0.3616 0.3668 -999.25 20.4070 0.3733 0.3714 0.3733
2287.5000 17.5000 -999.25 -999.25 -999.25 -999.25 19.6853 -999.25 -999.25 0.3550 0.3678 -999.25 20.2827 0.3818 0.3746 0.3818
2287.7000 17.5000 -999.25 -999.25 -999.25 -999.25 20.6330 -999.25 -999.25 0.3527 0.3687 -999.25 19.9717 0.3820 0.3766 0.3820
2287.9000 17.5000 -999.25 -999.25 -999.25 -999.25 20.8828 -999.25 -999.25 0.3500 0.3712 -999.25 19.7093 0.3752 0.3754 0.3752
2288.1000 17.5000 -999.25 -999.25 -999.25 -999.25 18.7898 -999.25 -999.25 0.3755 0.3720 -999.25 19.4962 0.3676 0.3780 0.3676
2288.3000 17.5000 -999.25 -999.25 -999.25 -999.25 22.1674 -999.25 -999.25 0.4006 0.3717 -999.25 19.8662 0.3532 0.3799 0.3532
2288.5000 17.5000 -999.25 -999.25 -999.25 -999.25 20.5197 -999.25 -999.25 0.3965 0.3726 -999.25 20.3453 0.3561 0.3793 0.3561
2288.7000 17.5000 -999.25 -999.25 -999.25 -999.25 20.5988 -999.25 -999.25 0.3963 0.3734 -999.25 20.9325 0.3538 0.3794 0.3538
2288.9000 17.5000 -999.25 -999.25 -999.25 -999.25 19.4691 -999.25 -999.25 0.3746 0.3749 -999.25 21.3892 0.3672 0.3815 0.3672
2289.1000 17.5000 -999.25 -999.25 -999.25 -999.25 21.4976 -999.25 -999.25 0.3639 0.3753 -999.25 21.8087 0.3751 0.3828 0.3751
2289.3000 17.5000 -999.25 -999.25 -999.25 -999.25 21.1097 -999.25 -999.25 0.3596 0.3756 -999.25 22.1902 0.3796 0.3821 0.3796
2289.5000 17.5000 -999.25 -999.25 -999.25 -999.25 18.8972 -999.25 -999.25 0.3589 0.3738 -999.25 21.8387 0.4012 0.3872 0.4012
2289.7000 17.5000 -999.25 -999.25 -999.25 -999.25 18.6171 -999.25 -999.25 0.3704 0.3733 -999.25 20.5817 0.3894 0.3896 0.3894
2289.9000 17.5000 -999.25 -999.25 -999.25 -999.25 16.9799 -999.25 -999.25 0.3896 0.3741 -999.25 18.4294 0.3695 0.3878 0.3695
2290.1000 17.5000 -999.25 -999.25 -999.25 -999.25 18.9417 -999.25 -999.25 0.3741 0.3766 -999.25 19.8936 0.3856 0.3870 0.3856
2290.3000 17.5000 -999.25 -999.25 -999.25 -999.25 18.6818 -999.25 -999.25 0.3687 0.3815 -999.25 21.4067 0.3699 0.3790 0.3699
2290.5000 17.5000 -999.25 -999.25 -999.25 -999.25 18.3285 -999.25 -999.25 0.3721 0.3835 -999.25 22.9660 0.3748 0.3808 0.3748
2290.7000 17.5000 -999.25 -999.25 -999.25 -999.25 19.1997 -999.25 -999.25 0.3784 0.3845 -999.25 22.9979 0.3818 0.3871 0.3818
2290.9000 17.5000 -999.25 -999.25 -999.25 -999.25 19.2751 -999.25 -999.25 0.3886 0.3855 -999.25 23.0277 0.3823 0.3908 0.3823
2291.1000 17.5000 -999.25 -999.25 -999.25 -999.25 20.6471 -999.25 -999.25 0.4222 0.3855 -999.25 23.0546 0.3725 0.3946 0.3725
2291.3000 17.5000 -999.25 -999.25 -999.25 -999.25 19.6479 -999.25 -999.25 0.4270 0.3863 -999.25 22.4723 0.3741 0.3968 0.3741
2291.5000 17.5000 -999.25 -999.25 -999.25 -999.25 19.7904 -999.25 -999.25 0.4009 0.3883 -999.25 22.0135 0.3901 0.3992 0.3901
2291.7000 17.5000 -999.25 -999.25 -999.25 -999.25 21.1670 -999.25 -999.25 0.4033 0.3912 -999.25 21.6774 0.3915 0.4004 0.3915
2291.9000 17.5000 -999.25 -999.25 -999.25 -999.25 18.3806 -999.25 -999.25 0.3877 0.3943 -999.25 21.1837 0.3977 0.3985 0.3977
2292.1000 17.5000 -999.25 -999.25 -999.25 -999.25 18.0903 -999.25 -999.25 0.3762 0.3943 -999.25 20.1267 0.3993 0.3982 0.3993
2292.3000 17.5000 -999.25 -999.25 -999.25 -999.25 19.9016 -999.25 -999.25 0.3913 0.3920 -999.25 18.5106 0.3914 0.3998 0.3914
2292.5000 17.5000 -999.25 -999.25 -999.25 -999.25 21.0111 -999.25 -999.25 0.3944 0.3930 -999.25 17.5146 0.3968 0.4011 0.3968
2292.7000 17.5000 -999.25 -999.25 -999.25 -999.25 18.2821 -999.25 -999.25 0.3888 0.3953 -999.25 16.6115 0.4107 0.4027 0.4107
2292.9000 17.5000 -999.25 -999.25 -999.25 -999.25 17.4381 -999.25 -999.25 0.3904 0.3973 -999.25 15.8019 0.4031 0.4010 0.4031
2293.1000 17.5000 -999.25 -999.25 -999.25 -999.25 18.5913 -999.25 -999.25 0.3879 0.3986 -999.25 15.7288 0.4025 0.4010 0.4025
2293.3000 17.5000 -999.25 -999.25 -999.25 -999.25 18.4249 -999.25 -999.25 0.3782 0.3985 -999.25 15.8551 0.4064 0.4013 0.4064
2293.5000 17.5000 -999.25 -999.25 -999.25 -999.25 17.8891 -999.25 -999.25 0.3817 0.3977 -999.25 16.1803 0.4003 0.4012 0.4003
2293.7000 17.5000 -999.25 -999.25 -999.25 -999.25 18.2877 -999.25 -999.25 0.3872 0.3972 -999.25 16.9218 0.3952 0.4013 0.3952
2293.9000 17.5000 -999.25 -999.25 -999.25 -999.25 19.7720 -999.25 -999.25 0.3934 0.3962 -999.25 17.6841 0.3863 0.4017 0.3863
2294.1000 17.5000 -999.25 -999.25 -999.25 -999.25 19.5993 -999.25 -999.25 0.3912 0.3974 -999.25 18.4667 0.3988 0.4057 0.3988
2294.3000 17.5000 -999.25 -999.25 -999.25 -999.25 19.0242 -999.25 -999.25 0.3933 0.4013 -999.25 18.7337 0.3965 0.4040 0.3965
2294.5000 17.5000 -999.25 -999.25 -999.25 -999.25 19.7643 -999.25 -999.25 0.3926 0.4041 -999.25 18.7938 0.4033 0.4064 0.4033
2294.7000 17.5000 -999.25 -999.25 -999.25 -999.25 20.0690 -999.25 -999.25 0.3914 0.4044 -999.25 18.6477 0.4237 0.4153 0.4237
2294.9000 17.5000 -999.25 -999.25 -999.25 -999.25 19.4783 -999.25 -999.25 0.3793 0.4036 -999.25 18.3713 0.4192 0.4122 0.4192
2295.1000 17.5000 -999.25 -999.25 -999.25 -999.25 20.4101 -999.25 -999.25 0.3810 0.4038 -999.25 18.3022 0.3932 0.3992 0.3932
2295.3000 17.5000 -999.25 -999.25 -999.25 -999.25 28.2815 -999.25 -999.25 0.3724 0.4059 -999.25 18.4386 0.3775 0.3983 0.3775
2295.5000 17.5000 -999.25 -999.25 -999.25 -999.25 41.3026 -999.25 -999.25 0.3817 0.4086 -999.25 18.1216 0.3923 0.4166 0.3923
2295.7000 17.5000 -999.25 -999.25 -999.25 -999.25 49.8749 -999.25 -999.25 0.3916 0.4112 -999.25 18.0191 0.4251 0.4475 0.4251
2295.9000 17.5000 -999.25 -999.25 -999.25 -999.25 51.9734 -999.25 -999.25 0.4319 0.4224 -999.25 18.1298 0.4768 0.4572 0.4768
2296.1000 17.5000 -999.25 -999.25 -999.25 -999.25 42.0772 -999.25 -999.25 0.4192 0.4219 -999.25 18.3956 0.4361 0.4479 0.4361
2296.3000 17.5000 -999.25 -999.25 -999.25 -999.25 31.0843 -999.25 -999.25 0.4168 0.4192 -999.25 18.2665 0.4020 0.4331 0.4020
2296.5000 17.5000 -999.25 -999.25 -999.25 -999.25 23.1311 -999.25 -999.25 0.3952 0.4176 -999.25 17.7453 0.3976 0.4178 0.3976
2296.7000 17.5000 -999.25 -999.25 -999.25 -999.25 22.0446 -999.25 -999.25 0.3992 0.4194 -999.25 17.4377 0.4159 0.4163 0.4159
