~Version Information
VERS.                     2.0: CWLS log ASCII Standard Version 2.00
WRAP.                      NO: One line per depth step

~Well Information Block
#MNEM.UNIT                 Value                       Information
#------------              -----                       -----------
STRT.M                    145.9000                    :START
STOP.M                   4684.9000                    :STOP
STEP.M                      0.1000                    :STEP
NULL.                     -999.25                     :NULL VALUE
COMP.         STATOIL PETROLEUM AS                    :Company
WELL.         15/9-F-15 D                             :Well
FLD .         VOLVE                                   :Field
LOC .                                                 :Location
PROV.                                                 :Province
CNTY.         MAERSK INSPIRER                         :County
STATE.                                                 :State
CTRY.         NORWAY                                  :Country
DATE.                                                 :Log Date
SRVC.                                                 :Service Company
UWI .                                                 :Unique Well Identifier
API .                                                 :API Number
LATI.         058 26' 29.706" N    DMS                :Latitude
LONG.         001 53' 15.149" E    DMS                :Longtitude
PD  .         MSL                                     :Permanent Datum
EDF .M                54.9000                         :Elevations D.F.
EGL .M               -91.0000                         :Elevations G.L.
ELZ .M                54.9000                         :Elev. Log Zero
LMF .         DF                                      :Log Measured From
MP  .         DF                                      :Drill Measured From

~Curve Information
#MNEM   .UNIT             API CODE Curve Description
#------------             -------- -----------------
DEPTH   .M            00 001 00 00:   0  Depth
BS      .inches       00 000 00 00:   5  BS:COMPOSITE:rC:NONE:v1
CALI    .inches       70 280 00 01:   6  CALI:COMPOSITE:rC:NONE:v1
DRHO    .g/cm3        45 356 01 01:   7  DRHO:COMPOSITE:rC:NONE:v1
GR      .API          30 150 01 01:   8  GR:COMPOSITE:rC:NONE:v1
NPHI    .v/v          42 890 01 01:  10  NPHI:COMPOSITE:rC:NONE:v1
PEF     .b/elec       45 358 01 01:  11  PEF:COMPOSITE:rC:NONE:v1
RACEHM  .ohm.m        95 220 00 01:  12  RACEHM:COMPOSITE:rC:NONE:v1
RACELM  .ohm.m        00 524 01 00:  13  RACELM:COMPOSITE:rC:NONE:v1
RD      .ohm.m        00 000 00 00:  14  RD:COMPOSITE:rC:NONE:v1
RHOB    .g/cm3        45 350 01 01:  15  RHOB:COMPOSITE:rC:NONE:v1
ROP     .m/hr         00 000 00 00:  17  ROP:COMPOSITE:rC:NONE:v1
RPCEHM  .ohm.m        00 000 00 00:  18  RPCEHM:COMPOSITE:rC:NONE:v1
RPCELM  .ohm.m        00 000 00 00:  19  RPCELM:COMPOSITE:rC:NONE:v1
RT      .ohm.m        00 000 00 00:  20  RT:COMPOSITE:rC:NONE:v1

~Parameter Information
#MNEM.UNIT       Value           Description
#------------    -----           -----------
RUN .         .                 :Run Number

~Other Information
# Subset of the Equinor Volve composite LAS (BinWang0213/Course-PETE4241_19SP_ProjectCode Data/Petrophysics): unused columns removed; data rows copied verbatim. Thinned to every 2nd depth sample (0.2 m) for web delivery.
PETROPHYSICAL INTERPRETATION: INPUT

# --- LOG MNEMONICS AND UNITS ---
#Depth          ABDCQF01        ABDCQF02        ABDCQF03        ABDCQF04        BS              CALI            DRHO            GR              NBGRCFM         NPHI            PEF             RACEHM          RACELM          RD              RHOB            RM              ROP             RPCEHM          RPCELM          RT             
#M              g/cm3           g/cm3           g/cm3           g/cm3           inches          inches          g/cm3           API             API             v/v             b/elec          ohm.m           ohm.m           ohm.m           g/cm3           ohm.m           m/hr            ohm.m           ohm.m           ohm.m          

~A
# ...
3334.3000 8.5000 8.5000 0.0476 20.7719 0.0956 7.5985 3.1561 2.8612 3.2615 2.5981 31.2461 3.8834 3.2615 3.8681
3334.5000 8.5000 8.5000 0.0472 20.2063 0.0964 7.5268 3.2129 2.8606 3.2754 2.5987 31.3680 3.9158 3.2754 3.9368
3334.7000 8.5000 8.5000 0.0465 20.5922 0.1000 7.4622 3.3113 2.9026 3.3850 2.5966 31.5137 4.1141 3.3850 4.1310
3334.9000 8.5000 8.5000 0.0483 23.4890 0.1060 7.5000 3.4194 3.0124 3.6530 2.5942 31.6375 4.4462 3.6530 4.4114
3335.1000 8.5000 8.5466 0.0494 25.0902 0.1125 7.5502 3.4522 3.0596 3.7411 2.5918 31.7475 4.5047 3.7411 4.5385
3335.3000 8.5000 8.5000 0.0491 27.1592 0.1181 7.5401 3.4664 3.1022 3.7865 2.5868 31.7547 4.6231 3.7865 4.5533
3335.5000 8.5000 8.5003 0.0475 29.7887 0.1198 7.5390 3.6307 3.3053 3.8019 2.5822 31.7424 4.3142 3.8019 4.3094
3335.7000 8.5000 8.5469 0.0480 28.8476 0.1151 7.5674 3.6966 3.3964 3.7864 2.5860 31.4201 4.2410 3.7864 4.2783
3335.9000 8.5000 8.5466 0.0491 29.1985 0.1121 7.5391 3.6886 3.4416 3.7670 2.5924 30.8238 4.1510 3.7670 4.1718
3336.1000 8.5000 8.5000 0.0475 27.6377 0.1123 7.4930 3.7076 3.4759 3.8220 2.5908 29.9673 4.2080 3.8220 4.2521
3336.3000 8.5000 8.5000 0.0460 27.1118 0.1095 7.4679 3.6638 3.5056 3.9073 2.5904 29.2100 4.3493 3.9073 4.3422
3336.5000 8.5000 8.5000 0.0436 26.2086 0.1089 7.4689 3.6332 3.5325 3.9503 2.5904 28.5916 4.4390 3.9503 4.4213
3336.7000 8.5000 8.5003 0.0456 26.6829 0.1138 7.4739 3.6721 3.5630 3.9471 2.5937 27.8950 4.3975 3.9471 4.3827
3336.9000 8.5000 8.5235 0.0508 27.6110 0.1115 7.4767 3.6876 3.5933 3.9138 2.5984 27.3096 4.3750 3.9138 4.4031
3337.1000 8.5000 8.5000 0.0488 27.4013 0.1116 7.4837 3.6907 3.6267 3.9687 2.5934 26.8496 4.4150 3.9687 4.4381
3337.3000 8.5000 8.5000 0.0478 27.1783 0.1122 7.5478 3.7301 3.6238 3.9845 2.5930 26.5879 4.5561 3.9845 4.5290
3337.5000 8.5000 8.5000 0.0495 27.5650 0.1140 7.6446 3.7597 3.6666 4.0188 2.5968 26.5807 4.4790 4.0188 4.5387
3337.7000 8.5000 8.5000 0.0488 27.7718 0.1133 7.6080 3.7943 3.7000 4.0252 2.5946 26.5483 4.4990 4.0252 4.5246
3337.9000 8.5000 8.5000 0.0501 27.6503 0.1107 7.5178 3.8197 3.7025 4.0960 2.5980 26.4581 4.5583 4.0961 4.5672
3338.1000 8.5000 8.5000 0.0549 27.1709 0.1088 7.5637 3.8804 3.7024 4.1229 2.6094 26.4087 4.7301 4.1229 4.6515
3338.3000 8.5000 8.5000 0.0546 27.4636 0.1063 7.5473 3.8882 3.7066 4.1662 2.6101 26.4590 4.9275 4.1662 4.8618
3338.5000 8.5000 8.5000 0.0506 26.6038 0.1022 7.4050 3.9548 3.6994 4.1832 2.6067 26.5519 4.8234 4.1832 4.8465
3338.7000 8.5000 8.5000 0.0498 24.5945 0.1001 7.4515 3.9525 3.6848 4.2176 2.6060 26.5878 4.9145 4.2176 4.9403
3338.9000 8.5000 8.5000 0.0501 23.9697 0.1007 7.5387 3.9339 3.6950 4.2767 2.6040 26.5767 5.0783 4.2767 5.0770
3339.1000 8.5000 8.5000 0.0499 23.2235 0.1009 7.4920 3.9383 3.6866 4.3045 2.6022 26.5932 5.1109 4.3045 5.0965
3339.3000 8.5000 8.5000 0.0511 24.0388 0.1010 7.5398 3.9918 3.6903 4.2625 2.6036 26.6162 5.0290 4.2625 5.0293
3339.5000 8.5000 8.5000 0.0499 23.8379 0.1015 7.5819 3.9786 3.6712 4.2451 2.6050 26.5915 5.1387 4.2451 5.0116
3339.7000 8.5000 8.5000 0.0499 24.5768 0.0988 7.6353 3.9552 3.6749 4.2053 2.6044 26.5673 5.0183 4.2053 5.0099
3339.9000 8.5000 8.5000 0.0504 24.6790 0.0937 7.6079 3.9450 3.6743 4.2381 2.6047 26.5468 4.9795 4.2381 5.0011
3340.1000 8.5000 8.5233 0.0497 24.3361 0.0902 7.5364 3.9218 3.6607 4.2071 2.6029 26.5703 5.0080 4.2071 5.0252
3340.3000 8.5000 8.5000 0.0502 23.4943 0.0970 7.6992 3.8935 3.6628 4.1713 2.6021 26.5662 5.0200 4.1713 5.0200
3340.5000 8.5000 8.5000 0.0519 21.9544 0.0990 7.8664 3.8586 3.6500 4.1593 2.6032 26.6112 5.0234 4.1593 4.9888
3340.7000 8.5000 8.5000 0.0490 22.8184 0.0999 7.6759 3.8249 3.6572 4.1261 2.5994 27.0493 4.8707 4.1261 4.8838
3340.9000 8.5000 8.5000 0.0464 23.9712 0.1025 7.5174 3.8077 3.6566 4.1164 2.5956 27.5719 4.8930 4.1164 4.8793
3341.1000 8.5000 8.5000 0.0456 23.8331 0.1061 7.4991 3.7839 3.6832 4.1459 2.5902 28.2496 4.8189 4.1459 4.8009
3341.3000 8.5000 8.5000 0.0460 24.3391 0.1094 7.5572 3.7696 3.6794 4.0736 2.5889 28.5423 4.7853 4.0736 4.7566
3341.5000 8.5000 8.5000 0.0479 25.5748 0.1119 7.6251 3.7605 3.6804 4.0225 2.5923 28.8137 4.6748 4.0225 4.6988
3341.7000 8.5000 8.5000 0.0501 26.4826 0.1155 7.5340 3.7577 3.7188 4.0946 2.5988 29.1439 4.6799 4.0946 4.6720
3341.9000 8.5000 8.5000 0.0472 27.7983 0.1184 7.4560 3.8171 3.7642 4.1126 2.5927 29.4937 4.6405 4.1126 4.5643
3342.1000 8.5000 8.5466 0.0479 30.5337 0.1206 7.4697 3.8068 3.7801 4.0541 2.5901 29.6749 4.5372 4.0541 4.5134
3342.3000 8.5000 8.5469 0.0522 32.0274 0.1154 7.5282 3.8760 3.8417 4.0770 2.5975 29.7594 4.4658 4.0770 4.4377
3342.5000 8.5000 8.5000 0.0487 31.9482 0.1066 7.4717 4.0027 3.8409 4.0189 2.5928 29.7379 4.2855 4.0189 4.3249
3342.7000 8.5000 8.5000 0.0460 29.5035 0.0965 7.4305 4.1201 3.8758 4.0709 2.5913 29.7534 4.3783 4.0708 4.4268
3342.9000 8.5000 8.5000 0.0455 24.8261 0.0938 7.4503 4.1450 3.8797 4.1658 2.5936 29.7780 4.6151 4.1658 4.5911
3343.1000 8.5000 8.5000 0.0418 20.9831 0.0912 7.4219 4.1372 3.8975 4.2474 2.5873 29.7820 4.6014 4.2474 4.6267
3343.3000 8.5000 8.5000 0.0436 19.8831 0.0882 7.5088 4.1586 3.8535 4.2115 2.5874 29.7655 4.7265 4.2115 4.7794
3343.5000 8.5000 8.5000 0.0475 19.8069 0.0850 7.6644 4.1841 3.8583 4.4290 2.5916 29.7229 5.0799 4.4290 5.0661
3343.7000 8.5000 8.5000 0.0490 19.7510 0.0806 7.6265 4.2121 3.8766 4.4897 2.5981 29.5638 5.2734 4.4897 5.2875
3343.9000 8.5000 8.5000 0.0485 18.1043 0.0784 7.5766 4.2170 3.8584 4.5359 2.6035 29.5707 5.3438 4.5359 5.3423
3344.1000 8.5000 8.5003 0.0491 17.9834 0.0803 7.6077 4.2416 3.8699 4.6110 2.6103 29.6596 5.4388 4.6110 5.4349
3344.3000 8.5000 8.5000 0.0490 15.6900 0.0841 7.6200 4.2561 3.8843 4.6982 2.6139 29.7161 5.5515 4.6982 5.5515
3344.5000 8.5000 8.5000 0.0500 15.6385 0.0870 7.6102 4.3009 3.9120 4.6981 2.6169 29.7290 5.5724 4.6981 5.5823
3344.7000 8.5000 8.5000 0.0497 15.4558 0.0867 7.5239 4.3384 3.9067 4.7756 2.6161 29.7694 5.6366 4.7756 5.6291
3344.9000 8.5000 8.5000 0.0475 16.6430 0.0869 7.4738 4.3575 3.9518 4.7862 2.6112 30.2107 5.6309 4.7862 5.6304
3345.1000 8.5000 8.5000 0.0459 17.8167 0.0878 7.4300 4.4277 3.9685 4.8162 2.6081 30.2954 5.6270 4.8161 5.6210
3345.3000 8.5000 8.5000 0.0449 18.5817 0.0888 7.4531 4.4740 3.9946 4.7991 2.6045 30.0756 5.5951 4.7991 5.5942
3345.5000 8.5000 8.5003 0.0487 19.3719 0.0923 7.6147 4.5234 4.0433 4.8358 2.6029 29.9107 5.5894 4.8358 5.5804
3345.7000 8.5000 8.5626 0.0489 20.4106 0.0916 7.5679 4.5697 4.0582 4.8680 2.5991 29.9643 5.5421 4.8680 5.5037
3345.9000 8.5000 8.5469 0.0408 20.8364 0.0952 7.3849 4.6172 4.0604 4.8525 2.5890 29.8458 5.3726 4.8526 5.4289
3346.1000 8.5000 8.5001 0.0377 21.9314 0.0974 7.3703 4.6486 4.0938 4.8483 2.5876 29.3141 5.3663 4.8483 5.3492
3346.3000 8.5000 8.5000 0.0433 22.2295 0.0963 7.3850 4.6689 4.1156 4.7172 2.6006 28.5142 5.2162 4.7172 5.2328
3346.5000 8.5000 8.5000 0.0441 22.0861 0.0950 7.3586 4.6910 4.1610 4.7835 2.6031 27.8097 5.1772 4.7835 5.0991
3346.7000 8.5000 8.5001 0.0438 23.0123 0.0943 7.3925 4.7285 4.1625 4.7041 2.5989 27.1735 5.0565 4.7042 5.0422
3346.9000 8.5000 8.5466 0.0514 23.3502 0.0920 7.6084 4.6656 4.1722 4.6673 2.6069 26.7026 5.0203 4.6673 4.9938
3347.1000 8.5000 8.5469 0.0548 22.3253 0.0913 7.6819 4.5540 4.1685 4.6715 2.6140 26.5979 4.9875 4.6715 4.9983
3347.3000 8.5000 8.5468 0.0502 22.0179 0.0882 7.6193 4.4849 4.1581 4.6917 2.6084 26.5508 5.0404 4.6917 5.0260
3347.5000 8.5000 8.5466 0.0471 22.0884 0.0890 7.5897 4.4558 4.1732 4.6346 2.6018 26.5493 4.9081 4.6346 4.9134
3347.7000 8.5000 8.5003 0.0429 20.8437 0.0878 7.4708 4.4212 4.1496 4.6462 2.5989 26.5592 4.9221 4.6462 4.9241
3347.9000 8.5000 8.5466 0.0395 20.5894 0.0842 7.4279 4.3733 4.1648 4.5670 2.5999 26.5504 4.9680 4.5670 4.9589
3348.1000 8.5000 8.5000 0.0438 20.7188 0.0852 7.5300 4.3423 4.1353 4.5829 2.6083 26.5530 4.9973 4.5829 4.9938
3348.3000 8.5000 8.5000 0.0468 20.9220 0.0826 7.5519 4.3323 4.1494 4.5670 2.6129 26.5584 4.9855 4.5670 4.9639
3348.5000 8.5000 8.5235 0.0480 21.1936 0.0819 7.5699 4.3267 4.1397 4.5769 2.6113 26.4991 5.0129 4.5769 4.9959
3348.7000 8.5000 8.5469 0.0537 21.4562 0.0810 7.6157 4.3282 4.1289 4.6167 2.6164 26.4661 5.0816 4.6167 5.0973
