~Version Information
VERS.                     2.0: CWLS log ASCII Standard Version 2.00
WRAP.                      NO: One line per depth step

~Well Information Block
#MNEM.UNIT                 Value                       Information
#------------              -----                       -----------
STRT.M                    145.9000                    :START
STOP.M                   4684.9000                    :STOP
STEP.M                      0.1000                    :STEP
NULL.                     -999.25                     :NULL VALUE
COMP.         STATOIL PETROLEUM AS                    :Company
WELL.         15/9-F-15 D                             :Well
FLD .         VOLVE                                   :Field
LOC .                                                 :Location
PROV.                                                 :Province
CNTY.         MAERSK INSPIRER                         :County
STATE.                                                 :State
CTRY.         NORWAY                                  :Country
DATE.                                                 :Log Date
SRVC.                                                 :Service Company
UWI .                                                 :Unique Well Identifier
API .                                                 :API Number
LATI.         058 26' 29.706" N    DMS                :Latitude
LONG.         001 53' 15.149" E    DMS                :Longtitude
PD  .         MSL                                     :Permanent Datum
EDF .M                54.9000                         :Elevations D.F.
EGL .M               -91.0000                         :Elevations G.L.
ELZ .M                54.9000                         :Elev. Log Zero
LMF .         DF                                      :Log Measured From
MP  .         DF                                      :Drill Measured From

~Curve Information
#MNEM   .UNIT             API CODE Curve Description
#------------             -------- -----------------
DEPTH   .M            00 001 00 00:   0  Depth
BS      .inches       00 000 00 00:   5  BS:COMPOSITE:rC:NONE:v1
CALI    .inches       70 280 00 01:   6  CALI:COMPOSITE:rC:NONE:v1
DRHO    .g/cm3        45 356 01 01:   7  DRHO:COMPOSITE:rC:NONE:v1
GR      .API          30 150 01 01:   8  GR:COMPOSITE:rC:NONE:v1
NPHI    .v/v          42 890 01 01:  10  NPHI:COMPOSITE:rC:NONE:v1
PEF     .b/elec       45 358 01 01:  11  PEF:COMPOSITE:rC:NONE:v1
RACEHM  .ohm.m        95 220 00 01:  12  RACEHM:COMPOSITE:rC:NONE:v1
RACELM  .ohm.m        00 524 01 00:  13  RACELM:COMPOSITE:rC:NONE:v1
RD      .ohm.m        00 000 00 00:  14  RD:COMPOSITE:rC:NONE:v1
RHOB    .g/cm3        45 350 01 01:  15  RHOB:COMPOSITE:rC:NONE:v1
ROP     .m/hr         00 000 00 00:  17  ROP:COMPOSITE:rC:NONE:v1
RPCEHM  .ohm.m        00 000 00 00:  18  RPCEHM:COMPOSITE:rC:NONE:v1
RPCELM  .ohm.m        00 000 00 00:  19  RPCELM:COMPOSITE:rC:NONE:v1
RT      .ohm.m        00 000 00 00:  20  RT:COMPOSITE:rC:NONE:v1

~Parameter Information
#MNEM.UNIT       Value           Description
#------------    -----           -----------
RUN .         .                 :Run Number

~Other Information
# Subset of the Equinor Volve composite LAS (BinWang0213/Course-PETE4241_19SP_ProjectCode Data/Petrophysics): unused columns removed; data rows copied verbatim. Thinned to every 2nd depth sample (0.2 m) for web delivery.
PETROPHYSICAL INTERPRETATION: INPUT

# --- LOG MNEMONICS AND UNITS ---
#Depth          ABDCQF01        ABDCQF02        ABDCQF03        ABDCQF04        BS              CALI            DRHO            GR              NBGRCFM         NPHI            PEF             RACEHM          RACELM          RD              RHOB            RM              ROP             RPCEHM          RPCELM          RT             
#M              g/cm3           g/cm3           g/cm3           g/cm3           inches          inches          g/cm3           API             API             v/v             b/elec          ohm.m           ohm.m           ohm.m           g/cm3           ohm.m           m/hr            ohm.m           ohm.m           ohm.m          

~A
# ...
3096.3000 12.2500 -999.25 -999.25 10.4681 -999.25 -999.25 1.9327 1.8848 1.9647 -999.25 17.5197 2.2165 1.9647 2.2203
3096.5000 12.2500 -999.25 -999.25 9.6676 -999.25 -999.25 1.9379 1.9021 1.9966 -999.25 17.1101 2.2828 1.9966 2.2878
3096.7000 12.2500 -999.25 -999.25 9.7132 -999.25 -999.25 1.9361 1.9112 2.0208 -999.25 16.5210 2.3192 2.0208 2.3138
3096.9000 12.2500 -999.25 -999.25 9.6850 -999.25 -999.25 1.9430 1.9445 2.0460 -999.25 15.8541 2.3253 2.0460 2.3246
3097.1000 12.2500 -999.25 -999.25 10.4458 -999.25 -999.25 1.9444 1.9626 2.0589 -999.25 15.9389 2.3258 2.0589 2.3271
3097.3000 12.2500 -999.25 -999.25 10.6305 -999.25 -999.25 1.9513 1.9847 2.0758 -999.25 16.3328 2.3318 2.0758 2.3273
3097.5000 12.2500 -999.25 -999.25 10.1444 -999.25 -999.25 1.9862 2.0117 2.0878 -999.25 16.7256 2.3043 2.0878 2.3010
3097.7000 12.2500 -999.25 -999.25 9.8680 -999.25 -999.25 2.0328 2.0412 2.0883 -999.25 16.8722 2.2735 2.0883 2.2681
3097.9000 12.2500 -999.25 -999.25 9.5865 -999.25 -999.25 2.0685 2.0783 2.0982 -999.25 16.7185 2.2366 2.0982 2.2286
3098.1000 12.2500 -999.25 -999.25 10.7679 -999.25 -999.25 2.0952 2.0998 2.1104 -999.25 16.4507 2.2193 2.1104 2.2063
3098.3000 12.2500 -999.25 -999.25 10.8584 -999.25 -999.25 2.1402 2.1222 2.1065 -999.25 16.3762 2.1655 2.1065 2.1585
3098.5000 12.2500 -999.25 -999.25 9.1952 -999.25 -999.25 2.2227 2.1640 2.1038 -999.25 16.6938 2.0973 2.1038 2.0932
3098.7000 12.2500 -999.25 -999.25 9.7147 -999.25 -999.25 2.2627 2.1817 2.1044 -999.25 17.3230 2.0864 2.1044 2.0927
3098.9000 12.2500 -999.25 -999.25 9.7276 -999.25 -999.25 2.2833 2.2023 2.1314 -999.25 17.9199 2.1237 2.1314 2.1469
3099.1000 12.2500 -999.25 -999.25 8.4057 -999.25 -999.25 2.1861 2.1930 2.2010 -999.25 18.4762 2.3141 2.2010 2.3339
3099.3000 12.2500 -999.25 -999.25 9.4040 -999.25 -999.25 2.1431 2.1882 2.2395 -999.25 18.8784 2.4255 2.2395 2.4231
3099.5000 12.2500 -999.25 -999.25 10.7511 -999.25 -999.25 2.1536 2.1941 2.2640 -999.25 19.3747 2.4656 2.2640 2.4674
3099.7000 12.2500 -999.25 -999.25 11.7334 -999.25 -999.25 2.1714 2.1910 2.2704 -999.25 20.1428 2.5026 2.2704 2.5085
3099.9000 12.2500 -999.25 -999.25 10.0845 -999.25 -999.25 2.1747 2.1988 2.2954 -999.25 20.7250 2.5598 2.2954 2.5565
3100.1000 12.2500 -999.25 -999.25 10.5053 -999.25 -999.25 2.1830 2.1921 2.3037 -999.25 20.9969 2.6057 2.3037 2.6038
3100.3000 12.2500 -999.25 -999.25 11.4925 -999.25 -999.25 2.1906 2.1925 2.3114 -999.25 21.0084 2.6483 2.3114 2.6487
3100.5000 12.2500 -999.25 -999.25 11.1380 -999.25 -999.25 2.2000 2.1866 2.3146 -999.25 20.5734 2.6575 2.3146 2.6599
3100.7000 12.2500 -999.25 -999.25 12.0214 -999.25 -999.25 2.2000 2.1845 2.3159 -999.25 19.1615 2.6648 2.3159 2.6632
3100.9000 12.2500 -999.25 -999.25 11.2193 -999.25 -999.25 2.1860 2.1893 2.3172 -999.25 18.7226 2.6607 2.3172 2.6576
3101.1000 12.2500 -999.25 -999.25 11.1030 -999.25 -999.25 2.1717 2.1835 2.3082 -999.25 18.7584 2.6429 2.3082 2.6392
3101.3000 12.2500 -999.25 -999.25 11.9580 -999.25 -999.25 2.1608 2.1868 2.2967 -999.25 19.1725 2.6143 2.2967 2.6166
3101.5000 12.2500 -999.25 -999.25 11.9965 -999.25 -999.25 2.1531 2.1850 2.2903 -999.25 19.5466 2.5809 2.2903 2.5812
3101.7000 12.2500 -999.25 -999.25 9.9732 -999.25 -999.25 2.1484 2.1865 2.2753 -999.25 19.9878 2.5624 2.2753 2.5547
3101.9000 12.2500 -999.25 -999.25 9.7502 -999.25 -999.25 2.1322 2.1864 2.2639 -999.25 20.3635 2.5254 2.2639 2.4870
3102.1000 12.2500 -999.25 -999.25 10.4496 -999.25 -999.25 2.1324 2.1906 2.2271 -999.25 20.5335 2.4174 2.2271 2.4152
3102.3000 12.2500 -999.25 -999.25 9.3068 -999.25 -999.25 2.1353 2.1935 2.2103 -999.25 20.5795 2.3574 2.2103 2.3562
3102.5000 12.2500 -999.25 -999.25 8.9952 -999.25 -999.25 2.1281 2.1934 2.1900 -999.25 20.5561 2.3305 2.1900 2.3133
3102.7000 12.2500 -999.25 -999.25 9.1165 -999.25 -999.25 2.1281 2.1996 2.1690 -999.25 20.5953 2.2510 2.1690 2.2500
3102.9000 12.2500 -999.25 -999.25 7.5606 -999.25 -999.25 2.1568 2.2071 2.1368 -999.25 20.7349 2.1845 2.1368 2.1777
3103.1000 12.2500 -999.25 -999.25 7.0623 -999.25 -999.25 2.1484 2.2000 2.1143 -999.25 21.0972 2.1437 2.1143 2.1352
3103.3000 12.2500 -999.25 -999.25 7.5161 -999.25 -999.25 2.1470 2.1985 2.1032 -999.25 21.4730 2.1202 2.1032 2.1181
3103.5000 12.2500 -999.25 -999.25 8.8400 -999.25 -999.25 2.1383 2.1915 2.0921 -999.25 21.9597 2.1018 2.0921 2.1068
3103.7000 12.2500 -999.25 -999.25 9.8378 -999.25 -999.25 2.1276 2.1822 2.0790 -999.25 22.3555 2.1223 2.0790 2.1308
3103.9000 12.2500 -999.25 -999.25 11.9697 -999.25 -999.25 2.0862 2.1729 2.0878 -999.25 22.6756 2.1626 2.0878 2.1792
3104.1000 12.2500 -999.25 -999.25 12.4006 -999.25 -999.25 2.0423 2.1497 2.0960 -999.25 22.8793 2.2176 2.0960 2.2237
3104.3000 12.2500 -999.25 -999.25 11.4184 -999.25 -999.25 2.0224 2.1416 2.1032 -999.25 22.8674 2.2614 2.1032 2.2656
3104.5000 12.2500 -999.25 -999.25 12.3634 -999.25 -999.25 2.0060 2.1358 2.1043 -999.25 22.8875 2.2870 2.1043 2.2871
3104.7000 12.2500 -999.25 -999.25 13.2152 -999.25 -999.25 1.9980 2.1276 2.1076 -999.25 22.9111 2.3006 2.1076 2.2992
3104.9000 12.2500 -999.25 -999.25 12.4399 -999.25 -999.25 2.0076 2.1230 2.1004 -999.25 22.8905 2.2971 2.1004 2.2954
3105.1000 12.2500 -999.25 -999.25 11.1273 -999.25 -999.25 2.0142 2.1189 2.0927 -999.25 22.8861 2.2814 2.0927 2.2881
3105.3000 12.2500 -999.25 -999.25 10.7009 -999.25 -999.25 2.0081 2.1154 2.0955 -999.25 22.8881 2.2911 2.0955 2.2840
3105.5000 12.2500 -999.25 -999.25 10.8085 -999.25 -999.25 2.0275 2.1144 2.0765 -999.25 22.8792 2.2484 2.0765 2.2395
3105.7000 12.2500 -999.25 -999.25 10.1183 -999.25 -999.25 2.0696 2.1218 2.0663 -999.25 22.8976 2.2103 2.0663 2.2060
3105.9000 12.2500 -999.25 -999.25 10.6023 -999.25 -999.25 2.0903 2.1209 2.0732 -999.25 22.9363 2.2108 2.0732 2.2052
3106.1000 12.2500 -999.25 -999.25 11.5790 -999.25 -999.25 2.1193 2.1257 2.0717 -999.25 23.0231 2.1857 2.0717 2.1849
3106.3000 12.2500 -999.25 -999.25 13.2254 -999.25 -999.25 2.1264 2.1298 2.0754 -999.25 23.1289 2.1952 2.0754 2.1931
3106.5000 12.2500 -999.25 -999.25 15.9223 -999.25 -999.25 2.1235 2.1290 2.0868 -999.25 23.2579 2.2398 2.0868 2.2366
3106.7000 12.2500 -999.25 -999.25 17.7222 -999.25 -999.25 2.1044 2.1289 2.1055 -999.25 23.4440 2.2991 2.1055 2.3098
3106.9000 12.2500 -999.25 -999.25 17.0522 -999.25 -999.25 2.0921 2.1323 2.1302 -999.25 23.5792 2.3608 2.1302 2.3864
3107.1000 12.2500 -999.25 -999.25 16.4255 -999.25 -999.25 2.0570 2.1352 2.1592 -999.25 23.6500 2.4401 2.1592 2.4423
3107.3000 12.2500 -999.25 -999.25 15.4160 -999.25 -999.25 2.0385 2.1416 2.1685 -999.25 23.6766 2.4614 2.1685 2.4580
3107.5000 12.2500 -999.25 -999.25 13.7827 -999.25 -999.25 2.0444 2.1604 2.1737 -999.25 23.6723 2.4470 2.1737 2.4368
3107.7000 12.2500 -999.25 -999.25 10.8525 -999.25 -999.25 2.0568 2.1786 2.1679 -999.25 23.6578 2.3925 2.1679 2.3614
3107.9000 12.2500 -999.25 -999.25 10.3347 -999.25 -999.25 2.1013 2.2156 2.1621 -999.25 23.6521 2.3213 2.1621 2.3187
3108.1000 12.2500 -999.25 -999.25 10.4342 -999.25 -999.25 2.1284 2.2406 2.1667 -999.25 23.6388 2.2967 2.1667 2.2926
3108.3000 12.2500 -999.25 -999.25 10.5353 -999.25 -999.25 2.1599 2.2697 2.1731 -999.25 23.7031 2.2669 2.1731 2.2734
3108.5000 12.2500 -999.25 -999.25 10.4814 -999.25 -999.25 2.1795 2.2903 2.1920 -999.25 23.8704 2.2674 2.1920 2.2672
3108.7000 12.2500 -999.25 -999.25 11.3948 -999.25 -999.25 2.2004 2.3172 2.2163 -999.25 24.1278 2.2670 2.2163 2.2626
3108.9000 12.2500 -999.25 -999.25 11.2256 -999.25 -999.25 2.2417 2.3374 2.2176 -999.25 24.3294 2.2480 2.2176 2.2462
3109.1000 12.2500 -999.25 -999.25 11.4117 -999.25 -999.25 2.3069 2.3673 2.2439 -999.25 24.4812 2.2555 2.2439 2.2626
3109.3000 12.2500 -999.25 -999.25 11.7175 -999.25 -999.25 2.3290 2.3811 2.2988 -999.25 24.6083 2.3362 2.2988 2.3492
3109.5000 12.2500 -999.25 -999.25 14.2395 -999.25 -999.25 2.3250 2.3842 2.3668 -999.25 24.6727 2.4781 2.3668 2.4558
3109.7000 12.2500 -999.25 -999.25 14.9017 -999.25 -999.25 2.4202 2.4073 2.4284 -999.25 24.7182 2.5649 2.4284 2.5610
3109.9000 12.2500 -999.25 -999.25 16.1350 -999.25 -999.25 2.4235 2.4134 2.4776 -999.25 24.7854 2.6646 2.4776 2.6717
3110.1000 12.2500 -999.25 -999.25 16.5719 -999.25 -999.25 2.5282 2.4304 2.5081 -999.25 24.8472 2.7177 2.5081 2.7638
