~Version Information
VERS.                     2.0: CWLS log ASCII Standard Version 2.00
WRAP.                      NO: One line per depth step

~Well Information Block
#MNEM.UNIT                 Value                       Information
#------------              -----                       -----------
STRT.M                    145.9000                    :START
STOP.M                   4684.9000                    :STOP
STEP.M                      0.1000                    :STEP
NULL.                     -999.25                     :NULL VALUE
COMP.         STATOIL PETROLEUM AS                    :Company
WELL.         15/9-F-15 D                             :Well
FLD .         VOLVE                                   :Field
LOC .                                                 :Location
PROV.                                                 :Province
CNTY.         MAERSK INSPIRER                         :County
STATE.                                                 :State
CTRY.         NORWAY                                  :Country
DATE.                                                 :Log Date
SRVC.                                                 :Service Company
UWI .                                                 :Unique Well Identifier
API .                                                 :API Number
LATI.         058 26' 29.706" N    DMS                :Latitude
LONG.         001 53' 15.149" E    DMS                :Longtitude
PD  .         MSL                                     :Permanent Datum
EDF .M                54.9000                         :Elevations D.F.
EGL .M               -91.0000                         :Elevations G.L.
ELZ .M                54.9000                         :Elev. Log Zero
LMF .         DF                                      :Log Measured From
MP  .         DF                                      :Drill Measured From

~Curve Information
#MNEM   .UNIT             API CODE Curve Description
#------------             -------- -----------------
DEPTH   .M            00 001 00 00:   0  Depth
BS      .inches       00 000 00 00:   5  BS:COMPOSITE:rC:NONE:v1
CALI    .inches       70 280 00 01:   6  CALI:COMPOSITE:rC:NONE:v1
DRHO    .g/cm3        45 356 01 01:   7  DRHO:COMPOSITE:rC:NONE:v1
GR      .API          30 150 01 01:   8  GR:COMPOSITE:rC:NONE:v1
NPHI    .v/v          42 890 01 01:  10  NPHI:COMPOSITE:rC:NONE:v1
PEF     .b/elec       45 358 01 01:  11  PEF:COMPOSITE:rC:NONE:v1
RACEHM  .ohm.m        95 220 00 01:  12  RACEHM:COMPOSITE:rC:NONE:v1
RACELM  .ohm.m        00 524 01 00:  13  RACELM:COMPOSITE:rC:NONE:v1
RD      .ohm.m        00 000 00 00:  14  RD:COMPOSITE:rC:NONE:v1
RHOB    .g/cm3        45 350 01 01:  15  RHOB:COMPOSITE:rC:NONE:v1
ROP     .m/hr         00 000 00 00:  17  ROP:COMPOSITE:rC:NONE:v1
RPCEHM  .ohm.m        00 000 00 00:  18  RPCEHM:COMPOSITE:rC:NONE:v1
RPCELM  .ohm.m        00 000 00 00:  19  RPCELM:COMPOSITE:rC:NONE:v1
RT      .ohm.m        00 000 00 00:  20  RT:COMPOSITE:rC:NONE:v1

~Parameter Information
#MNEM.UNIT       Value           Description
#------------    -----           -----------
RUN .         .                 :Run Number

~Other Information
# Subset of the Equinor Volve composite LAS (BinWang0213/Course-PETE4241_19SP_ProjectCode Data/Petrophysics): unused columns removed; data rows copied verbatim. Thinned to every 2nd depth sample (0.2 m) for web delivery.
PETROPHYSICAL INTERPRETATION: INPUT

# --- LOG MNEMONICS AND UNITS ---
#Depth          ABDCQF01        ABDCQF02        ABDCQF03        ABDCQF04        BS              CALI            DRHO            GR              NBGRCFM         NPHI            PEF             RACEHM          RACELM          RD              RHOB            RM              ROP             RPCEHM          RPCELM          RT             
#M              g/cm3           g/cm3           g/cm3           g/cm3           inches          inches          g/cm3           API             API             v/v             b/elec          ohm.m           ohm.m           ohm.m           g/cm3           ohm.m           m/hr            ohm.m           ohm.m           ohm.m          

~A
# ...
1792.1000 17.5000 -999.25 -999.25 75.4918 -999.25 -999.25 0.7711 0.7297 0.6992 -999.25 37.6551 0.7069 0.6992 0.7029
1792.3000 17.5000 -999.25 -999.25 81.3620 -999.25 -999.25 0.7499 0.7247 0.6896 -999.25 37.5468 0.6859 0.6896 0.6806
1792.5000 17.5000 -999.25 -999.25 80.6946 -999.25 -999.25 0.7407 0.7220 0.6756 -999.25 36.8596 0.6671 0.6756 0.6713
1792.7000 17.5000 -999.25 -999.25 78.7958 -999.25 -999.25 0.7441 0.7203 0.6821 -999.25 36.0357 0.6787 0.6821 0.6814
1792.9000 17.5000 -999.25 -999.25 76.8132 -999.25 -999.25 0.7527 0.7227 0.6897 -999.25 34.9852 0.6964 0.6897 0.6933
1793.1000 17.5000 -999.25 -999.25 78.7014 -999.25 -999.25 0.7416 0.7218 0.6905 -999.25 34.0638 0.6887 0.6905 0.6887
1793.3000 17.5000 -999.25 -999.25 77.9581 -999.25 -999.25 0.7323 0.7230 0.6917 -999.25 33.3629 0.6858 0.6917 0.6847
1793.5000 17.5000 -999.25 -999.25 74.2522 -999.25 -999.25 0.7266 0.7230 0.6864 -999.25 32.9645 0.6771 0.6864 0.6774
1793.7000 17.5000 -999.25 -999.25 71.1225 -999.25 -999.25 0.7408 0.7346 0.6833 -999.25 30.4757 0.6730 0.6833 0.6751
1793.9000 17.5000 -999.25 -999.25 69.1533 -999.25 -999.25 0.7655 0.7484 0.6926 -999.25 25.3417 0.6754 0.6926 0.6789
1794.1000 17.5000 -999.25 -999.25 61.6119 -999.25 -999.25 0.7619 0.7488 0.7252 -999.25 18.7077 0.7009 0.7252 0.7151
1794.3000 17.5000 -999.25 -999.25 56.0169 -999.25 -999.25 0.7476 0.7470 0.7552 -999.25 14.8686 0.8046 0.7552 0.7933
1794.5000 17.5000 -999.25 -999.25 57.4179 -999.25 -999.25 0.8099 0.7566 0.7365 -999.25 12.9204 0.7750 0.7365 0.7750
1794.7000 17.5000 -999.25 -999.25 58.6669 -999.25 -999.25 0.7967 0.7639 0.7088 -999.25 12.7254 0.6988 0.7088 0.7066
1794.9000 17.5000 -999.25 -999.25 61.1518 -999.25 -999.25 0.7435 0.7441 0.7299 -999.25 14.0714 0.7488 0.7299 0.7137
1795.1000 17.5000 -999.25 -999.25 67.3470 -999.25 -999.25 0.7563 0.7412 0.6961 -999.25 15.8826 0.6765 0.6961 0.6815
1795.3000 17.5000 -999.25 -999.25 72.2301 -999.25 -999.25 0.7522 0.7332 0.6835 -999.25 18.2762 0.6710 0.6835 0.6713
1795.5000 17.5000 -999.25 -999.25 75.6036 -999.25 -999.25 0.7402 0.7257 0.6766 -999.25 20.2254 0.6716 0.6766 0.6727
1795.7000 17.5000 -999.25 -999.25 78.0015 -999.25 -999.25 0.7330 0.7199 0.6782 -999.25 22.2468 0.6702 0.6782 0.6719
1795.9000 17.5000 -999.25 -999.25 81.5234 -999.25 -999.25 0.7342 0.7153 0.6825 -999.25 24.4580 0.6740 0.6825 0.6737
1796.1000 17.5000 -999.25 -999.25 79.2212 -999.25 -999.25 0.7423 0.7139 0.6770 -999.25 27.2674 0.6734 0.6770 0.6750
1796.3000 17.5000 -999.25 -999.25 78.3071 -999.25 -999.25 0.7453 0.7151 0.6750 -999.25 29.5760 0.6744 0.6750 0.6750
1796.5000 17.5000 -999.25 -999.25 76.4015 -999.25 -999.25 0.7363 0.7141 0.6776 -999.25 30.5175 0.6773 0.6776 0.6768
1796.7000 17.5000 -999.25 -999.25 78.7937 -999.25 -999.25 0.7394 0.7155 0.6774 -999.25 30.9569 0.6766 0.6774 0.6782
1796.9000 17.5000 -999.25 -999.25 77.4358 -999.25 -999.25 0.7402 0.7204 0.6861 -999.25 31.6848 0.6822 0.6861 0.6817
1797.1000 17.5000 -999.25 -999.25 78.5997 -999.25 -999.25 0.7493 0.7242 0.6880 -999.25 32.2458 0.6819 0.6880 0.6826
1797.3000 17.5000 -999.25 -999.25 81.9948 -999.25 -999.25 0.7590 0.7286 0.6878 -999.25 32.7637 0.6865 0.6878 0.6871
1797.5000 17.5000 -999.25 -999.25 81.5764 -999.25 -999.25 0.7482 0.7297 0.6903 -999.25 32.9048 0.6846 0.6903 0.6768
1797.7000 17.5000 -999.25 -999.25 78.0904 -999.25 -999.25 0.7300 0.7295 0.6823 -999.25 32.9410 0.6497 0.6823 0.6548
1797.9000 17.5000 -999.25 -999.25 72.6974 -999.25 -999.25 0.7340 0.7336 0.6811 -999.25 32.9057 0.6593 0.6811 0.6602
1798.1000 17.5000 -999.25 -999.25 68.5835 -999.25 -999.25 0.7288 0.7385 0.6825 -999.25 32.9566 0.6580 0.6825 0.6534
1798.3000 17.5000 -999.25 -999.25 67.8599 -999.25 -999.25 0.7452 0.7514 0.6864 -999.25 32.9595 0.6451 0.6864 0.6665
1798.5000 17.5000 -999.25 -999.25 59.0064 -999.25 -999.25 0.7539 0.7442 0.7320 -999.25 32.9197 0.8491 0.7319 0.8819
1798.7000 17.5000 -999.25 -999.25 46.2474 -999.25 -999.25 0.6752 0.7143 0.8266 -999.25 32.9273 1.0347 0.8266 0.9173
1798.9000 17.5000 -999.25 -999.25 60.0419 -999.25 -999.25 0.7831 0.7485 0.6977 -999.25 30.7760 0.6594 0.6977 0.6703
1799.1000 17.5000 -999.25 -999.25 75.1041 -999.25 -999.25 0.7495 0.7455 0.6657 -999.25 27.9605 0.6260 0.6657 0.6267
1799.3000 17.5000 -999.25 -999.25 83.9401 -999.25 -999.25 0.7413 0.7297 0.6577 -999.25 23.3153 0.6313 0.6577 0.6352
1799.5000 17.5000 -999.25 -999.25 80.4565 -999.25 -999.25 0.7281 0.7184 0.6614 -999.25 23.5888 0.6451 0.6614 0.6454
1799.7000 17.5000 -999.25 -999.25 78.1614 -999.25 -999.25 0.7364 0.7171 0.6645 -999.25 25.5359 0.6564 0.6645 0.6563
1799.9000 17.5000 -999.25 -999.25 78.8431 -999.25 -999.25 0.7522 0.7198 0.6665 -999.25 27.9492 0.6621 0.6665 0.6612
1800.1000 17.5000 -999.25 -999.25 89.0102 -999.25 -999.25 0.7538 0.7206 0.6706 -999.25 30.0330 0.6652 0.6706 0.6686
1800.3000 17.5000 -999.25 -999.25 89.3315 -999.25 -999.25 0.7585 0.7190 0.6830 -999.25 31.7198 0.6804 0.6830 0.6819
1800.5000 17.5000 -999.25 -999.25 84.6758 -999.25 -999.25 0.7580 0.7200 0.6952 -999.25 32.6531 0.6974 0.6952 0.6970
1800.7000 17.5000 -999.25 -999.25 86.5581 -999.25 -999.25 0.7659 0.7220 0.6923 -999.25 32.9195 0.6926 0.6923 0.6943
1800.9000 17.5000 -999.25 -999.25 87.6848 -999.25 -999.25 0.7636 0.7241 0.6923 -999.25 32.9201 0.6903 0.6923 0.6901
1801.1000 17.5000 -999.25 -999.25 85.1361 -999.25 -999.25 0.7736 0.7285 0.6907 -999.25 32.9321 0.6843 0.6907 0.6872
1801.3000 17.5000 -999.25 -999.25 85.9607 -999.25 -999.25 0.7722 0.7298 0.6998 -999.25 32.9434 0.7018 0.6998 0.6985
1801.5000 17.5000 -999.25 -999.25 83.7440 -999.25 -999.25 0.7796 0.7305 0.7013 -999.25 32.9533 0.7020 0.7013 0.7015
1801.7000 17.5000 -999.25 -999.25 86.5642 -999.25 -999.25 0.7803 0.7325 0.6998 -999.25 32.9491 0.7017 0.6998 0.7013
1801.9000 17.5000 -999.25 -999.25 85.4681 -999.25 -999.25 0.7710 0.7318 0.7004 -999.25 32.9210 0.6998 0.7004 0.6979
1802.1000 17.5000 -999.25 -999.25 88.2303 -999.25 -999.25 0.7677 0.7292 0.6938 -999.25 32.9163 0.6876 0.6938 0.6875
1802.3000 17.5000 -999.25 -999.25 85.9934 -999.25 -999.25 0.7621 0.7269 0.6876 -999.25 32.9472 0.6834 0.6876 0.6811
1802.5000 17.5000 -999.25 -999.25 81.8457 -999.25 -999.25 0.7634 0.7251 0.6754 -999.25 32.9787 0.6706 0.6754 0.6723
1802.7000 17.5000 -999.25 -999.25 85.5379 -999.25 -999.25 0.7611 0.7254 0.6821 -999.25 32.9702 0.6819 0.6821 0.6823
1802.9000 17.5000 -999.25 -999.25 83.1523 -999.25 -999.25 0.7606 0.7218 0.6878 -999.25 32.9277 0.6877 0.6878 0.6894
1803.1000 17.5000 -999.25 -999.25 81.5492 -999.25 -999.25 0.7607 0.7219 0.6911 -999.25 32.7953 0.6996 0.6911 0.6973
1803.3000 17.5000 -999.25 -999.25 80.5679 -999.25 -999.25 0.7611 0.7193 0.6835 -999.25 32.7437 0.6925 0.6835 0.6894
1803.5000 17.5000 -999.25 -999.25 82.9897 -999.25 -999.25 0.7587 0.7184 0.6752 -999.25 32.8410 0.6748 0.6752 0.6763
1803.7000 17.5000 -999.25 -999.25 87.5255 -999.25 -999.25 0.7553 0.7166 0.6663 -999.25 32.9476 0.6708 0.6663 0.6715
1803.9000 17.5000 -999.25 -999.25 85.2503 -999.25 -999.25 0.7517 0.7144 0.6647 -999.25 32.9552 0.6710 0.6647 0.6737
1804.1000 17.5000 -999.25 -999.25 83.8070 -999.25 -999.25 0.7517 0.7128 0.6684 -999.25 32.9577 0.6793 0.6684 0.6784
1804.3000 17.5000 -999.25 -999.25 85.3566 -999.25 -999.25 0.7421 0.7093 0.6710 -999.25 32.9640 0.6801 0.6710 0.6799
1804.5000 17.5000 -999.25 -999.25 84.5152 -999.25 -999.25 0.7464 0.7084 0.6676 -999.25 32.9718 0.6767 0.6676 0.6764
1804.7000 17.5000 -999.25 -999.25 86.3459 -999.25 -999.25 0.7505 0.7067 0.6626 -999.25 32.9744 0.6697 0.6626 0.6705
1804.9000 17.5000 -999.25 -999.25 88.2996 -999.25 -999.25 0.7404 0.7038 0.6595 -999.25 32.9815 0.6677 0.6595 0.6654
1805.1000 17.5000 -999.25 -999.25 86.5917 -999.25 -999.25 0.7402 0.7008 0.6524 -999.25 32.9943 0.6565 0.6524 0.6545
1805.3000 17.5000 -999.25 -999.25 86.5907 -999.25 -999.25 0.7240 0.6998 0.6523 -999.25 33.0055 0.6566 0.6523 0.6550
1805.5000 17.5000 -999.25 -999.25 85.6373 -999.25 -999.25 0.7255 0.6965 0.6564 -999.25 32.9994 0.6565 0.6564 0.6545
1805.7000 17.5000 -999.25 -999.25 79.3915 -999.25 -999.25 0.7310 0.6928 0.6614 -999.25 32.9853 0.6462 0.6614 0.6463
