~Version Information
VERS.                     2.0: CWLS log ASCII Standard Version 2.00
WRAP.                      NO: One line per depth step

~Well Information Block
#MNEM.UNIT                 Value                       Information
#------------              -----                       -----------
STRT.M                    145.9000                    :START
STOP.M                   3681.9000                    :STOP
STEP.M                      0.1000                    :STEP
NULL.                     -999.25                     :NULL VALUE
COMP.         Statoil Petroleum AS                    :Company
WELL.         15/9-F-1 A                              :Well
FLD .         VOLVE                                   :Field
LOC .         Maersk Inspirer                         :Location
PROV.                                                 :Province
CNTY.         Unused                                  :County
STATE.                                                 :State
CTRY.                                                 :Country
DATE.                                                 :Log Date
SRVC.                                                 :Service Company
UWI .         1A                                     :Unique Well Identifier
API .                                                 :API Number
LATI.         058 26' 29.907" N    DMS                :Latitude
LONG.         001 53' 14.708" E    DMS                :Longtitude
PD  .         MSL                                     :Permanent Datum
ELZ .M                 0.0000                         :Elev. Log Zero

~Curve Information
#MNEM   .UNIT             API CODE Curve Description
#------------             -------- -----------------
DEPTH   .M            00 001 00 00:   0  Depth
BS      .inches       00 000 00 00:   5  BS:COMPOSITE:rC:NONE:v1
CALI    .inches       70 280 00 01:   6  CALI:COMPOSITE:rC:0001:v1
DRHO    .g/cm3        45 356 01 01:   7  DRHO:COMPOSITE:rC:0001:v1
DT      .us/ft        60 520 32 01:   8  DT:COMPOSITE:rC:0001:v1
DTS     .us/ft        00 000 00 00:   9  DTS:COMPOSITE:rC:0001:v1
GR      .API          30 150 01 01:  10  GR:COMPOSITE:rC:0001:v1
NPHI    .v/v          42 890 01 01:  11  NPHI:COMPOSITE:rC:0001:v1
PEF     .b/elec       45 358 01 01:  12  PEF:COMPOSITE:rC:0001:v1
RACEHM  .UNKNOWN      95 220 00 01:  13  RACEHM:COMPOSITE:rC:0001:v1
RACELM  .UNKNOWN      00 524 01 00:  14  RACELM:COMPOSITE:rC:0001:v1
RHOB    .g/cm3        45 350 01 01:  15  RHOB:COMPOSITE:rC:0001:v1
ROP     .m/hr         00 000 00 00:  16  ROP:COMPOSITE:rC:0001:v1
RPCEHM  .UNKNOWN      00 000 00 00:  17  RPCEHM:COMPOSITE:rC:0001:v1
RPCELM  .UNKNOWN      00 000 00 00:  18  RPCELM:COMPOSITE:rC:0001:v1
RT      .ohm.m        00 000 00 00:  19  RT:COMPOSITE:rC:0001:v1

~Parameter Information
#MNEM.UNIT       Value           Description
#------------    -----           -----------
HLD .         Terms and Conditions.:Header Legal Disclaimer
RUN .         1                 :Run number

~Other Information
# Subset of the Equinor Volve composite LAS (andymcdgeo/Petrophysics-Python-Series Data/Volve): unused columns removed; data rows copied verbatim. Thinned to every 2nd depth sample (0.2 m) for web delivery.
PETROPHYSICAL INTERPRETATION: INPUT

# --- LOG MNEMONICS AND UNITS ---
#Depth          ABDCQF01        ABDCQF02        ABDCQF03        ABDCQF04        BS              CALI            DRHO            DT              DTS             GR              NPHI            PEF             RACEHM          RACELM          RHOB            ROP             RPCEHM          RPCELM          RT             
#M              g/cm3           g/cm3           g/cm3           g/cm3           inches          inches          g/cm3           us/ft           us/ft           API             v/v             b/elec          UNKNOWN         UNKNOWN         g/cm3           m/hr            UNKNOWN         UNKNOWN         ohm.m          

~A
# ...
1834.9000 17.5000 -999.25 -999.25 -999.25 -999.25 117.3369 -999.25 -999.25 0.8261 0.7494 -999.25 30.1372 0.7212 0.6887 0.7212
1835.1000 17.5000 -999.25 -999.25 -999.25 -999.25 114.8324 -999.25 -999.25 0.8461 0.7593 -999.25 30.1588 0.7455 0.6996 0.7455
1835.3000 17.5000 -999.25 -999.25 -999.25 -999.25 106.1892 -999.25 -999.25 0.9018 0.7679 -999.25 30.1263 0.7177 0.6881 0.7177
1835.5000 17.5000 -999.25 -999.25 -999.25 -999.25 106.0890 -999.25 -999.25 0.8821 0.7737 -999.25 30.1209 0.6910 0.6849 0.6910
1835.7000 17.5000 -999.25 -999.25 -999.25 -999.25 103.0716 -999.25 -999.25 0.8820 0.7892 -999.25 30.1425 0.7045 0.7057 0.7045
1835.9000 17.5000 -999.25 -999.25 -999.25 -999.25 103.1010 -999.25 -999.25 0.8867 0.7930 -999.25 30.1643 0.7083 0.7168 0.7083
1836.1000 17.5000 -999.25 -999.25 -999.25 -999.25 101.9019 -999.25 -999.25 0.9858 0.8084 -999.25 30.1589 0.7326 0.7498 0.7326
1836.3000 17.5000 -999.25 -999.25 -999.25 -999.25 92.5865 -999.25 -999.25 1.1533 0.8154 -999.25 30.1263 0.9134 0.8190 0.9134
1836.5000 17.5000 -999.25 -999.25 -999.25 -999.25 84.6802 -999.25 -999.25 0.8703 0.7770 -999.25 30.1480 1.2634 0.9536 1.2634
1836.7000 17.5000 -999.25 -999.25 -999.25 -999.25 90.2702 -999.25 -999.25 0.8389 0.7784 -999.25 30.1426 0.8541 0.8447 0.8541
1836.9000 17.5000 -999.25 -999.25 -999.25 -999.25 103.5737 -999.25 -999.25 0.8819 0.7879 -999.25 30.1101 0.7350 0.7402 0.7350
1837.1000 17.5000 -999.25 -999.25 -999.25 -999.25 103.6622 -999.25 -999.25 0.8274 0.7675 -999.25 30.1317 0.7446 0.7220 0.7446
1837.3000 17.5000 -999.25 -999.25 -999.25 -999.25 102.5555 -999.25 -999.25 0.8143 0.7638 -999.25 30.1263 0.7607 0.7277 0.7607
1837.5000 17.5000 -999.25 -999.25 -999.25 -999.25 100.0639 -999.25 -999.25 0.8092 0.7616 -999.25 30.0938 0.7473 0.7298 0.7473
1837.7000 17.5000 -999.25 -999.25 -999.25 -999.25 98.5243 -999.25 -999.25 0.8327 0.7643 -999.25 30.1263 0.7303 0.7251 0.7303
1837.9000 17.5000 -999.25 -999.25 -999.25 -999.25 106.2131 -999.25 -999.25 0.8608 0.7682 -999.25 30.1263 0.7340 0.7160 0.7340
1838.1000 17.5000 -999.25 -999.25 -999.25 -999.25 105.9201 -999.25 -999.25 0.8750 0.7678 -999.25 30.0939 0.7383 0.7098 0.7383
1838.3000 17.5000 -999.25 -999.25 -999.25 -999.25 100.0086 -999.25 -999.25 0.8751 0.7658 -999.25 30.1155 0.7457 0.7059 0.7457
1838.5000 17.5000 -999.25 -999.25 -999.25 -999.25 97.1649 -999.25 -999.25 0.8621 0.7644 -999.25 30.1371 0.7537 0.7085 0.7537
1838.7000 17.5000 -999.25 -999.25 -999.25 -999.25 103.4228 -999.25 -999.25 0.8478 0.7631 -999.25 30.1588 0.7618 0.7110 0.7618
1838.9000 17.5000 -999.25 -999.25 -999.25 -999.25 98.4726 -999.25 -999.25 0.8410 0.7598 -999.25 30.1263 0.7556 0.7136 0.7556
1839.1000 17.5000 -999.25 -999.25 -999.25 -999.25 102.3350 -999.25 -999.25 0.8789 0.7659 -999.25 30.1209 0.7566 0.7091 0.7566
1839.3000 17.5000 -999.25 -999.25 -999.25 -999.25 107.7745 -999.25 -999.25 0.8917 0.7685 -999.25 30.1425 0.7575 0.7059 0.7575
1839.5000 17.5000 -999.25 -999.25 -999.25 -999.25 98.1137 -999.25 -999.25 0.8750 0.7653 -999.25 30.1100 0.7524 0.7036 0.7524
1839.7000 17.5000 -999.25 -999.25 -999.25 -999.25 100.4629 -999.25 -999.25 0.8475 0.7619 -999.25 30.1046 0.7394 0.7049 0.7394
1839.9000 17.5000 -999.25 -999.25 -999.25 -999.25 94.1460 -999.25 -999.25 0.8369 0.7596 -999.25 30.1263 0.7461 0.7072 0.7461
1840.1000 17.5000 -999.25 -999.25 -999.25 -999.25 101.7852 -999.25 -999.25 0.8655 0.7613 -999.25 30.0939 0.7437 0.7019 0.7437
1840.3000 17.5000 -999.25 -999.25 -999.25 -999.25 99.9101 -999.25 -999.25 0.8826 0.7633 -999.25 30.0885 0.7456 0.6990 0.7456
1840.5000 17.5000 -999.25 -999.25 -999.25 -999.25 103.4163 -999.25 -999.25 0.8818 0.7630 -999.25 30.1100 0.7406 0.6996 0.7406
1840.7000 17.5000 -999.25 -999.25 -999.25 -999.25 100.8121 -999.25 -999.25 0.8509 0.7544 -999.25 30.0792 0.7353 0.7038 0.7353
1840.9000 17.5000 -999.25 -999.25 -999.25 -999.25 104.2514 -999.25 -999.25 0.8314 0.7535 -999.25 30.0738 0.7339 0.7064 0.7339
1841.1000 17.5000 -999.25 -999.25 -999.25 -999.25 97.9149 -999.25 -999.25 0.8474 0.7550 -999.25 30.0939 0.7226 0.6913 0.7226
1841.3000 17.5000 -999.25 -999.25 -999.25 -999.25 102.6072 -999.25 -999.25 0.8533 0.7493 -999.25 30.1263 0.7331 0.6915 0.7331
1841.5000 17.5000 -999.25 -999.25 -999.25 -999.25 96.3436 -999.25 -999.25 0.8361 0.7456 -999.25 30.1263 0.7388 0.6916 0.7388
1841.7000 17.5000 -999.25 -999.25 -999.25 -999.25 99.4114 -999.25 -999.25 0.8136 0.7419 -999.25 30.0939 0.7135 0.6830 0.7135
1841.9000 17.5000 -999.25 -999.25 -999.25 -999.25 93.2014 -999.25 -999.25 0.8113 0.7394 -999.25 30.1307 0.6903 0.6774 0.6903
1842.1000 17.5000 -999.25 -999.25 -999.25 -999.25 95.8278 -999.25 -999.25 0.8116 0.7360 -999.25 30.1407 0.7140 0.6907 0.7140
1842.3000 17.5000 -999.25 -999.25 -999.25 -999.25 100.3423 -999.25 -999.25 0.8097 0.7318 -999.25 30.1241 0.7248 0.6986 0.7248
1842.5000 17.5000 -999.25 -999.25 -999.25 -999.25 97.1165 -999.25 -999.25 0.8165 0.7324 -999.25 30.1622 0.7376 0.6937 0.7376
1842.7000 17.5000 -999.25 -999.25 -999.25 -999.25 99.1980 -999.25 -999.25 0.8204 0.7362 -999.25 30.2274 0.7188 0.6830 0.7188
1842.9000 17.5000 -999.25 -999.25 -999.25 -999.25 96.6202 -999.25 -999.25 0.8197 0.7355 -999.25 30.3194 0.7201 0.6772 0.7201
1843.1000 17.5000 -999.25 -999.25 -999.25 -999.25 89.4968 -999.25 -999.25 0.8042 0.7220 -999.25 30.1689 0.7481 0.6854 0.7481
1843.3000 17.5000 -999.25 -999.25 -999.25 -999.25 88.1754 -999.25 -999.25 0.7834 0.7154 -999.25 30.1594 0.7535 0.6759 0.7535
1843.5000 17.5000 -999.25 -999.25 -999.25 -999.25 91.5152 -999.25 -999.25 0.8024 0.7213 -999.25 30.2900 0.6778 0.6309 0.6778
1843.7000 17.5000 -999.25 -999.25 -999.25 -999.25 92.6449 -999.25 -999.25 0.7919 0.7249 -999.25 30.3034 0.6299 0.6160 0.6299
1843.9000 17.5000 -999.25 -999.25 -999.25 -999.25 93.4039 -999.25 -999.25 0.8351 0.7370 -999.25 30.3046 0.6655 0.6296 0.6655
1844.1000 17.5000 -999.25 -999.25 -999.25 -999.25 93.4651 -999.25 -999.25 0.8553 0.7376 -999.25 30.2936 0.7771 0.6937 0.7771
1844.3000 17.5000 -999.25 -999.25 -999.25 -999.25 93.3602 -999.25 -999.25 0.8459 0.7426 -999.25 30.2411 0.7961 0.7223 0.7961
1844.5000 17.5000 -999.25 -999.25 -999.25 -999.25 92.2539 -999.25 -999.25 0.8365 0.7511 -999.25 30.1824 0.7710 0.7140 0.7710
1844.7000 17.5000 -999.25 -999.25 -999.25 -999.25 92.8689 -999.25 -999.25 0.8495 0.7571 -999.25 30.1175 0.7322 0.6990 0.7322
1844.9000 17.5000 -999.25 -999.25 -999.25 -999.25 86.7041 -999.25 -999.25 0.8440 0.7578 -999.25 30.1342 0.7229 0.6971 0.7229
1845.1000 17.5000 -999.25 -999.25 -999.25 -999.25 94.8305 -999.25 -999.25 0.8335 0.7575 -999.25 30.1263 0.7322 0.7049 0.7322
1845.3000 17.5000 -999.25 -999.25 -999.25 -999.25 95.0554 -999.25 -999.25 0.8475 0.7615 -999.25 30.0893 0.7738 0.7264 0.7738
1845.5000 17.5000 -999.25 -999.25 -999.25 -999.25 92.6006 -999.25 -999.25 0.8392 0.7615 -999.25 26.9560 0.7789 0.7386 0.7789
1845.7000 17.5000 -999.25 -999.25 -999.25 -999.25 95.0215 -999.25 -999.25 0.8595 0.7648 -999.25 25.6241 0.7542 0.7177 0.7542
1845.9000 17.5000 -999.25 -999.25 -999.25 -999.25 91.9672 -999.25 -999.25 0.8255 0.7564 -999.25 26.0837 0.7339 0.7063 0.7339
1846.1000 17.5000 -999.25 -999.25 -999.25 -999.25 91.8746 -999.25 -999.25 0.8124 0.7516 -999.25 26.7628 0.7034 0.6879 0.7034
1846.3000 17.5000 -999.25 -999.25 -999.25 -999.25 90.3887 -999.25 -999.25 0.8196 0.7538 -999.25 27.6619 0.6810 0.6714 0.6810
1846.5000 17.5000 -999.25 -999.25 -999.25 -999.25 89.2500 -999.25 -999.25 0.8163 0.7520 -999.25 28.7795 0.7047 0.6924 0.7047
1846.7000 17.5000 -999.25 -999.25 -999.25 -999.25 93.3054 -999.25 -999.25 0.8355 0.7582 -999.25 29.5378 0.7298 0.7062 0.7298
1846.9000 17.5000 -999.25 -999.25 -999.25 -999.25 97.5202 -999.25 -999.25 0.8315 0.7583 -999.25 29.9081 0.7637 0.7302 0.7637
1847.1000 17.5000 -999.25 -999.25 -999.25 -999.25 101.8853 -999.25 -999.25 0.8430 0.7599 -999.25 29.8927 0.7770 0.7322 0.7770
1847.3000 17.5000 -999.25 -999.25 -999.25 -999.25 94.7401 -999.25 -999.25 0.8467 0.7615 -999.25 29.9356 0.7764 0.7304 0.7764
1847.5000 17.5000 -999.25 -999.25 -999.25 -999.25 91.9497 -999.25 -999.25 0.8325 0.7567 -999.25 29.9506 0.7646 0.7247 0.7646
