~Version Information
VERS.                     2.0: CWLS log ASCII Standard Version 2.00
WRAP.                      NO: One line per depth step

~Well Information Block
#MNEM.UNIT                 Value                       Information
#------------              -----                       -----------
STRT.M                    145.9000                    :START
STOP.M                   3681.9000                    :STOP
STEP.M                      0.1000                    :STEP
NULL.                     -999.25                     :NULL VALUE
COMP.         Statoil Petroleum AS                    :Company
WELL.         15/9-F-1 A                              :Well
FLD .         VOLVE                                   :Field
LOC .         Maersk Inspirer                         :Location
PROV.                                                 :Province
CNTY.         Unused                                  :County
STATE.                                                 :State
CTRY.                                                 :Country
DATE.                                                 :Log Date
SRVC.                                                 :Service Company
UWI .         1A                                     :Unique Well Identifier
API .                                                 :API Number
LATI.         058 26' 29.907" N    DMS                :Latitude
LONG.         001 53' 14.708" E    DMS                :Longtitude
PD  .         MSL                                     :Permanent Datum
ELZ .M                 0.0000                         :Elev. Log Zero

~Curve Information
#MNEM   .UNIT             API CODE Curve Description
#------------             -------- -----------------
DEPTH   .M            00 001 00 00:   0  Depth
BS      .inches       00 000 00 00:   5  BS:COMPOSITE:rC:NONE:v1
CALI    .inches       70 280 00 01:   6  CALI:COMPOSITE:rC:0001:v1
DRHO    .g/cm3        45 356 01 01:   7  DRHO:COMPOSITE:rC:0001:v1
DT      .us/ft        60 520 32 01:   8  DT:COMPOSITE:rC:0001:v1
DTS     .us/ft        00 000 00 00:   9  DTS:COMPOSITE:rC:0001:v1
GR      .API          30 150 01 01:  10  GR:COMPOSITE:rC:0001:v1
NPHI    .v/v          42 890 01 01:  11  NPHI:COMPOSITE:rC:0001:v1
PEF     .b/elec       45 358 01 01:  12  PEF:COMPOSITE:rC:0001:v1
RACEHM  .UNKNOWN      95 220 00 01:  13  RACEHM:COMPOSITE:rC:0001:v1
RACELM  .UNKNOWN      00 524 01 00:  14  RACELM:COMPOSITE:rC:0001:v1
RHOB    .g/cm3        45 350 01 01:  15  RHOB:COMPOSITE:rC:0001:v1
ROP     .m/hr         00 000 00 00:  16  ROP:COMPOSITE:rC:0001:v1
RPCEHM  .UNKNOWN      00 000 00 00:  17  RPCEHM:COMPOSITE:rC:0001:v1
RPCELM  .UNKNOWN      00 000 00 00:  18  RPCELM:COMPOSITE:rC:0001:v1
RT      .ohm.m        00 000 00 00:  19  RT:COMPOSITE:rC:0001:v1

~Parameter Information
#MNEM.UNIT       Value           Description
#------------    -----           -----------
HLD .         Terms and Conditions.:Header Legal Disclaimer
RUN .         1                 :Run number

~Other Information
# Subset of the Equinor Volve composite LAS (andymcdgeo/Petrophysics-Python-Series Data/Volve): unused columns removed; data rows copied verbatim. Thinned to every 2nd depth sample (0.2 m) for web delivery.
PETROPHYSICAL INTERPRETATION: INPUT

# --- LOG MNEMONICS AND UNITS ---
#Depth          ABDCQF01        ABDCQF02        ABDCQF03        ABDCQF04        BS              CALI            DRHO            DT              DTS             GR              NPHI            PEF             RACEHM          RACELM          RHOB            ROP             RPCEHM          RPCELM          RT             
#M              g/cm3           g/cm3           g/cm3           g/cm3           inches          inches          g/cm3           us/ft           us/ft           API             v/v             b/elec          UNKNOWN         UNKNOWN         g/cm3           m/hr            UNKNOWN         UNKNOWN         ohm.m          

~A
# ...
2503.3000 17.5000 -999.25 -999.25 -999.25 -999.25 86.7924 -999.25 -999.25 0.9339 0.8143 -999.25 11.5456 0.7570 0.7258 0.7570
2503.5000 17.5000 -999.25 -999.25 -999.25 -999.25 84.2340 -999.25 -999.25 0.8828 0.8007 -999.25 9.3496 0.8070 0.7493 0.8070
2503.7000 17.5000 -999.25 -999.25 -999.25 -999.25 78.1439 -999.25 -999.25 0.9120 0.8034 -999.25 9.6454 0.7934 0.7410 0.7934
2503.9000 17.5000 -999.25 -999.25 -999.25 -999.25 74.6496 -999.25 -999.25 0.9313 0.8059 -999.25 10.1587 0.7693 0.7262 0.7693
2504.1000 17.5000 -999.25 -999.25 -999.25 -999.25 76.4213 -999.25 -999.25 0.9177 0.8066 -999.25 10.8885 0.7386 0.7199 0.7386
2504.3000 17.5000 -999.25 -999.25 -999.25 -999.25 78.1503 -999.25 -999.25 0.9082 0.8021 -999.25 11.8017 0.7633 0.7340 0.7633
2504.5000 17.5000 -999.25 -999.25 -999.25 -999.25 78.0984 -999.25 -999.25 0.9258 0.8048 -999.25 12.4607 0.7868 0.7423 0.7868
2504.7000 17.5000 -999.25 -999.25 -999.25 -999.25 80.4457 -999.25 -999.25 0.9129 0.8027 -999.25 12.8618 0.8094 0.7559 0.8094
2504.9000 17.5000 -999.25 -999.25 -999.25 -999.25 84.1794 -999.25 -999.25 0.9148 0.8050 -999.25 9.7341 0.8195 0.7589 0.8195
2505.1000 17.5000 -999.25 -999.25 -999.25 -999.25 94.0806 -999.25 -999.25 0.8975 0.8043 -999.25 7.5942 0.8000 0.7542 0.8000
2505.3000 17.5000 -999.25 -999.25 -999.25 -999.25 96.2432 -999.25 -999.25 0.9032 0.8052 -999.25 6.4382 0.7916 0.7506 0.7916
2505.5000 17.5000 -999.25 -999.25 -999.25 -999.25 95.8247 -999.25 -999.25 0.9321 0.8089 -999.25 6.5251 0.7624 0.7308 0.7624
2505.7000 17.5000 -999.25 -999.25 -999.25 -999.25 98.4622 -999.25 -999.25 0.9303 0.8088 -999.25 7.0510 0.7533 0.7223 0.7533
2505.9000 17.5000 -999.25 -999.25 -999.25 -999.25 104.0217 -999.25 -999.25 0.9146 0.8104 -999.25 8.0133 0.7449 0.7199 0.7449
2506.1000 17.5000 -999.25 -999.25 -999.25 -999.25 110.3525 -999.25 -999.25 0.9058 0.8123 -999.25 8.8943 0.7356 0.7142 0.7356
2506.3000 17.5000 -999.25 -999.25 -999.25 -999.25 108.8951 -999.25 -999.25 0.9232 0.8194 -999.25 9.8055 0.7233 0.7081 0.7233
2506.5000 17.5000 -999.25 -999.25 -999.25 -999.25 108.7988 -999.25 -999.25 0.9239 0.8249 -999.25 10.7451 0.7432 0.7208 0.7432
2506.7000 17.5000 -999.25 -999.25 -999.25 -999.25 95.6401 -999.25 -999.25 0.9007 0.8240 -999.25 10.6339 0.7739 0.7433 0.7739
2506.9000 17.5000 -999.25 -999.25 -999.25 -999.25 86.4139 -999.25 -999.25 0.9276 0.8317 -999.25 10.5469 0.7946 0.7637 0.7946
2507.1000 17.5000 -999.25 -999.25 -999.25 -999.25 81.3769 -999.25 -999.25 0.9948 0.8496 -999.25 10.4836 0.8059 0.7703 0.8059
2507.3000 17.5000 -999.25 -999.25 -999.25 -999.25 79.1669 -999.25 -999.25 0.9621 0.8806 -999.25 10.2075 0.8369 0.8152 0.8369
2507.5000 17.5000 -999.25 -999.25 -999.25 -999.25 75.0131 -999.25 -999.25 0.9798 0.8898 -999.25 10.0299 0.8304 0.8229 0.8304
2507.7000 17.5000 -999.25 -999.25 -999.25 -999.25 72.5550 -999.25 -999.25 1.0764 0.9065 -999.25 9.9502 0.8331 0.8227 0.8331
2507.9000 17.5000 -999.25 -999.25 -999.25 -999.25 67.7421 -999.25 -999.25 1.0799 0.9102 -999.25 9.8748 0.8606 0.8395 0.8606
2508.1000 17.5000 -999.25 -999.25 -999.25 -999.25 63.9799 -999.25 -999.25 1.0105 0.9057 -999.25 9.7908 0.8872 0.8575 0.8872
2508.3000 17.5000 -999.25 -999.25 -999.25 -999.25 68.7994 -999.25 -999.25 1.0030 0.9089 -999.25 9.6977 0.8995 0.8607 0.8995
2508.5000 17.5000 -999.25 -999.25 -999.25 -999.25 74.6364 -999.25 -999.25 1.0492 0.9176 -999.25 9.2592 0.8436 0.8312 0.8436
2508.7000 17.5000 -999.25 -999.25 -999.25 -999.25 78.0742 -999.25 -999.25 1.0544 0.9191 -999.25 9.0399 0.8164 0.8102 0.8164
2508.9000 17.5000 -999.25 -999.25 -999.25 -999.25 84.2431 -999.25 -999.25 1.0132 0.9149 -999.25 9.0388 0.8150 0.8042 0.8150
2509.1000 17.5000 -999.25 -999.25 -999.25 -999.25 79.6329 -999.25 -999.25 0.9603 0.9034 -999.25 9.1184 0.7923 0.7958 0.7923
2509.3000 17.5000 -999.25 -999.25 -999.25 -999.25 79.0762 -999.25 -999.25 1.0132 0.9110 -999.25 9.2936 0.7441 0.7716 0.7441
2509.5000 17.5000 -999.25 -999.25 -999.25 -999.25 76.9067 -999.25 -999.25 1.0226 0.9100 -999.25 9.5628 0.8018 0.7951 0.8018
2509.7000 17.5000 -999.25 -999.25 -999.25 -999.25 77.9746 -999.25 -999.25 0.9793 0.9006 -999.25 9.1369 0.8847 0.8469 0.8847
2509.9000 17.5000 -999.25 -999.25 -999.25 -999.25 80.9479 -999.25 -999.25 1.0237 0.9095 -999.25 8.8357 0.8914 0.8543 0.8914
2510.1000 17.5000 -999.25 -999.25 -999.25 -999.25 74.6631 -999.25 -999.25 1.0279 0.9158 -999.25 8.6585 0.8982 0.8621 0.8982
2510.3000 17.5000 -999.25 -999.25 -999.25 -999.25 74.7930 -999.25 -999.25 0.9978 0.9148 -999.25 8.4909 0.8958 0.8701 0.8958
2510.5000 17.5000 -999.25 -999.25 -999.25 -999.25 74.8844 -999.25 -999.25 1.0005 0.9150 -999.25 8.3680 0.8773 0.8677 0.8773
2510.7000 17.5000 -999.25 -999.25 -999.25 -999.25 74.7517 -999.25 -999.25 1.0150 0.9202 -999.25 8.2893 0.8824 0.8687 0.8824
2510.9000 17.5000 -999.25 -999.25 -999.25 -999.25 73.1945 -999.25 -999.25 0.9935 0.9172 -999.25 8.0483 0.8792 0.8724 0.8792
2511.1000 17.5000 -999.25 -999.25 -999.25 -999.25 75.7049 -999.25 -999.25 0.9965 0.9161 -999.25 7.8636 0.8702 0.8634 0.8702
2511.3000 17.5000 -999.25 -999.25 -999.25 -999.25 73.2167 -999.25 -999.25 0.9916 0.9156 -999.25 7.7350 0.8681 0.8610 0.8681
2511.5000 17.5000 -999.25 -999.25 -999.25 -999.25 76.6046 -999.25 -999.25 0.9684 0.9099 -999.25 7.5552 0.8803 0.8655 0.8803
2511.7000 17.5000 -999.25 -999.25 -999.25 -999.25 69.5867 -999.25 -999.25 0.9912 0.9077 -999.25 7.3722 0.8705 0.8563 0.8705
2511.9000 17.5000 -999.25 -999.25 -999.25 -999.25 74.0718 -999.25 -999.25 0.9855 0.9028 -999.25 7.1862 0.8762 0.8537 0.8762
2512.1000 17.5000 -999.25 -999.25 -999.25 -999.25 74.8137 -999.25 -999.25 0.9673 0.8969 -999.25 7.2621 0.8716 0.8507 0.8716
2512.3000 17.5000 -999.25 -999.25 -999.25 -999.25 79.3747 -999.25 -999.25 0.9841 0.8927 -999.25 7.3784 0.8302 0.8286 0.8302
2512.5000 17.5000 -999.25 -999.25 -999.25 -999.25 79.5577 -999.25 -999.25 1.0110 0.8936 -999.25 7.5344 0.8091 0.8116 0.8091
2512.7000 17.5000 -999.25 -999.25 -999.25 -999.25 75.6906 -999.25 -999.25 0.9657 0.8785 -999.25 7.3416 0.8449 0.8232 0.8449
2512.9000 17.5000 -999.25 -999.25 -999.25 -999.25 79.3777 -999.25 -999.25 0.9964 0.8727 -999.25 7.2844 0.8619 0.8194 0.8619
2513.1000 17.5000 -999.25 -999.25 -999.25 -999.25 81.2809 -999.25 -999.25 0.9611 0.8570 -999.25 7.3620 0.8577 0.8209 0.8577
2513.3000 17.5000 -999.25 -999.25 -999.25 -999.25 87.4836 -999.25 -999.25 0.9682 0.8524 -999.25 7.5112 0.8371 0.7975 0.8371
2513.5000 17.5000 -999.25 -999.25 -999.25 -999.25 82.5161 -999.25 -999.25 1.0549 0.8631 -999.25 7.7621 0.8409 0.7602 0.8409
2513.7000 17.5000 -999.25 -999.25 -999.25 -999.25 76.7809 -999.25 -999.25 1.0398 0.8479 -999.25 8.1139 0.8111 0.7496 0.8111
2513.9000 17.5000 -999.25 -999.25 -999.25 -999.25 74.8356 -999.25 -999.25 0.9439 0.8101 -999.25 8.3268 0.8657 0.7681 0.8657
2514.1000 17.5000 -999.25 -999.25 -999.25 -999.25 68.6973 -999.25 -999.25 0.8445 0.7950 -999.25 8.7084 0.8670 0.7734 0.8670
2514.3000 17.5000 -999.25 -999.25 -999.25 -999.25 65.8359 -999.25 -999.25 1.0912 0.8538 -999.25 9.2576 0.5582 0.6325 0.5582
2514.5000 17.5000 -999.25 -999.25 -999.25 -999.25 68.8568 -999.25 -999.25 1.2708 0.8723 -999.25 9.6487 0.7558 0.6978 0.7558
2514.7000 17.5000 -999.25 -999.25 -999.25 -999.25 70.0070 -999.25 -999.25 1.0341 0.8548 -999.25 8.9979 0.9523 0.8371 0.9523
2514.9000 17.5000 -999.25 -999.25 -999.25 -999.25 82.0935 -999.25 -999.25 1.0100 0.8639 -999.25 7.3125 0.9258 0.8663 0.9258
2515.1000 17.5000 -999.25 -999.25 -999.25 -999.25 82.3059 -999.25 -999.25 1.0242 0.8751 -999.25 6.6193 0.9361 0.8789 0.9361
2515.3000 17.5000 -999.25 -999.25 -999.25 -999.25 82.1507 -999.25 -999.25 1.0858 0.8917 -999.25 5.9624 0.9355 0.8638 0.9355
2515.5000 17.5000 -999.25 -999.25 -999.25 -999.25 82.8842 -999.25 -999.25 1.0499 0.8937 -999.25 5.3443 0.9231 0.8641 0.9231
2515.7000 17.5000 -999.25 -999.25 -999.25 -999.25 87.4109 -999.25 -999.25 1.0280 0.8975 -999.25 6.5649 0.8804 0.8476 0.8804
2515.9000 17.5000 -999.25 -999.25 -999.25 -999.25 84.0955 -999.25 -999.25 1.0488 0.9020 -999.25 8.0877 0.8373 0.8210 0.8373
2516.1000 17.5000 -999.25 -999.25 -999.25 -999.25 87.8954 -999.25 -999.25 1.0265 0.9009 -999.25 9.9109 0.8063 0.8025 0.8063
