~Version Information
VERS.                     2.0: CWLS log ASCII Standard Version 2.00
WRAP.                      NO: One line per depth step

~Well Information Block
#MNEM.UNIT                 Value                       Information
#------------              -----                       -----------
STRT.M                    145.9000                    :START
STOP.M                   4684.9000                    :STOP
STEP.M                      0.1000                    :STEP
NULL.                     -999.25                     :NULL VALUE
COMP.         STATOIL PETROLEUM AS                    :Company
WELL.         15/9-F-15 D                             :Well
FLD .         VOLVE                                   :Field
LOC .                                                 :Location
PROV.                                                 :Province
CNTY.         MAERSK INSPIRER                         :County
STATE.                                                 :State
CTRY.         NORWAY                                  :Country
DATE.                                                 :Log Date
SRVC.                                                 :Service Company
UWI .                                                 :Unique Well Identifier
API .                                                 :API Number
LATI.         058 26' 29.706" N    DMS                :Latitude
LONG.         001 53' 15.149" E    DMS                :Longtitude
PD  .         MSL                                     :Permanent Datum
EDF .M                54.9000                         :Elevations D.F.
EGL .M               -91.0000                         :Elevations G.L.
ELZ .M                54.9000                         :Elev. Log Zero
LMF .         DF                                      :Log Measured From
MP  .         DF                                      :Drill Measured From

~Curve Information
#MNEM   .UNIT             API CODE Curve Description
#------------             -------- -----------------
DEPTH   .M            00 001 00 00:   0  Depth
BS      .inches       00 000 00 00:   5  BS:COMPOSITE:rC:NONE:v1
CALI    .inches       70 280 00 01:   6  CALI:COMPOSITE:rC:NONE:v1
DRHO    .g/cm3        45 356 01 01:   7  DRHO:COMPOSITE:rC:NONE:v1
GR      .API          30 150 01 01:   8  GR:COMPOSITE:rC:NONE:v1
NPHI    .v/v          42 890 01 01:  10  NPHI:COMPOSITE:rC:NONE:v1
PEF     .b/elec       45 358 01 01:  11  PEF:COMPOSITE:rC:NONE:v1
RACEHM  .ohm.m        95 220 00 01:  12  RACEHM:COMPOSITE:rC:NONE:v1
RACELM  .ohm.m        00 524 01 00:  13  RACELM:COMPOSITE:rC:NONE:v1
RD      .ohm.m        00 000 00 00:  14  RD:COMPOSITE:rC:NONE:v1
RHOB    .g/cm3        45 350 01 01:  15  RHOB:COMPOSITE:rC:NONE:v1
ROP     .m/hr         00 000 00 00:  17  ROP:COMPOSITE:rC:NONE:v1
RPCEHM  .ohm.m        00 000 00 00:  18  RPCEHM:COMPOSITE:rC:NONE:v1
RPCELM  .ohm.m        00 000 00 00:  19  RPCELM:COMPOSITE:rC:NONE:v1
RT      .ohm.m        00 000 00 00:  20  RT:COMPOSITE:rC:NONE:v1

~Parameter Information
#MNEM.UNIT       Value           Description
#------------    -----           -----------
RUN .         .                 :Run Number

~Other Information
# Subset of the Equinor Volve composite LAS (BinWang0213/Course-PETE4241_19SP_ProjectCode Data/Petrophysics): unused columns removed; data rows copied verbatim. Thinned to every 2nd depth sample (0.2 m) for web delivery.
PETROPHYSICAL INTERPRETATION: INPUT

# --- LOG MNEMONICS AND UNITS ---
#Depth          ABDCQF01        ABDCQF02        ABDCQF03        ABDCQF04        BS              CALI            DRHO            GR              NBGRCFM         NPHI            PEF             RACEHM          RACELM          RD              RHOB            RM              ROP             RPCEHM          RPCELM          RT             
#M              g/cm3           g/cm3           g/cm3           g/cm3           inches          inches          g/cm3           API             API             v/v             b/elec          ohm.m           ohm.m           ohm.m           g/cm3           ohm.m           m/hr            ohm.m           ohm.m           ohm.m          

~A
# ...
2664.9000 12.2500 -999.25 -999.25 53.1363 -999.25 -999.25 1.1734 0.9350 0.7992 -999.25 24.5695 0.7948 0.7992 0.8046
2665.1000 12.2500 -999.25 -999.25 46.6031 -999.25 -999.25 0.9422 0.9326 0.8681 -999.25 24.8268 0.8183 0.8681 0.8336
2665.3000 12.2500 -999.25 -999.25 40.2791 -999.25 -999.25 1.1365 0.9513 0.9132 -999.25 24.5515 0.9167 0.9132 0.9293
2665.5000 12.2500 -999.25 -999.25 34.7710 -999.25 -999.25 1.0757 0.9348 1.0755 -999.25 23.3366 1.2630 1.0755 1.3159
2665.7000 12.2500 -999.25 -999.25 36.5125 -999.25 -999.25 0.9746 0.9162 1.1593 -999.25 21.4313 1.6001 1.1593 1.6416
2665.9000 12.2500 -999.25 -999.25 45.7478 -999.25 -999.25 0.8532 0.8938 1.1965 -999.25 20.1854 1.6416 1.1965 1.4845
2666.1000 12.2500 -999.25 -999.25 56.2660 -999.25 -999.25 1.1065 0.9178 1.0042 -999.25 19.4170 1.2274 1.0043 1.1775
2666.3000 12.2500 -999.25 -999.25 60.9925 -999.25 -999.25 1.2086 0.9218 0.8489 -999.25 19.1482 0.8614 0.8489 0.8270
2666.5000 12.2500 -999.25 -999.25 64.5104 -999.25 -999.25 0.8920 0.8620 0.7872 -999.25 18.9255 0.7522 0.7872 0.7592
2666.7000 12.2500 -999.25 -999.25 65.9692 -999.25 -999.25 0.9001 0.8205 0.7245 -999.25 18.7700 0.7580 0.7245 0.7613
2666.9000 12.2500 -999.25 -999.25 65.7586 -999.25 -999.25 0.8254 0.7724 0.7110 -999.25 18.8335 0.7850 0.7110 0.7881
2667.1000 12.2500 -999.25 -999.25 68.2176 -999.25 -999.25 0.8080 0.7312 0.6826 -999.25 19.6843 0.7873 0.6826 0.7805
2667.3000 12.2500 -999.25 -999.25 71.8466 -999.25 -999.25 0.7663 0.6941 0.6641 -999.25 20.8705 0.7548 0.6641 0.7531
2667.5000 12.2500 -999.25 -999.25 75.3779 -999.25 -999.25 0.7070 0.6500 0.6549 -999.25 22.3782 0.7194 0.6549 0.7193
2667.7000 12.2500 -999.25 -999.25 71.4169 -999.25 -999.25 0.6940 0.6222 0.6390 -999.25 23.7146 0.7547 0.6390 0.7666
2667.9000 12.2500 -999.25 -999.25 64.0641 -999.25 -999.25 0.6379 0.5970 0.6318 -999.25 24.8975 0.8324 0.6318 0.8269
2668.1000 12.2500 -999.25 -999.25 54.6778 -999.25 -999.25 0.5730 0.5691 0.6168 -999.25 25.4549 0.8441 0.6168 0.8357
2668.3000 12.2500 -999.25 -999.25 48.8844 -999.25 -999.25 0.4936 0.5442 0.5917 -999.25 25.6786 0.7582 0.5917 0.7558
2668.5000 12.2500 -999.25 -999.25 44.8841 -999.25 -999.25 0.4473 0.5336 0.5409 -999.25 25.8201 0.5748 0.5409 0.5166
2668.7000 12.2500 -999.25 -999.25 51.2466 -999.25 -999.25 0.5713 0.5489 0.4904 -999.25 25.9116 0.4581 0.4904 0.5071
2668.9000 12.2500 -999.25 -999.25 60.4651 -999.25 -999.25 0.6470 0.5423 0.5506 -999.25 26.0011 0.7006 0.5506 0.7198
2669.1000 12.2500 -999.25 -999.25 61.0039 -999.25 -999.25 0.6084 0.5212 0.6014 -999.25 26.0288 0.7295 0.6014 0.7952
2669.3000 12.2500 -999.25 -999.25 56.0602 -999.25 -999.25 0.5236 0.5006 0.6279 -999.25 26.0086 0.9104 0.6279 0.8486
2669.5000 12.2500 -999.25 -999.25 44.5723 -999.25 -999.25 0.4783 0.4872 0.5764 -999.25 25.9653 0.6211 0.5764 0.5891
2669.7000 12.2500 -999.25 -999.25 39.3603 -999.25 -999.25 0.5042 0.4904 0.5189 -999.25 25.8576 0.5078 0.5189 0.5176
2669.9000 12.2500 -999.25 -999.25 35.5103 -999.25 -999.25 0.4527 0.4756 0.5061 -999.25 25.7082 0.5077 0.5061 0.5106
2670.1000 12.2500 -999.25 -999.25 31.8145 -999.25 -999.25 0.4593 0.4663 0.4892 -999.25 25.6522 0.5274 0.4892 0.5266
2670.3000 12.2500 -999.25 -999.25 33.8833 -999.25 -999.25 0.4607 0.4556 0.4628 -999.25 25.7440 0.4793 0.4628 0.4666
2670.5000 12.2500 -999.25 -999.25 37.2084 -999.25 -999.25 0.4042 0.4345 0.4481 -999.25 25.8299 0.4169 0.4481 0.4206
2670.7000 12.2500 -999.25 -999.25 46.4526 -999.25 -999.25 0.4264 0.4337 0.4389 -999.25 25.9084 0.4246 0.4389 0.4296
2670.9000 12.2500 -999.25 -999.25 55.9227 -999.25 -999.25 0.4401 0.4297 0.4499 -999.25 25.9505 0.4597 0.4499 0.4735
2671.1000 12.2500 -999.25 -999.25 62.1202 -999.25 -999.25 0.4556 0.4247 0.4676 -999.25 25.9852 0.5428 0.4676 0.5339
2671.3000 12.2500 -999.25 -999.25 49.9764 -999.25 -999.25 0.4262 0.4109 0.4794 -999.25 26.0107 0.5533 0.4795 0.5371
2671.5000 12.2500 -999.25 -999.25 40.5647 -999.25 -999.25 0.3737 0.4040 0.4158 -999.25 26.1015 0.3959 0.4158 0.4158
2671.7000 12.2500 -999.25 -999.25 36.2722 -999.25 -999.25 0.3412 0.3978 0.3783 -999.25 26.4383 0.3487 0.3783 0.3567
2671.9000 12.2500 -999.25 -999.25 34.8202 -999.25 -999.25 0.3517 0.3934 0.3720 -999.25 26.8394 0.3617 0.3720 0.3636
2672.1000 12.2500 -999.25 -999.25 35.4201 -999.25 -999.25 0.3783 0.3953 0.3798 -999.25 27.3580 0.3728 0.3798 0.3813
2672.3000 12.2500 -999.25 -999.25 35.8849 -999.25 -999.25 0.3919 0.4035 0.3891 -999.25 27.7558 0.3900 0.3891 0.3866
2672.5000 12.2500 -999.25 -999.25 36.4353 -999.25 -999.25 0.3853 0.4071 0.4012 -999.25 27.4879 0.3931 0.4012 0.3952
2672.7000 12.2500 -999.25 -999.25 39.2913 -999.25 -999.25 0.3912 0.4115 0.4104 -999.25 26.9701 0.4091 0.4104 0.4120
2672.9000 12.2500 -999.25 -999.25 38.5500 -999.25 -999.25 0.3979 0.4153 0.4191 -999.25 27.1912 0.4170 0.4191 0.4201
2673.1000 12.2500 -999.25 -999.25 39.6104 -999.25 -999.25 0.4019 0.4199 0.4261 -999.25 27.1033 0.4253 0.4261 0.4256
2673.3000 12.2500 -999.25 -999.25 39.5398 -999.25 -999.25 0.4054 0.4249 0.4316 -999.25 26.7545 0.4302 0.4316 0.4307
2673.5000 12.2500 -999.25 -999.25 35.1500 -999.25 -999.25 0.4185 0.4320 0.4379 -999.25 26.2885 0.4360 0.4379 0.4372
2673.7000 12.2500 -999.25 -999.25 34.2835 -999.25 -999.25 0.4251 0.4375 0.4440 -999.25 26.1098 0.4415 0.4440 0.4418
2673.9000 12.2500 -999.25 -999.25 36.0810 -999.25 -999.25 0.4270 0.4412 0.4480 -999.25 26.0818 0.4447 0.4480 0.4448
2674.1000 12.2500 -999.25 -999.25 38.6185 -999.25 -999.25 0.4322 0.4454 0.4519 -999.25 25.8419 0.4466 0.4519 0.4481
2674.3000 12.2500 -999.25 -999.25 38.0130 -999.25 -999.25 0.4380 0.4496 0.4554 -999.25 25.7061 0.4512 0.4554 0.4517
2674.5000 12.2500 -999.25 -999.25 36.8090 -999.25 -999.25 0.4465 0.4540 0.4588 -999.25 25.6292 0.4573 0.4588 0.4578
2674.7000 12.2500 -999.25 -999.25 35.5086 -999.25 -999.25 0.4489 0.4564 0.4621 -999.25 25.4848 0.4604 0.4621 0.4613
2674.9000 12.2500 -999.25 -999.25 36.9533 -999.25 -999.25 0.4522 0.4600 0.4651 -999.25 25.2195 0.4624 0.4651 0.4679
2675.1000 12.2500 -999.25 -999.25 36.9631 -999.25 -999.25 0.4548 0.4663 0.4698 -999.25 25.0816 0.4743 0.4698 0.4740
2675.3000 12.2500 -999.25 -999.25 37.5238 -999.25 -999.25 0.4582 0.4673 0.4717 -999.25 25.2082 0.4742 0.4717 0.4736
2675.5000 12.2500 -999.25 -999.25 38.9668 -999.25 -999.25 0.4588 0.4691 0.4726 -999.25 25.8304 0.4753 0.4726 0.4773
2675.7000 12.2500 -999.25 -999.25 38.5670 -999.25 -999.25 0.4608 0.4702 0.4751 -999.25 26.4368 0.4760 0.4751 0.4768
2675.9000 12.2500 -999.25 -999.25 37.3110 -999.25 -999.25 0.4619 0.4717 0.4765 -999.25 26.7036 0.4784 0.4765 0.4797
2676.1000 12.2500 -999.25 -999.25 37.6512 -999.25 -999.25 0.4659 0.4731 0.4785 -999.25 26.5327 0.4839 0.4785 0.4853
2676.3000 12.2500 -999.25 -999.25 37.5089 -999.25 -999.25 0.4700 0.4740 0.4828 -999.25 26.2250 0.4935 0.4828 0.4934
2676.5000 12.2500 -999.25 -999.25 38.4210 -999.25 -999.25 0.4716 0.4745 0.4849 -999.25 25.8843 0.4989 0.4849 0.4976
2676.7000 12.2500 -999.25 -999.25 38.2854 -999.25 -999.25 0.4688 0.4755 0.4878 -999.25 25.6412 0.5055 0.4878 0.5036
2676.9000 12.2500 -999.25 -999.25 38.7155 -999.25 -999.25 0.4774 0.4747 0.4974 -999.25 25.4842 0.5141 0.4974 0.5136
2677.1000 12.2500 -999.25 -999.25 40.2581 -999.25 -999.25 0.4850 0.4760 0.5017 -999.25 25.5547 0.5177 0.5017 0.5163
2677.3000 12.2500 -999.25 -999.25 39.0223 -999.25 -999.25 0.4919 0.4789 0.5025 -999.25 25.5724 0.5033 0.5025 0.5034
2677.5000 12.2500 -999.25 -999.25 36.6025 -999.25 -999.25 0.4860 0.4793 0.4989 -999.25 25.5670 0.4954 0.4989 0.4946
2677.7000 12.2500 -999.25 -999.25 36.5980 -999.25 -999.25 0.4734 0.4770 0.4898 -999.25 25.6919 0.4851 0.4898 0.4849
2677.9000 12.2500 -999.25 -999.25 36.7784 -999.25 -999.25 0.4661 0.4727 0.4834 -999.25 26.3308 0.4823 0.4834 0.4822
2678.1000 12.2500 -999.25 -999.25 38.0643 -999.25 -999.25 0.4561 0.4646 0.4750 -999.25 27.3685 0.4771 0.4750 0.4749
2678.3000 12.2500 -999.25 -999.25 37.7966 -999.25 -999.25 0.4547 0.4611 0.4720 -999.25 27.7014 0.4696 0.4720 0.4682
2678.5000 12.2500 -999.25 -999.25 34.1010 -999.25 -999.25 0.4515 0.4592 0.4709 -999.25 28.0934 0.4618 0.4709 0.4618
