~Version Information
VERS.                     2.0: CWLS log ASCII Standard Version 2.00
WRAP.                      NO: One line per depth step

~Well Information Block
#MNEM.UNIT                 Value                       Information
#------------              -----                       -----------
STRT.M                    145.9000                    :START
STOP.M                   4684.9000                    :STOP
STEP.M                      0.1000                    :STEP
NULL.                     -999.25                     :NULL VALUE
COMP.         STATOIL PETROLEUM AS                    :Company
WELL.         15/9-F-15 D                             :Well
FLD .         VOLVE                                   :Field
LOC .                                                 :Location
PROV.                                                 :Province
CNTY.         MAERSK INSPIRER                         :County
STATE.                                                 :State
CTRY.         NORWAY                                  :Country
DATE.                                                 :Log Date
SRVC.                                                 :Service Company
UWI .                                                 :Unique Well Identifier
API .                                                 :API Number
LATI.         058 26' 29.706" N    DMS                :Latitude
LONG.         001 53' 15.149" E    DMS                :Longtitude
PD  .         MSL                                     :Permanent Datum
EDF .M                54.9000                         :Elevations D.F.
EGL .M               -91.0000                         :Elevations G.L.
ELZ .M                54.9000                         :Elev. Log Zero
LMF .         DF                                      :Log Measured From
MP  .         DF                                      :Drill Measured From

~Curve Information
#MNEM   .UNIT             API CODE Curve Description
#------------             -------- -----------------
DEPTH   .M            00 001 00 00:   0  Depth
BS      .inches       00 000 00 00:   5  BS:COMPOSITE:rC:NONE:v1
CALI    .inches       70 280 00 01:   6  CALI:COMPOSITE:rC:NONE:v1
DRHO    .g/cm3        45 356 01 01:   7  DRHO:COMPOSITE:rC:NONE:v1
GR      .API          30 150 01 01:   8  GR:COMPOSITE:rC:NONE:v1
NPHI    .v/v          42 890 01 01:  10  NPHI:COMPOSITE:rC:NONE:v1
PEF     .b/elec       45 358 01 01:  11  PEF:COMPOSITE:rC:NONE:v1
RACEHM  .ohm.m        95 220 00 01:  12  RACEHM:COMPOSITE:rC:NONE:v1
RACELM  .ohm.m        00 524 01 00:  13  RACELM:COMPOSITE:rC:NONE:v1
RD      .ohm.m        00 000 00 00:  14  RD:COMPOSITE:rC:NONE:v1
RHOB    .g/cm3        45 350 01 01:  15  RHOB:COMPOSITE:rC:NONE:v1
ROP     .m/hr         00 000 00 00:  17  ROP:COMPOSITE:rC:NONE:v1
RPCEHM  .ohm.m        00 000 00 00:  18  RPCEHM:COMPOSITE:rC:NONE:v1
RPCELM  .ohm.m        00 000 00 00:  19  RPCELM:COMPOSITE:rC:NONE:v1
RT      .ohm.m        00 000 00 00:  20  RT:COMPOSITE:rC:NONE:v1

~Parameter Information
#MNEM.UNIT       Value           Description
#------------    -----           -----------
RUN .         .                 :Run Number

~Other Information
# Subset of the Equinor Volve composite LAS (BinWang0213/Course-PETE4241_19SP_ProjectCode Data/Petrophysics): unused columns removed; data rows copied verbatim. Thinned to every 2nd depth sample (0.2 m) for web delivery.
PETROPHYSICAL INTERPRETATION: INPUT

# --- LOG MNEMONICS AND UNITS ---
#Depth          ABDCQF01        ABDCQF02        ABDCQF03        ABDCQF04        BS              CALI            DRHO            GR              NBGRCFM         NPHI            PEF             RACEHM          RACELM          RD              RHOB            RM              ROP             RPCEHM          RPCELM          RT             
#M              g/cm3           g/cm3           g/cm3           g/cm3           inches          inches          g/cm3           API             API             v/v             b/elec          ohm.m           ohm.m           ohm.m           g/cm3           ohm.m           m/hr            ohm.m           ohm.m           ohm.m          

~A
# ...
4664.1000 8.5000 -999.25 -999.25 41.8118 -999.25 -999.25 1.7923 1.9360 1.6401 -999.25 31.1286 1.5375 1.6401 1.5660
4664.3000 8.5000 -999.25 -999.25 46.3151 -999.25 -999.25 1.8506 1.9995 1.7379 -999.25 31.1171 1.6691 1.7379 1.6530
4664.5000 8.5000 -999.25 -999.25 60.8028 -999.25 -999.25 1.9653 2.1013 1.7952 -999.25 31.1139 1.6791 1.7951 1.6881
4664.7000 8.5000 -999.25 -999.25 77.8707 -999.25 -999.25 2.1230 2.1701 1.8574 -999.25 31.1181 1.7578 1.8573 1.7881
4664.9000 8.5000 -999.25 -999.25 81.0304 -999.25 -999.25 2.1734 2.1890 2.2182 -999.25 31.1281 2.5132 2.2181 2.7404
4665.1000 8.5000 -999.25 -999.25 81.9015 -999.25 -999.25 2.4288 2.2435 2.5522 -999.25 31.1341 3.3564 2.5522 3.3558
4665.3000 8.5000 -999.25 -999.25 83.9283 -999.25 -999.25 2.6758 2.3348 2.6194 -999.25 31.1375 3.3173 2.6194 3.3502
4665.5000 8.5000 -999.25 -999.25 84.1878 -999.25 -999.25 2.6213 2.3927 2.7919 -999.25 31.1407 3.7866 2.7918 3.7286
4665.7000 8.5000 -999.25 -999.25 85.8327 -999.25 -999.25 2.7199 2.4606 2.9212 -999.25 31.1505 3.9904 2.9211 3.9727
4665.9000 8.5000 -999.25 -999.25 85.2530 -999.25 -999.25 2.9365 2.5314 3.0261 -999.25 31.1582 3.9510 3.0261 3.9943
4666.1000 8.5000 -999.25 -999.25 88.3662 -999.25 -999.25 2.9918 2.5895 3.1607 -999.25 31.1617 4.1614 3.1606 4.2074
4666.3000 8.5000 -999.25 -999.25 88.9736 -999.25 -999.25 2.9936 2.6309 3.2601 -999.25 31.1593 4.3961 3.2600 4.4770
4666.5000 8.5000 -999.25 -999.25 89.2068 -999.25 -999.25 3.1725 2.7624 3.5100 -999.25 31.1547 4.6271 3.5100 4.6118
4666.7000 8.5000 -999.25 -999.25 87.7737 -999.25 -999.25 3.2145 2.8073 3.5125 -999.25 31.1459 4.5761 3.5125 4.5615
4666.9000 8.5000 -999.25 -999.25 89.8771 -999.25 -999.25 3.3081 2.8581 3.5473 -999.25 31.1333 4.5527 3.5473 4.5717
4667.1000 8.5000 -999.25 -999.25 92.5906 -999.25 -999.25 3.3631 2.9528 3.6327 -999.25 31.1213 4.6404 3.6327 4.6464
4667.3000 8.5000 -999.25 -999.25 89.6237 -999.25 -999.25 3.3672 3.0029 3.7020 -999.25 31.1143 4.7289 3.7020 4.7316
4667.5000 8.5000 -999.25 -999.25 91.3735 -999.25 -999.25 3.4179 3.0958 3.7468 -999.25 31.1142 4.7016 3.7467 4.6283
4667.7000 8.5000 -999.25 -999.25 91.6378 -999.25 -999.25 3.6457 3.3317 3.7580 -999.25 31.1169 4.3737 3.7580 4.3993
4667.9000 8.5000 -999.25 -999.25 88.7059 -999.25 -999.25 3.6496 3.4313 3.8273 -999.25 31.1203 4.3033 3.8273 4.3235
4668.1000 8.5000 -999.25 -999.25 85.9218 -999.25 -999.25 3.6049 3.5293 3.8920 -999.25 31.1275 4.3442 3.8920 4.2488
4668.3000 8.5000 -999.25 -999.25 86.1461 -999.25 -999.25 3.8989 3.7192 3.7779 -999.25 31.1349 3.8775 3.7779 3.9400
4668.5000 8.5000 -999.25 -999.25 88.5265 -999.25 -999.25 3.9355 3.8101 3.8363 -999.25 31.1258 3.8931 3.8363 3.9269
4668.7000 8.5000 -999.25 -999.25 87.1621 -999.25 -999.25 3.9362 3.8582 4.0325 -999.25 31.1139 4.2343 4.0325 4.2400
4668.9000 8.5000 -999.25 -999.25 86.8484 -999.25 -999.25 4.1918 3.9790 4.2987 -999.25 31.0978 4.7373 4.2987 4.7741
4669.1000 8.5000 -999.25 -999.25 86.8134 -999.25 -999.25 4.4765 4.0845 4.4587 -999.25 31.0896 4.8038 4.4587 4.8009
4669.3000 8.5000 -999.25 -999.25 92.4274 -999.25 -999.25 4.6177 4.1662 4.5137 -999.25 31.0814 4.7547 4.5136 4.9159
4669.5000 8.5000 -999.25 -999.25 94.4310 -999.25 -999.25 4.6465 4.2316 4.9000 -999.25 31.0780 5.5119 4.8999 5.4860
4669.7000 8.5000 -999.25 -999.25 92.9994 -999.25 -999.25 4.9630 4.3580 5.0740 -999.25 31.0799 5.6513 5.0740 5.6593
4669.9000 8.5000 -999.25 -999.25 93.4215 -999.25 -999.25 5.1235 4.4447 5.1603 -999.25 31.0878 5.6991 5.1603 5.7513
4670.1000 8.5000 -999.25 -999.25 95.6505 -999.25 -999.25 5.1695 4.5131 5.3707 -999.25 31.0980 6.0418 5.3707 6.1080
4670.3000 8.5000 -999.25 -999.25 97.2914 -999.25 -999.25 5.2087 4.5547 5.5732 -999.25 31.1047 6.4355 5.5732 6.4497
4670.5000 8.5000 -999.25 -999.25 92.6921 -999.25 -999.25 5.1981 4.5738 5.6683 -999.25 31.0967 6.7080 5.6683 6.7262
4670.7000 8.5000 -999.25 -999.25 90.4959 -999.25 -999.25 5.1976 4.5947 5.7423 -999.25 31.0795 6.7665 5.7423 6.7575
4670.9000 8.5000 -999.25 -999.25 86.9146 -999.25 -999.25 5.2202 4.6195 5.7134 -999.25 31.0725 6.7175 5.7134 6.7074
4671.1000 8.5000 -999.25 -999.25 87.5104 -999.25 -999.25 5.2769 4.6192 5.6678 -999.25 31.0940 6.5893 5.6678 6.5695
4671.3000 8.5000 -999.25 -999.25 92.9730 -999.25 -999.25 5.3288 4.6347 5.6168 -999.25 31.1236 6.4386 5.6168 6.4039
4671.5000 8.5000 -999.25 -999.25 95.8421 -999.25 -999.25 5.3612 4.6693 5.5236 -999.25 31.1327 6.2689 5.5236 6.2776
4671.7000 8.5000 -999.25 -999.25 95.3937 -999.25 -999.25 5.2773 4.6416 5.5182 -999.25 31.1374 6.2391 5.5182 6.2343
4671.9000 8.5000 -999.25 -999.25 96.9155 -999.25 -999.25 5.3101 4.6336 5.5182 -999.25 31.1451 6.1965 5.5182 6.2149
4672.1000 8.5000 -999.25 -999.25 98.6045 -999.25 -999.25 5.2673 4.6355 5.5128 -999.25 31.1509 6.1784 5.5128 6.1696
4672.3000 8.5000 -999.25 -999.25 97.2181 -999.25 -999.25 5.2327 4.6474 5.4805 -999.25 31.1541 6.1317 5.4805 6.1337
4672.5000 8.5000 -999.25 -999.25 96.6845 -999.25 -999.25 5.1492 4.5993 5.4749 -999.25 31.1596 6.1339 5.4749 6.1180
4672.7000 8.5000 -999.25 -999.25 98.5499 -999.25 -999.25 5.0237 4.5646 5.3722 -999.25 31.1694 6.0054 5.3722 5.9354
4672.9000 8.5000 -999.25 -999.25 97.1935 -999.25 -999.25 4.9114 4.5180 5.2230 -999.25 31.1742 5.7817 5.2230 5.7684
4673.1000 8.5000 -999.25 -999.25 93.2974 -999.25 -999.25 4.7940 4.4827 5.1351 -999.25 31.1774 5.6527 5.1351 5.6177
4673.3000 8.5000 -999.25 -999.25 94.8550 -999.25 -999.25 4.6195 4.4367 4.9315 -999.25 31.1799 5.3422 4.9315 5.2950
4673.5000 8.5000 -999.25 -999.25 95.1846 -999.25 -999.25 4.4886 4.3479 4.6870 -999.25 31.1762 5.0426 4.6871 5.0098
4673.7000 8.5000 -999.25 -999.25 95.8623 -999.25 -999.25 4.3517 4.2854 4.4851 -999.25 31.1661 4.7164 4.4852 4.6853
4673.9000 8.5000 -999.25 -999.25 96.0671 -999.25 -999.25 4.1938 4.2404 4.3547 -999.25 31.1519 4.5634 4.3547 4.5465
4674.1000 8.5000 -999.25 -999.25 96.4772 -999.25 -999.25 3.9353 4.1050 4.1323 -999.25 31.1384 4.3517 4.1323 4.3696
4674.3000 8.5000 -999.25 -999.25 98.4363 -999.25 -999.25 3.7913 3.9942 4.0027 -999.25 31.1249 4.2732 4.0027 4.2625
4674.5000 8.5000 -999.25 -999.25 96.7954 -999.25 -999.25 3.6410 3.9286 3.8431 -999.25 31.1292 4.0953 3.8432 4.1380
4674.7000 8.5000 -999.25 -999.25 95.9754 -999.25 -999.25 3.5086 3.7910 3.7322 -999.25 31.1326 4.0661 3.7322 4.0570
4674.9000 8.5000 -999.25 -999.25 93.5076 -999.25 -999.25 3.4235 3.6980 3.6243 -999.25 31.1368 3.9779 3.6250 -999.25
4675.1000 8.5000 -999.25 -999.25 97.9994 -999.25 -999.25 -999.25 -999.25 -999.25 -999.25 31.1463 -999.25 -999.25 -999.25
4675.3000 8.5000 -999.25 -999.25 98.8151 -999.25 -999.25 -999.25 -999.25 -999.25 -999.25 31.1490 -999.25 -999.25 -999.25
4675.5000 8.5000 -999.25 -999.25 98.2559 -999.25 -999.25 -999.25 -999.25 -999.25 -999.25 31.1439 -999.25 -999.25 -999.25
4675.7000 8.5000 -999.25 -999.25 99.4769 -999.25 -999.25 -999.25 -999.25 -999.25 -999.25 31.1286 -999.25 -999.25 -999.25
4675.9000 8.5000 -999.25 -999.25 95.2380 -999.25 -999.25 -999.25 -999.25 -999.25 -999.25 31.1183 -999.25 -999.25 -999.25
4676.1000 8.5000 -999.25 -999.25 93.9151 -999.25 -999.25 -999.25 -999.25 -999.25 -999.25 31.1097 -999.25 -999.25 -999.25
4676.3000 8.5000 -999.25 -999.25 96.5062 -999.25 -999.25 -999.25 -999.25 -999.25 -999.25 31.0937 -999.25 -999.25 -999.25
4676.5000 8.5000 -999.25 -999.25 92.7760 -999.25 -999.25 -999.25 -999.25 -999.25 -999.25 30.6443 -999.25 -999.25 -999.25
4676.7000 8.5000 -999.25 -999.25 92.2896 -999.25 -999.25 -999.25 -999.25 -999.25 -999.25 30.1450 -999.25 -999.25 -999.25
4676.9000 8.5000 -999.25 -999.25 92.2367 -999.25 -999.25 -999.25 -999.25 -999.25 -999.25 30.0681 -999.25 -999.25 -999.25
4677.1000 8.5000 -999.25 -999.25 94.4556 -999.25 -999.25 -999.25 -999.25 -999.25 -999.25 30.0521 -999.25 -999.25 -999.25
4677.3000 8.5000 -999.25 -999.25 93.9744 -999.25 -999.25 -999.25 -999.25 -999.25 -999.25 30.0608 -999.25 -999.25 -999.25
4677.5000 8.5000 -999.25 -999.25 93.9422 -999.25 -999.25 -999.25 -999.25 -999.25 -999.25 30.1835 -999.25 -999.25 -999.25
4677.7000 8.5000 -999.25 -999.25 94.7599 -999.25 -999.25 -999.25 -999.25 -999.25 -999.25 30.3524 -999.25 -999.25 -999.25
