~Version Information
VERS.                     2.0: CWLS log ASCII Standard Version 2.00
WRAP.                      NO: One line per depth step

~Well Information Block
#MNEM.UNIT                 Value                       Information
#------------              -----                       -----------
STRT.M                    145.9000                    :START
STOP.M                   3681.9000                    :STOP
STEP.M                      0.1000                    :STEP
NULL.                     -999.25                     :NULL VALUE
COMP.         Statoil Petroleum AS                    :Company
WELL.         15/9-F-1 A                              :Well
FLD .         VOLVE                                   :Field
LOC .         Maersk Inspirer                         :Location
PROV.                                                 :Province
CNTY.         Unused                                  :County
STATE.                                                 :State
CTRY.                                                 :Country
DATE.                                                 :Log Date
SRVC.                                                 :Service Company
UWI .         1A                                     :Unique Well Identifier
API .                                                 :API Number
LATI.         058 26' 29.907" N    DMS                :Latitude
LONG.         001 53' 14.708" E    DMS                :Longtitude
PD  .         MSL                                     :Permanent Datum
ELZ .M                 0.0000                         :Elev. Log Zero

~Curve Information
#MNEM   .UNIT             API CODE Curve Description
#------------             -------- -----------------
DEPTH   .M            00 001 00 00:   0  Depth
BS      .inches       00 000 00 00:   5  BS:COMPOSITE:rC:NONE:v1
CALI    .inches       70 280 00 01:   6  CALI:COMPOSITE:rC:0001:v1
DRHO    .g/cm3        45 356 01 01:   7  DRHO:COMPOSITE:rC:0001:v1
DT      .us/ft        60 520 32 01:   8  DT:COMPOSITE:rC:0001:v1
DTS     .us/ft        00 000 00 00:   9  DTS:COMPOSITE:rC:0001:v1
GR      .API          30 150 01 01:  10  GR:COMPOSITE:rC:0001:v1
NPHI    .v/v          42 890 01 01:  11  NPHI:COMPOSITE:rC:0001:v1
PEF     .b/elec       45 358 01 01:  12  PEF:COMPOSITE:rC:0001:v1
RACEHM  .UNKNOWN      95 220 00 01:  13  RACEHM:COMPOSITE:rC:0001:v1
RACELM  .UNKNOWN      00 524 01 00:  14  RACELM:COMPOSITE:rC:0001:v1
RHOB    .g/cm3        45 350 01 01:  15  RHOB:COMPOSITE:rC:0001:v1
ROP     .m/hr         00 000 00 00:  16  ROP:COMPOSITE:rC:0001:v1
RPCEHM  .UNKNOWN      00 000 00 00:  17  RPCEHM:COMPOSITE:rC:0001:v1
RPCELM  .UNKNOWN      00 000 00 00:  18  RPCELM:COMPOSITE:rC:0001:v1
RT      .ohm.m        00 000 00 00:  19  RT:COMPOSITE:rC:0001:v1

~Parameter Information
#MNEM.UNIT       Value           Description
#------------    -----           -----------
HLD .         Terms and Conditions.:Header Legal Disclaimer
RUN .         1                 :Run number

~Other Information
# Subset of the Equinor Volve composite LAS (andymcdgeo/Petrophysics-Python-Series Data/Volve): unused columns removed; data rows copied verbatim. Thinned to every 2nd depth sample (0.2 m) for web delivery.
PETROPHYSICAL INTERPRETATION: INPUT

# --- LOG MNEMONICS AND UNITS ---
#Depth          ABDCQF01        ABDCQF02        ABDCQF03        ABDCQF04        BS              CALI            DRHO            DT              DTS             GR              NPHI            PEF             RACEHM          RACELM          RHOB            ROP             RPCEHM          RPCELM          RT             
#M              g/cm3           g/cm3           g/cm3           g/cm3           inches          inches          g/cm3           us/ft           us/ft           API             v/v             b/elec          UNKNOWN         UNKNOWN         g/cm3           m/hr            UNKNOWN         UNKNOWN         ohm.m          

~A
# ...
1399.7000 17.5000 -999.25 -999.25 -999.25 -999.25 85.0926 -999.25 -999.25 1.1833 1.2026 -999.25 31.7844 1.0649 1.1035 1.0649
1399.9000 17.5000 -999.25 -999.25 -999.25 -999.25 85.2969 -999.25 -999.25 1.1960 1.1847 -999.25 31.6247 1.1696 1.1455 1.1696
1400.1000 17.5000 -999.25 -999.25 -999.25 -999.25 86.4451 -999.25 -999.25 1.2101 1.1812 -999.25 31.4651 1.1853 1.1616 1.1853
1400.3000 17.5000 -999.25 -999.25 -999.25 -999.25 85.6129 -999.25 -999.25 1.2130 1.1759 -999.25 31.3321 1.1767 1.1616 1.1767
1400.5000 17.5000 -999.25 -999.25 -999.25 -999.25 80.5435 -999.25 -999.25 1.2112 1.1635 -999.25 31.2566 1.1668 1.1589 1.1668
1400.7000 17.5000 -999.25 -999.25 -999.25 -999.25 83.1448 -999.25 -999.25 1.2063 1.1439 -999.25 31.2382 1.1938 1.1566 1.1938
1400.9000 17.5000 -999.25 -999.25 -999.25 -999.25 81.7152 -999.25 -999.25 1.1342 1.1152 -999.25 31.2198 1.2614 1.1465 1.2614
1401.1000 17.5000 -999.25 -999.25 -999.25 -999.25 88.4700 -999.25 -999.25 1.1228 1.1084 -999.25 31.2014 1.0283 1.0511 1.0283
1401.3000 17.5000 -999.25 -999.25 -999.25 -999.25 93.6076 -999.25 -999.25 1.0550 1.0844 -999.25 31.1782 0.9574 0.9916 0.9574
1401.5000 17.5000 -999.25 -999.25 -999.25 -999.25 92.2377 -999.25 -999.25 1.0414 1.0693 -999.25 27.8319 0.9483 0.9751 0.9483
1401.7000 17.5000 -999.25 -999.25 -999.25 -999.25 93.0476 -999.25 -999.25 1.0394 1.0651 -999.25 24.0778 0.9220 0.9554 0.9220
1401.9000 17.5000 -999.25 -999.25 -999.25 -999.25 98.6076 -999.25 -999.25 1.0204 1.0644 -999.25 19.9202 0.9153 0.9516 0.9153
1402.1000 17.5000 -999.25 -999.25 -999.25 -999.25 96.9535 -999.25 -999.25 1.0098 1.0659 -999.25 17.2026 0.9116 0.9506 0.9116
1402.3000 17.5000 -999.25 -999.25 -999.25 -999.25 95.4309 -999.25 -999.25 1.0173 1.0799 -999.25 15.6598 0.9213 0.9619 0.9213
1402.5000 17.5000 -999.25 -999.25 -999.25 -999.25 94.4691 -999.25 -999.25 1.0514 1.1041 -999.25 15.2915 0.9251 0.9879 0.9251
1402.7000 17.5000 -999.25 -999.25 -999.25 -999.25 88.4839 -999.25 -999.25 1.1246 1.1301 -999.25 19.3922 1.0145 1.0554 1.0145
1402.9000 17.5000 -999.25 -999.25 -999.25 -999.25 87.7366 -999.25 -999.25 1.1818 1.1478 -999.25 23.6372 1.1975 1.1501 1.1975
1403.1000 17.5000 -999.25 -999.25 -999.25 -999.25 90.7841 -999.25 -999.25 1.2337 1.1793 -999.25 28.0253 1.2389 1.1905 1.2389
1403.3000 17.5000 -999.25 -999.25 -999.25 -999.25 94.4043 -999.25 -999.25 1.2462 1.2004 -999.25 32.1264 1.2296 1.2000 1.2296
1403.5000 17.5000 -999.25 -999.25 -999.25 -999.25 109.8376 -999.25 -999.25 1.2425 1.2213 -999.25 34.4025 1.1813 1.1840 1.1813
1403.7000 17.5000 -999.25 -999.25 -999.25 -999.25 106.5421 -999.25 -999.25 1.2340 1.2402 -999.25 34.8635 1.1386 1.1643 1.1386
1403.9000 17.5000 -999.25 -999.25 -999.25 -999.25 99.0963 -999.25 -999.25 1.2234 1.2539 -999.25 34.8647 1.1254 1.1584 1.1254
1404.1000 17.5000 -999.25 -999.25 -999.25 -999.25 97.3258 -999.25 -999.25 1.2469 1.2762 -999.25 34.8660 1.1189 1.1752 1.1189
1404.3000 17.5000 -999.25 -999.25 -999.25 -999.25 95.0135 -999.25 -999.25 1.2934 1.2878 -999.25 34.8672 1.2550 1.2427 1.2550
1404.5000 17.5000 -999.25 -999.25 -999.25 -999.25 93.1885 -999.25 -999.25 1.3244 1.2915 -999.25 34.8127 1.3011 1.2683 1.3011
1404.7000 17.5000 -999.25 -999.25 -999.25 -999.25 94.6753 -999.25 -999.25 1.3279 1.2950 -999.25 34.7902 1.3004 1.2788 1.3004
1404.9000 17.5000 -999.25 -999.25 -999.25 -999.25 90.5389 -999.25 -999.25 1.3153 1.2902 -999.25 34.7995 1.2949 1.2825 1.2949
1405.1000 17.5000 -999.25 -999.25 -999.25 -999.25 86.6564 -999.25 -999.25 1.3196 1.2809 -999.25 34.8006 1.3055 1.2879 1.3055
1405.3000 17.5000 -999.25 -999.25 -999.25 -999.25 88.2594 -999.25 -999.25 1.3338 1.2513 -999.25 34.8086 1.4302 1.3246 1.4302
1405.5000 17.5000 -999.25 -999.25 -999.25 -999.25 79.1953 -999.25 -999.25 1.2708 1.2089 -999.25 34.8194 1.6811 1.3459 1.6811
1405.7000 17.5000 -999.25 -999.25 -999.25 -999.25 92.4228 -999.25 -999.25 1.2474 1.1986 -999.25 32.0746 1.2748 1.2220 1.2748
1405.9000 17.5000 -999.25 -999.25 -999.25 -999.25 104.1228 -999.25 -999.25 1.1407 1.1744 -999.25 30.1546 1.0465 1.0914 1.0465
1406.1000 17.5000 -999.25 -999.25 -999.25 -999.25 98.0138 -999.25 -999.25 1.0711 1.1460 -999.25 29.0558 0.9226 1.0045 0.9226
1406.3000 17.5000 -999.25 -999.25 -999.25 -999.25 103.3143 -999.25 -999.25 1.0563 1.1150 -999.25 28.7351 0.9759 1.0090 0.9759
1406.5000 17.5000 -999.25 -999.25 -999.25 -999.25 99.2506 -999.25 -999.25 1.0685 1.1064 -999.25 29.0887 1.0168 1.0197 1.0168
1406.7000 17.5000 -999.25 -999.25 -999.25 -999.25 101.7146 -999.25 -999.25 1.0879 1.1001 -999.25 30.1126 0.9883 1.0172 0.9883
1406.9000 17.5000 -999.25 -999.25 -999.25 -999.25 102.3144 -999.25 -999.25 1.1096 1.0997 -999.25 31.3490 1.0154 1.0321 1.0154
1407.1000 17.5000 -999.25 -999.25 -999.25 -999.25 92.8778 -999.25 -999.25 1.0789 1.0913 -999.25 32.5783 1.0420 1.0388 1.0420
1407.3000 17.5000 -999.25 -999.25 -999.25 -999.25 89.2717 -999.25 -999.25 1.0677 1.0950 -999.25 33.7998 1.0191 1.0237 1.0191
1407.5000 17.5000 -999.25 -999.25 -999.25 -999.25 100.6454 -999.25 -999.25 1.0790 1.1049 -999.25 34.5134 1.0130 1.0262 1.0130
1407.7000 17.5000 -999.25 -999.25 -999.25 -999.25 102.1584 -999.25 -999.25 1.1100 1.1268 -999.25 34.8698 1.0101 1.0380 1.0101
1407.9000 17.5000 -999.25 -999.25 -999.25 -999.25 109.0750 -999.25 -999.25 1.1334 1.1369 -999.25 34.8710 1.0643 1.0772 1.0643
1408.1000 17.5000 -999.25 -999.25 -999.25 -999.25 108.0079 -999.25 -999.25 1.1519 1.1556 -999.25 34.8723 1.1303 1.1117 1.1303
1408.3000 17.5000 -999.25 -999.25 -999.25 -999.25 105.0883 -999.25 -999.25 1.2118 1.1964 -999.25 34.8781 1.1012 1.1304 1.1012
1408.5000 17.5000 -999.25 -999.25 -999.25 -999.25 103.8357 -999.25 -999.25 1.2557 1.2282 -999.25 34.8883 1.2151 1.1921 1.2151
1408.7000 17.5000 -999.25 -999.25 -999.25 -999.25 95.3573 -999.25 -999.25 1.2852 1.2574 -999.25 34.8894 1.2976 1.2528 1.2976
1408.9000 17.5000 -999.25 -999.25 -999.25 -999.25 95.2192 -999.25 -999.25 1.3175 1.2828 -999.25 34.8950 1.2670 1.2590 1.2670
1409.1000 17.5000 -999.25 -999.25 -999.25 -999.25 107.8926 -999.25 -999.25 1.3232 1.3005 -999.25 34.9051 1.2623 1.2746 1.2623
1409.3000 17.5000 -999.25 -999.25 -999.25 -999.25 108.2579 -999.25 -999.25 1.3352 1.3156 -999.25 34.9064 1.3081 1.2932 1.3081
1409.5000 17.5000 -999.25 -999.25 -999.25 -999.25 107.4858 -999.25 -999.25 1.3513 1.3284 -999.25 34.9362 1.3206 1.3019 1.3206
1409.7000 17.5000 -999.25 -999.25 -999.25 -999.25 101.5411 -999.25 -999.25 1.3444 1.3366 -999.25 34.9942 1.2950 1.2905 1.2950
1409.9000 17.5000 -999.25 -999.25 -999.25 -999.25 114.1451 -999.25 -999.25 1.3463 1.3505 -999.25 34.9723 1.2547 1.2770 1.2547
1410.1000 17.5000 -999.25 -999.25 -999.25 -999.25 114.9384 -999.25 -999.25 1.3427 1.3556 -999.25 34.9213 1.2842 1.2900 1.2842
1410.3000 17.5000 -999.25 -999.25 -999.25 -999.25 103.5409 -999.25 -999.25 1.3546 1.3669 -999.25 34.8415 1.2757 1.2863 1.2757
1410.5000 17.5000 -999.25 -999.25 -999.25 -999.25 100.1774 -999.25 -999.25 1.3602 1.3689 -999.25 34.8257 1.2914 1.2927 1.2914
1410.7000 17.5000 -999.25 -999.25 -999.25 -999.25 94.3215 -999.25 -999.25 1.3643 1.3666 -999.25 34.8224 1.3117 1.3057 1.3117
1410.9000 17.5000 -999.25 -999.25 -999.25 -999.25 89.6534 -999.25 -999.25 1.3756 1.3734 -999.25 34.8314 1.3270 1.3173 1.3270
1411.1000 17.5000 -999.25 -999.25 -999.25 -999.25 89.9402 -999.25 -999.25 1.3792 1.3746 -999.25 34.8326 1.3462 1.3307 1.3462
1411.3000 17.5000 -999.25 -999.25 -999.25 -999.25 93.1209 -999.25 -999.25 1.3793 1.3777 -999.25 34.7224 1.3438 1.3285 1.3438
1411.5000 17.5000 -999.25 -999.25 -999.25 -999.25 96.6793 -999.25 -999.25 1.3707 1.3759 -999.25 34.5015 1.3137 1.3151 1.3137
1411.7000 17.5000 -999.25 -999.25 -999.25 -999.25 98.8036 -999.25 -999.25 1.3613 1.3688 -999.25 34.5110 1.3119 1.3123 1.3119
1411.9000 17.5000 -999.25 -999.25 -999.25 -999.25 96.7225 -999.25 -999.25 1.3645 1.3596 -999.25 34.6326 1.3218 1.3129 1.3218
1412.1000 17.5000 -999.25 -999.25 -999.25 -999.25 93.8326 -999.25 -999.25 1.3580 1.3482 -999.25 34.8654 1.3345 1.3101 1.3345
1412.3000 17.5000 -999.25 -999.25 -999.25 -999.25 93.9128 -999.25 -999.25 1.3429 1.3302 -999.25 34.8666 1.2980 1.2825 1.2980
