~Version Information
VERS.                     2.0: CWLS log ASCII Standard Version 2.00
WRAP.                      NO: One line per depth step

~Well Information Block
#MNEM.UNIT                 Value                       Information
#------------              -----                       -----------
STRT.M                    145.9000                    :START
STOP.M                   3681.9000                    :STOP
STEP.M                      0.1000                    :STEP
NULL.                     -999.25                     :NULL VALUE
COMP.         Statoil Petroleum AS                    :Company
WELL.         15/9-F-1 A                              :Well
FLD .         VOLVE                                   :Field
LOC .         Maersk Inspirer                         :Location
PROV.                                                 :Province
CNTY.         Unused                                  :County
STATE.                                                 :State
CTRY.                                                 :Country
DATE.                                                 :Log Date
SRVC.                                                 :Service Company
UWI .         1A                                     :Unique Well Identifier
API .                                                 :API Number
LATI.         058 26' 29.907" N    DMS                :Latitude
LONG.         001 53' 14.708" E    DMS                :Longtitude
PD  .         MSL                                     :Permanent Datum
ELZ .M                 0.0000                         :Elev. Log Zero

~Curve Information
#MNEM   .UNIT             API CODE Curve Description
#------------             -------- -----------------
DEPTH   .M            00 001 00 00:   0  Depth
BS      .inches       00 000 00 00:   5  BS:COMPOSITE:rC:NONE:v1
CALI    .inches       70 280 00 01:   6  CALI:COMPOSITE:rC:0001:v1
DRHO    .g/cm3        45 356 01 01:   7  DRHO:COMPOSITE:rC:0001:v1
DT      .us/ft        60 520 32 01:   8  DT:COMPOSITE:rC:0001:v1
DTS     .us/ft        00 000 00 00:   9  DTS:COMPOSITE:rC:0001:v1
GR      .API          30 150 01 01:  10  GR:COMPOSITE:rC:0001:v1
NPHI    .v/v          42 890 01 01:  11  NPHI:COMPOSITE:rC:0001:v1
PEF     .b/elec       45 358 01 01:  12  PEF:COMPOSITE:rC:0001:v1
RACEHM  .UNKNOWN      95 220 00 01:  13  RACEHM:COMPOSITE:rC:0001:v1
RACELM  .UNKNOWN      00 524 01 00:  14  RACELM:COMPOSITE:rC:0001:v1
RHOB    .g/cm3        45 350 01 01:  15  RHOB:COMPOSITE:rC:0001:v1
ROP     .m/hr         00 000 00 00:  16  ROP:COMPOSITE:rC:0001:v1
RPCEHM  .UNKNOWN      00 000 00 00:  17  RPCEHM:COMPOSITE:rC:0001:v1
RPCELM  .UNKNOWN      00 000 00 00:  18  RPCELM:COMPOSITE:rC:0001:v1
RT      .ohm.m        00 000 00 00:  19  RT:COMPOSITE:rC:0001:v1

~Parameter Information
#MNEM.UNIT       Value           Description
#------------    -----           -----------
HLD .         Terms and Conditions.:Header Legal Disclaimer
RUN .         1                 :Run number

~Other Information
# Subset of the Equinor Volve composite LAS (andymcdgeo/Petrophysics-Python-Series Data/Volve): unused columns removed; data rows copied verbatim. Thinned to every 2nd depth sample (0.2 m) for web delivery.
PETROPHYSICAL INTERPRETATION: INPUT

# --- LOG MNEMONICS AND UNITS ---
#Depth          ABDCQF01        ABDCQF02        ABDCQF03        ABDCQF04        BS              CALI            DRHO            DT              DTS             GR              NPHI            PEF             RACEHM          RACELM          RHOB            ROP             RPCEHM          RPCELM          RT             
#M              g/cm3           g/cm3           g/cm3           g/cm3           inches          inches          g/cm3           us/ft           us/ft           API             v/v             b/elec          UNKNOWN         UNKNOWN         g/cm3           m/hr            UNKNOWN         UNKNOWN         ohm.m          

~A
# ...
3198.9000 8.5000 8.6250 0.0459 74.1297 138.5574 44.8742 0.1236 7.5487 2.4240 2.3627 2.5704 26.6362 2.5744 2.4435 2.5744
3199.1000 8.5000 8.6250 0.0484 73.7155 137.7399 42.4990 0.1245 7.5096 2.4628 2.4048 2.5764 26.4632 2.6323 2.4810 2.6323
3199.3000 8.5000 8.6250 0.0481 73.3895 137.8394 41.3937 0.1229 7.4972 2.5070 2.4144 2.5712 26.4466 2.6669 2.5077 2.6669
3199.5000 8.5000 8.6250 0.0442 73.1477 138.4834 37.9878 0.1223 7.3837 2.5324 2.4229 2.5671 26.5850 2.8722 2.5986 2.8722
3199.7000 8.5000 8.6250 0.0430 73.2177 138.1688 36.0699 0.1257 7.3005 2.5379 2.4539 2.5702 26.5975 3.0890 2.7220 3.0890
3199.9000 8.5000 8.6250 0.0441 73.3128 138.5879 33.7856 0.1283 7.2653 2.5874 2.4743 2.5756 26.6085 3.1622 2.7840 3.1622
3200.1000 8.5000 8.6250 0.0447 73.4303 139.5932 34.4535 0.1281 7.3477 2.6600 2.5165 2.5768 26.6182 3.1814 2.8119 3.1814
3200.3000 8.5000 8.6250 0.0408 73.6123 139.9117 33.8851 0.1250 7.3436 2.7117 2.5525 2.5686 26.6274 3.2310 2.8512 3.2310
3200.5000 8.5000 8.6250 0.0381 73.7109 139.9470 35.8388 0.1267 7.2668 2.7596 2.5875 2.5621 26.6115 3.2411 2.8868 3.2411
3200.7000 8.5000 8.6250 0.0422 73.7266 139.7002 37.4630 0.1316 7.2816 2.7808 2.6062 2.5675 26.5710 3.2516 2.9187 3.2516
3200.9000 8.5000 8.6250 0.0444 73.8572 139.2834 34.7246 0.1301 7.2917 2.7822 2.6330 2.5725 26.5804 3.2967 2.9534 3.2967
3201.1000 8.5000 8.6250 0.0450 74.0871 139.2325 33.9521 0.1281 7.3674 2.8189 2.6875 2.5748 26.5897 3.2066 2.9482 3.2066
3201.3000 8.5000 8.6250 0.0472 74.4334 139.6287 34.5453 0.1247 7.5201 2.8324 2.7384 2.5757 26.5991 3.1747 2.9495 3.1747
3201.5000 8.5000 8.6250 0.0454 74.6659 139.8782 35.3478 0.1206 7.6003 2.8420 2.7500 2.5709 26.6115 3.1549 2.9502 3.1549
3201.7000 8.5000 8.6250 0.0451 74.8203 139.3443 37.0482 0.1247 7.6307 2.8565 2.7764 2.5705 26.5959 3.1282 2.9436 3.1282
3201.9000 8.5000 8.6249 0.0455 74.8724 137.6767 37.4927 0.1305 7.6086 2.8582 2.7795 2.5725 26.5523 3.1524 2.9551 3.1524
3202.1000 8.5000 8.5782 0.0477 74.5967 136.4949 36.9821 0.1257 7.5586 2.8822 2.8049 2.5773 26.5616 3.0992 2.9299 3.0992
3202.3000 8.5000 8.6250 0.0504 74.2661 135.2675 35.9069 0.1185 7.5323 2.8717 2.8132 2.5791 26.5725 3.1725 2.9621 3.1725
3202.5000 8.5000 8.5782 0.0544 73.9177 133.8427 36.4889 0.1230 7.5973 2.8754 2.8005 2.5841 26.5850 3.2021 2.9730 3.2021
3202.7000 8.5000 8.5781 0.0561 73.7629 136.6500 34.4148 0.1264 7.5995 2.8607 2.7960 2.5881 26.5943 3.3043 3.0151 3.3043
3202.9000 8.5000 8.6250 0.0534 73.6842 139.3128 33.7150 0.1244 7.5023 2.8579 2.7890 2.5853 26.6038 3.3499 3.0311 3.3499
3203.1000 8.5000 8.6250 0.0486 73.6885 139.7402 34.7435 0.1266 7.4192 2.8973 2.8052 2.5787 26.6134 3.2600 2.9954 3.2600
3203.3000 8.5000 8.6250 0.0448 73.8172 140.0148 34.7146 0.1294 7.4215 2.8786 2.8140 2.5713 26.5726 3.3637 3.0268 3.3637
3203.5000 8.5000 8.6250 0.0424 73.9955 139.9155 35.5214 0.1301 7.4400 2.8812 2.8064 2.5658 26.5570 3.3548 3.0238 3.3548
3203.7000 8.5000 8.6250 0.0422 74.2170 138.8766 34.8376 0.1317 7.4333 2.9001 2.8006 2.5630 26.5663 3.3035 3.0178 3.3035
3203.9000 8.5000 8.6251 0.0463 74.5864 138.5108 34.0983 0.1321 7.4999 2.8877 2.8260 2.5674 26.5725 3.3033 3.0130 3.3033
3204.1000 8.5000 8.6250 0.0487 74.9661 138.3341 35.7327 0.1332 7.6350 2.8751 2.8400 2.5680 26.5819 3.3305 3.0269 3.3305
3204.3000 8.5000 8.6250 0.0472 75.1873 137.9642 35.9367 0.1359 7.6741 2.8876 2.8398 2.5655 26.5944 3.2373 2.9927 3.2373
3204.5000 8.5000 8.6250 0.0478 75.3105 137.9446 36.6274 0.1344 7.6709 2.8903 2.8363 2.5727 26.6069 3.2561 3.0172 3.2561
3204.7000 8.5000 8.6250 0.0507 75.3772 137.7856 37.6216 0.1286 7.7144 2.9039 2.8654 2.5872 26.5247 3.2048 2.9988 3.2048
3204.9000 8.5000 8.6250 0.0512 75.3819 136.1187 37.7348 0.1216 7.7271 2.9463 2.8768 2.5919 26.3491 3.0732 2.9519 3.0732
3205.1000 8.5000 8.6250 0.0468 75.2493 135.8582 38.4470 0.1185 7.5591 2.9420 2.8699 2.5852 26.4910 3.1065 2.9750 3.1065
3205.3000 8.5000 8.6249 0.0457 75.0346 136.3656 38.6343 0.1191 7.4655 2.9353 2.8449 2.5822 26.5679 3.2340 3.0318 3.2340
3205.5000 8.5000 8.6250 0.0476 74.7824 136.7097 39.2975 0.1217 7.5409 2.9381 2.8517 2.5791 26.5803 3.3704 3.0743 3.3704
3205.7000 8.5000 8.6250 0.0486 74.4101 136.9254 36.8494 0.1267 7.6607 2.9169 2.8533 2.5770 26.5897 3.5245 3.1417 3.5245
3205.9000 8.5000 8.6250 0.0485 73.9701 137.0604 34.8547 0.1266 7.6856 2.9123 2.8459 2.5785 26.5991 3.6247 3.1809 3.6247
3206.1000 8.5000 8.6250 0.0459 73.7311 137.2992 34.3401 0.1198 7.6162 2.9826 2.8414 2.5800 26.6086 3.4653 3.1147 3.4653
3206.3000 8.5000 8.6250 0.0418 73.5348 137.6453 35.7748 0.1148 7.5342 2.9997 2.8166 2.5785 26.5679 3.4005 3.1052 3.4005
3206.5000 8.5000 8.6250 0.0428 73.3756 138.0924 34.5618 0.1154 7.4316 3.0140 2.8365 2.5806 26.5523 3.3606 3.0772 3.3606
3206.7000 8.5000 8.6250 0.0469 73.2801 139.0648 35.7509 0.1189 7.3527 2.9858 2.8196 2.5839 26.5616 3.4725 3.1213 3.4725
3206.9000 8.5000 8.6250 0.0491 73.1231 139.3126 35.3141 0.1236 7.3979 2.9311 2.7922 2.5797 26.5710 3.6171 3.1647 3.6171
3207.1000 8.5000 8.6250 0.0533 72.9042 138.8283 33.3870 0.1316 7.4553 2.8779 2.7588 2.5793 26.5819 3.6862 3.1921 3.6862
3207.3000 8.5000 8.6250 0.0597 72.8006 139.6166 34.2194 0.1400 7.5155 2.9062 2.7570 2.5843 26.5947 3.4396 3.0888 3.4396
3207.5000 8.5000 8.6250 0.0586 72.8477 140.0283 35.1976 0.1434 7.4570 2.9080 2.7480 2.5817 26.8177 3.2819 3.0088 3.2819
3207.7000 8.5000 8.6250 0.0487 73.0760 139.9332 36.9296 0.1454 7.2992 2.9019 2.7326 2.5662 26.9733 3.1721 2.9601 3.1721
3207.9000 8.5000 8.6250 0.0418 73.6432 140.7467 38.4617 0.1441 7.2420 2.9069 2.6958 2.5582 27.0622 3.0302 2.8890 3.0302
3208.1000 8.5000 8.6250 0.0416 74.2400 141.4526 41.5101 0.1359 7.2245 2.8662 2.6484 2.5633 27.3636 2.9739 2.8337 2.9739
3208.3000 8.5000 8.6250 0.0425 74.8391 141.8855 44.3143 0.1290 7.2330 2.7885 2.6194 2.5664 27.5412 3.0226 2.8168 3.0226
3208.5000 8.5000 8.6250 0.0430 75.0652 142.2020 39.9229 0.1264 7.3505 2.7071 2.5918 2.5692 27.5956 3.1314 2.8208 3.1314
3208.7000 8.5000 8.6250 0.0451 75.1388 142.2503 38.5338 0.1296 7.4437 2.6066 2.5405 2.5713 27.6441 3.3382 2.8549 3.3382
3208.9000 8.5000 8.6250 0.0484 75.0290 141.8380 35.0530 0.1356 7.5905 2.5626 2.4917 2.5738 27.2817 3.3469 2.8197 3.3469
3209.1000 8.5000 8.6250 0.0499 74.7043 141.8553 35.1380 0.1408 7.6509 2.5473 2.4865 2.5753 26.5109 3.1554 2.7077 3.1554
3209.3000 8.5000 8.6250 0.0509 74.4239 142.1818 37.0129 0.1474 7.5857 2.4836 2.4767 2.5709 25.7139 3.0660 2.6661 3.0660
3209.5000 8.5000 8.6251 0.0538 74.3473 143.0106 39.3205 0.1552 7.4863 2.4309 2.4322 2.5638 24.8843 2.8971 2.6041 2.8971
3209.7000 8.5000 8.6250 0.0562 74.6407 144.9960 40.7671 0.1705 7.2894 2.4922 2.4536 2.5585 24.0225 2.5801 2.4476 2.5801
3209.9000 8.5000 8.6719 0.0555 75.2096 147.3027 44.2186 0.1849 7.1193 2.5203 2.4761 2.5502 23.3150 2.3165 2.3448 2.3165
3210.1000 8.5000 8.6719 0.0548 76.2740 149.5949 50.0388 0.1922 7.1314 2.4976 2.4556 2.5468 21.8899 2.2036 2.3042 2.2036
3210.3000 8.5000 8.6719 0.0532 77.6850 151.7332 54.8000 0.1840 7.2328 2.5609 2.4308 2.5476 19.7506 2.1847 2.2808 2.1847
3210.5000 8.5000 8.6718 0.0505 79.1405 153.3649 56.7168 0.1694 7.3452 2.5075 2.4060 2.5500 16.9515 2.5511 2.4303 2.5511
3210.7000 8.5000 8.6250 0.0487 80.2849 153.2897 53.2418 0.1552 7.4857 2.3848 2.3714 2.5562 14.3328 3.1356 2.6367 3.1356
3210.9000 8.5000 8.6250 0.0464 80.4483 149.6697 45.0839 0.1397 7.5049 2.4049 2.3492 2.5622 11.8982 3.2382 2.6609 3.2382
3211.1000 8.5000 8.6250 0.0465 79.9706 144.6109 40.1147 0.1350 7.4557 2.4294 2.3392 2.5674 12.6708 3.3608 2.7006 3.3608
3211.3000 8.5000 8.6250 0.0508 78.5103 140.5766 36.6451 0.1358 7.4236 2.4751 2.3618 2.5726 14.3399 3.4119 2.7325 3.4119
3211.5000 8.5000 8.6250 0.0510 77.0133 137.7314 34.9387 0.1357 7.3500 2.5373 2.3941 2.5692 16.8999 3.2254 2.6820 3.2254
3211.7000 8.5000 8.6250 0.0488 75.5863 135.8408 37.2320 0.1389 7.2734 2.5715 2.4004 2.5646 19.1878 3.0187 2.6381 3.0187
3211.9000 8.5000 8.6250 0.0495 74.8729 136.1146 38.9390 0.1455 7.2872 2.5723 2.4292 2.5663 21.1411 2.9133 2.6170 2.9133
3212.1000 8.5000 8.6250 0.0513 74.7651 137.7342 41.9248 0.1521 7.3246 2.5898 2.4614 2.5686 22.7598 2.7976 2.5856 2.7976
