~Version Information
VERS.                     2.0: CWLS log ASCII Standard Version 2.00
WRAP.                      NO: One line per depth step

~Well Information Block
#MNEM.UNIT                 Value                       Information
#------------              -----                       -----------
STRT.M                    145.9000                    :START
STOP.M                   3681.9000                    :STOP
STEP.M                      0.1000                    :STEP
NULL.                     -999.25                     :NULL VALUE
COMP.         Statoil Petroleum AS                    :Company
WELL.         15/9-F-1 A                              :Well
FLD .         VOLVE                                   :Field
LOC .         Maersk Inspirer                         :Location
PROV.                                                 :Province
CNTY.         Unused                                  :County
STATE.                                                 :State
CTRY.                                                 :Country
DATE.                                                 :Log Date
SRVC.                                                 :Service Company
UWI .         1A                                     :Unique Well Identifier
API .                                                 :API Number
LATI.         058 26' 29.907" N    DMS                :Latitude
LONG.         001 53' 14.708" E    DMS                :Longtitude
PD  .         MSL                                     :Permanent Datum
ELZ .M                 0.0000                         :Elev. Log Zero

~Curve Information
#MNEM   .UNIT             API CODE Curve Description
#------------             -------- -----------------
DEPTH   .M            00 001 00 00:   0  Depth
BS      .inches       00 000 00 00:   5  BS:COMPOSITE:rC:NONE:v1
CALI    .inches       70 280 00 01:   6  CALI:COMPOSITE:rC:0001:v1
DRHO    .g/cm3        45 356 01 01:   7  DRHO:COMPOSITE:rC:0001:v1
DT      .us/ft        60 520 32 01:   8  DT:COMPOSITE:rC:0001:v1
DTS     .us/ft        00 000 00 00:   9  DTS:COMPOSITE:rC:0001:v1
GR      .API          30 150 01 01:  10  GR:COMPOSITE:rC:0001:v1
NPHI    .v/v          42 890 01 01:  11  NPHI:COMPOSITE:rC:0001:v1
PEF     .b/elec       45 358 01 01:  12  PEF:COMPOSITE:rC:0001:v1
RACEHM  .UNKNOWN      95 220 00 01:  13  RACEHM:COMPOSITE:rC:0001:v1
RACELM  .UNKNOWN      00 524 01 00:  14  RACELM:COMPOSITE:rC:0001:v1
RHOB    .g/cm3        45 350 01 01:  15  RHOB:COMPOSITE:rC:0001:v1
ROP     .m/hr         00 000 00 00:  16  ROP:COMPOSITE:rC:0001:v1
RPCEHM  .UNKNOWN      00 000 00 00:  17  RPCEHM:COMPOSITE:rC:0001:v1
RPCELM  .UNKNOWN      00 000 00 00:  18  RPCELM:COMPOSITE:rC:0001:v1
RT      .ohm.m        00 000 00 00:  19  RT:COMPOSITE:rC:0001:v1

~Parameter Information
#MNEM.UNIT       Value           Description
#------------    -----           -----------
HLD .         Terms and Conditions.:Header Legal Disclaimer
RUN .         1                 :Run number

~Other Information
# Subset of the Equinor Volve composite LAS (andymcdgeo/Petrophysics-Python-Series Data/Volve): unused columns removed; data rows copied verbatim. Thinned to every 2nd depth sample (0.2 m) for web delivery.
PETROPHYSICAL INTERPRETATION: INPUT

# --- LOG MNEMONICS AND UNITS ---
#Depth          ABDCQF01        ABDCQF02        ABDCQF03        ABDCQF04        BS              CALI            DRHO            DT              DTS             GR              NPHI            PEF             RACEHM          RACELM          RHOB            ROP             RPCEHM          RPCELM          RT             
#M              g/cm3           g/cm3           g/cm3           g/cm3           inches          inches          g/cm3           us/ft           us/ft           API             v/v             b/elec          UNKNOWN         UNKNOWN         g/cm3           m/hr            UNKNOWN         UNKNOWN         ohm.m          

~A
# ...
2958.1000 8.5000 8.5781 0.0412 62.4037 116.6885 9.5558 0.0591 7.5884 6.3548 6.9960 2.6131 29.6122 6.8904 6.7314 6.8904
2958.3000 8.5000 8.5781 0.0434 62.2116 116.7647 10.9558 0.0619 7.6240 6.3442 7.0151 2.6160 29.9788 6.8949 6.7085 6.8949
2958.5000 8.5000 8.5781 0.0489 62.0688 116.8426 9.8765 0.0663 7.6477 6.3604 7.0059 2.6204 30.0494 6.7066 6.6700 6.7066
2958.7000 8.5000 8.5781 0.0488 61.9712 116.9231 9.2422 0.0685 7.6535 6.3260 6.9889 2.6159 29.9550 6.8105 6.7386 6.8105
2958.9000 8.5000 8.5781 0.0479 62.0497 117.0349 9.0006 0.0628 7.7093 6.4042 7.1172 2.6117 29.6962 6.3266 6.4303 6.3266
2959.1000 8.5000 8.5781 0.0491 62.0760 116.9633 9.7500 0.0534 7.7607 6.3950 7.1481 2.6205 29.0788 6.2301 6.3731 6.2301
2959.3000 8.5000 8.5781 0.0497 62.0517 116.7141 7.9417 0.0497 7.7164 6.4550 7.0768 2.6324 28.6861 6.0477 6.3208 6.0477
2959.5000 8.5000 8.5781 0.0489 61.8520 116.0407 7.7401 0.0491 7.6867 6.3659 7.0053 2.6381 28.5169 6.2637 6.4230 6.2637
2959.7000 8.5000 8.5781 0.0486 61.5188 115.1614 8.5116 0.0473 7.7594 6.3741 7.1852 2.6383 28.4415 6.2746 6.4628 6.2746
2959.9000 8.5000 8.5781 0.0530 61.0333 114.0495 10.1927 0.0456 7.9840 6.4113 7.3044 2.6439 28.4315 6.2842 6.4735 6.2842
2960.1000 8.5000 8.5781 0.0587 60.6557 112.8167 8.8368 0.0447 8.1095 6.4316 7.2445 2.6499 28.4859 6.6132 6.6779 6.6132
2960.3000 8.5000 8.5781 0.0614 60.2909 112.0251 8.2351 0.0439 7.9253 6.5324 7.3602 2.6574 28.1721 6.7568 6.7934 6.7568
2960.5000 8.5000 8.5781 0.0578 59.9344 111.8723 7.4253 0.0422 7.7871 6.6640 7.4587 2.6558 27.7752 6.5965 6.7703 6.5965
2960.7000 8.5000 8.5781 0.0529 59.8015 111.7873 6.8789 0.0422 7.8389 6.8850 7.6963 2.6491 27.2963 6.4845 6.7470 6.4845
2960.9000 8.5000 8.5781 0.0536 59.7123 111.9938 7.2540 0.0446 7.8636 7.0393 7.8065 2.6499 27.1257 6.7082 6.9289 6.7082
2961.1000 8.5000 8.5781 0.0568 59.6503 112.6927 7.3090 0.0466 7.8770 7.1614 7.8228 2.6496 26.9200 6.9222 7.1237 6.9222
2961.3000 8.5000 8.5781 0.0555 59.8525 113.2367 6.0962 0.0499 7.8780 7.3165 7.9769 2.6419 26.6801 7.5763 7.5711 7.5763
2961.5000 8.5000 8.5781 0.0541 60.0712 113.7764 7.4067 0.0532 7.7712 7.4853 8.1032 2.6354 26.8528 7.8107 7.7332 7.8107
2961.7000 8.5000 8.5781 0.0522 60.2171 114.3703 8.1287 0.0537 7.6706 7.6574 8.2667 2.6291 26.8348 8.0692 7.9595 8.0692
2961.9000 8.5000 8.5781 0.0472 60.4274 114.6901 7.2378 0.0520 7.7074 7.7827 8.4672 2.6254 26.6271 8.3664 8.1766 8.3664
2962.1000 8.5000 8.5781 0.0437 60.6115 114.8472 8.4979 0.0474 7.7445 7.9069 8.4954 2.6299 26.5834 8.4747 8.3103 8.4747
2962.3000 8.5000 8.5781 0.0466 60.6788 114.7575 8.9556 0.0430 7.8958 8.0237 8.7113 2.6428 26.4482 8.7589 8.5092 8.7589
2962.5000 8.5000 8.5781 0.0492 60.4444 114.5398 9.2606 0.0411 7.8928 8.1110 8.9704 2.6517 26.2224 8.5477 8.4043 8.5477
2962.7000 8.5000 8.5781 0.0507 60.0514 114.1554 9.6357 0.0423 7.7823 8.2372 9.0627 2.6510 26.2939 8.9242 8.6862 8.9242
2962.9000 8.5000 8.5781 0.0492 59.4658 113.3386 8.6204 0.0448 7.8129 8.3723 9.1739 2.6397 26.3416 8.0685 8.3822 8.0685
2963.1000 8.5000 8.5781 0.0438 58.9005 112.6744 7.3748 0.0455 7.6945 8.5150 9.4183 2.6287 26.3656 7.9202 8.4104 7.9202
2963.3000 8.5000 8.5781 0.0417 58.3961 111.9707 6.6225 0.0436 7.6690 8.4965 9.7308 2.6278 26.3071 8.2074 8.5595 8.2074
2963.5000 8.5000 8.5781 0.0455 58.1395 110.7599 5.7510 0.0420 7.8312 8.9118 10.0103 2.6367 26.2526 7.4486 8.2534 7.4486
2963.7000 8.5000 8.5781 0.0523 57.9868 110.1186 6.6401 0.0423 7.9587 8.8664 9.9735 2.6450 26.2017 8.0492 8.5894 8.0492
2963.9000 8.5000 8.5781 0.0559 57.9110 109.6882 7.1327 0.0438 8.0390 8.9554 9.9776 2.6462 25.9096 9.2289 9.3169 9.2289
2964.1000 8.5000 8.5781 0.0520 57.9783 108.5711 6.3949 0.0438 7.9988 9.2037 10.2677 2.6398 25.7056 9.0140 9.3705 9.0140
2964.3000 8.5000 8.5781 0.0494 57.9734 107.9910 5.6646 0.0414 7.9131 9.4042 10.6551 2.6417 25.5897 10.1705 10.0918 10.1705
2964.5000 8.5000 8.5781 0.0503 57.9275 107.7586 5.2274 0.0396 7.8818 9.6033 10.8357 2.6519 25.6569 9.8965 9.9871 9.8965
2964.7000 8.5000 8.5781 0.0485 57.9676 107.4137 6.1597 0.0372 7.7677 10.0298 10.8462 2.6588 25.7246 10.1312 10.3605 10.1312
2964.9000 8.5000 8.5781 0.0448 57.8974 107.3479 5.8618 0.0329 7.6952 10.3523 11.3214 2.6612 25.7926 10.0447 10.3495 10.0447
2965.1000 8.5000 8.5781 0.0456 57.7367 107.5027 5.3065 0.0294 7.7947 10.6697 11.9456 2.6639 25.8086 10.6516 10.7950 10.6516
2965.3000 8.5000 8.5781 0.0495 57.5318 107.4799 6.7539 0.0293 7.9520 10.9599 11.9906 2.6596 25.7664 11.2503 11.3062 11.2503
2965.5000 8.5000 8.5781 0.0537 57.1865 107.2427 5.9618 0.0313 8.0037 11.7668 12.0737 2.6555 25.6662 10.2566 10.9860 10.2566
2965.7000 8.5000 8.5781 0.0527 56.7040 106.7958 4.3015 0.0340 8.0118 11.6765 12.2298 2.6511 25.6713 11.6818 11.9028 11.6818
2965.9000 8.5000 8.5781 0.0483 56.4884 106.6222 4.4842 0.0339 7.9324 12.0635 12.7723 2.6446 25.7644 11.9676 12.0869 11.9676
2966.1000 8.5000 8.5781 0.0492 56.3823 106.4423 4.4457 0.0329 7.9071 12.5323 12.4964 2.6472 25.9446 12.0987 12.3816 12.0987
2966.3000 8.5000 8.5781 0.0493 56.4006 106.2483 5.0985 0.0334 7.9619 12.6294 13.3113 2.6566 25.8488 13.5646 13.0578 13.5646
2966.5000 8.5000 8.5470 0.0514 56.6823 106.1854 4.5477 0.0351 8.1355 12.8751 13.3110 2.6557 25.6957 14.1466 13.6199 14.1466
2966.7000 8.5000 8.5781 0.0551 56.9926 106.1446 4.8864 0.0389 8.1805 12.9801 13.5080 2.6483 25.4858 14.3650 13.8254 14.3650
2966.9000 8.5000 8.5781 0.0579 57.3161 106.1217 5.3150 0.0402 8.1514 13.0895 13.1857 2.6474 25.4606 14.1818 13.8249 14.1818
2967.1000 8.5000 8.5781 0.0576 57.4007 106.1055 5.1027 0.0402 8.1439 12.9779 13.3344 2.6471 25.3516 14.1104 13.7733 14.1104
2967.3000 8.5000 8.5781 0.0534 57.4543 106.1923 6.3911 0.0385 8.0436 13.2957 13.8974 2.6460 25.1586 14.2726 13.8513 14.2726
2967.5000 8.5000 8.5781 0.0530 57.5087 106.4600 6.0404 0.0353 7.9094 13.2533 14.0765 2.6562 24.4727 13.0320 12.9863 13.0320
2967.7000 8.5000 8.5781 0.0535 57.6922 106.8031 5.2107 0.0337 7.7648 13.1296 13.4111 2.6633 23.7417 13.8051 13.6334 13.8051
2967.9000 8.5000 8.5781 0.0516 57.8914 107.0786 5.5774 0.0354 7.6797 13.1420 13.8403 2.6562 22.9662 12.8871 13.2043 12.8871
2968.1000 8.5000 8.5781 0.0506 58.0691 107.1728 5.4026 0.0377 7.7357 13.0416 13.5540 2.6514 22.3099 11.9924 12.4677 11.9924
2968.3000 8.5000 8.5781 0.0518 58.1548 107.2328 5.6780 0.0391 7.8530 12.9146 13.1237 2.6484 21.9070 11.7638 12.2753 11.7638
2968.5000 8.5000 8.5469 0.0506 58.2050 107.2671 5.5573 0.0438 7.8533 12.5697 13.3542 2.6443 21.7564 12.2727 12.4995 12.2727
2968.7000 8.5000 8.5780 0.0515 58.2259 107.2556 6.4380 0.0465 7.7417 12.3603 13.1749 2.6445 21.7034 11.4452 11.9628 11.4452
2968.9000 8.5000 8.5625 0.0550 58.2152 107.4177 5.3343 0.0487 7.7856 11.9436 12.7949 2.6391 21.5965 12.6308 12.4672 12.6308
2969.1000 8.5000 8.5781 0.0566 58.2257 107.6432 4.4060 0.0532 7.8443 11.6670 12.7780 2.6335 21.4361 11.6276 11.7240 11.6276
2969.3000 8.5000 8.5781 0.0532 58.3528 107.8778 4.7433 0.0539 7.7235 11.4022 12.3086 2.6280 21.3489 11.9604 11.9631 11.9604
2969.5000 8.5000 8.5781 0.0513 58.3927 108.1796 5.0231 0.0547 7.6895 11.0774 12.1404 2.6243 21.3174 11.7786 11.5858 11.7786
2969.7000 8.5000 8.5781 0.0525 58.4094 108.5263 5.5754 0.0573 7.7986 10.7684 11.9145 2.6225 21.3415 10.9346 11.0545 10.9346
2969.9000 8.5000 8.5781 0.0531 58.5022 108.9467 6.0224 0.0574 7.9845 10.5112 11.9695 2.6242 21.5022 10.6263 10.8787 10.6263
2970.1000 8.5000 8.5781 0.0544 58.5650 109.6104 6.6832 0.0525 8.0640 10.2472 11.3069 2.6345 21.6647 10.0496 10.4326 10.0496
2970.3000 8.5000 8.5781 0.0569 58.6226 110.3405 8.2608 0.0481 8.0089 10.1389 11.2221 2.6427 21.8289 9.6985 10.1505 9.6985
2970.5000 8.5000 8.5781 0.0541 58.7617 110.5770 6.7787 0.0461 7.9967 10.0650 11.3805 2.6408 21.9028 8.7671 9.5318 8.7671
2970.7000 8.5000 8.5781 0.0524 58.8021 110.5710 5.5456 0.0440 8.0069 9.7163 11.0884 2.6404 21.9299 8.9927 9.5512 8.9927
2970.9000 8.5000 8.5781 0.0516 58.7515 110.3446 5.7986 0.0437 7.9515 9.6081 10.7204 2.6357 21.9104 9.1332 9.5865 9.1332
2971.1000 8.5000 8.5781 0.0465 58.3936 109.3993 5.2114 0.0446 7.9533 9.6539 10.7775 2.6254 21.9338 8.3541 9.0670 8.3541
