~Version Information
VERS.                     2.0: CWLS log ASCII Standard Version 2.00
WRAP.                      NO: One line per depth step

~Well Information Block
#MNEM.UNIT                 Value                       Information
#------------              -----                       -----------
STRT.M                    145.9000                    :START
STOP.M                   3681.9000                    :STOP
STEP.M                      0.1000                    :STEP
NULL.                     -999.25                     :NULL VALUE
COMP.         Statoil Petroleum AS                    :Company
WELL.         15/9-F-1 A                              :Well
FLD .         VOLVE                                   :Field
LOC .         Maersk Inspirer                         :Location
PROV.                                                 :Province
CNTY.         Unused                                  :County
STATE.                                                 :State
CTRY.                                                 :Country
DATE.                                                 :Log Date
SRVC.                                                 :Service Company
UWI .         1A                                     :Unique Well Identifier
API .                                                 :API Number
LATI.         058 26' 29.907" N    DMS                :Latitude
LONG.         001 53' 14.708" E    DMS                :Longtitude
PD  .         MSL                                     :Permanent Datum
ELZ .M                 0.0000                         :Elev. Log Zero

~Curve Information
#MNEM   .UNIT             API CODE Curve Description
#------------             -------- -----------------
DEPTH   .M            00 001 00 00:   0  Depth
BS      .inches       00 000 00 00:   5  BS:COMPOSITE:rC:NONE:v1
CALI    .inches       70 280 00 01:   6  CALI:COMPOSITE:rC:0001:v1
DRHO    .g/cm3        45 356 01 01:   7  DRHO:COMPOSITE:rC:0001:v1
DT      .us/ft        60 520 32 01:   8  DT:COMPOSITE:rC:0001:v1
DTS     .us/ft        00 000 00 00:   9  DTS:COMPOSITE:rC:0001:v1
GR      .API          30 150 01 01:  10  GR:COMPOSITE:rC:0001:v1
NPHI    .v/v          42 890 01 01:  11  NPHI:COMPOSITE:rC:0001:v1
PEF     .b/elec       45 358 01 01:  12  PEF:COMPOSITE:rC:0001:v1
RACEHM  .UNKNOWN      95 220 00 01:  13  RACEHM:COMPOSITE:rC:0001:v1
RACELM  .UNKNOWN      00 524 01 00:  14  RACELM:COMPOSITE:rC:0001:v1
RHOB    .g/cm3        45 350 01 01:  15  RHOB:COMPOSITE:rC:0001:v1
ROP     .m/hr         00 000 00 00:  16  ROP:COMPOSITE:rC:0001:v1
RPCEHM  .UNKNOWN      00 000 00 00:  17  RPCEHM:COMPOSITE:rC:0001:v1
RPCELM  .UNKNOWN      00 000 00 00:  18  RPCELM:COMPOSITE:rC:0001:v1
RT      .ohm.m        00 000 00 00:  19  RT:COMPOSITE:rC:0001:v1

~Parameter Information
#MNEM.UNIT       Value           Description
#------------    -----           -----------
HLD .         Terms and Conditions.:Header Legal Disclaimer
RUN .         1                 :Run number

~Other Information
# Subset of the Equinor Volve composite LAS (andymcdgeo/Petrophysics-Python-Series Data/Volve): unused columns removed; data rows copied verbatim. Thinned to every 2nd depth sample (0.2 m) for web delivery.
PETROPHYSICAL INTERPRETATION: INPUT

# --- LOG MNEMONICS AND UNITS ---
#Depth          ABDCQF01        ABDCQF02        ABDCQF03        ABDCQF04        BS              CALI            DRHO            DT              DTS             GR              NPHI            PEF             RACEHM          RACELM          RHOB            ROP             RPCEHM          RPCELM          RT             
#M              g/cm3           g/cm3           g/cm3           g/cm3           inches          inches          g/cm3           us/ft           us/ft           API             v/v             b/elec          UNKNOWN         UNKNOWN         g/cm3           m/hr            UNKNOWN         UNKNOWN         ohm.m          

~A
# ...
2065.7000 17.5000 -999.25 -999.25 -999.25 -999.25 75.9989 -999.25 -999.25 0.8166 0.7024 -999.25 29.9572 0.7837 0.7081 0.7837
2065.9000 17.5000 -999.25 -999.25 -999.25 -999.25 73.1909 -999.25 -999.25 0.7685 0.6999 -999.25 29.9451 0.7608 0.7081 0.7608
2066.1000 17.5000 -999.25 -999.25 -999.25 -999.25 73.2960 -999.25 -999.25 0.7596 0.6971 -999.25 29.9322 0.7085 0.6760 0.7085
2066.3000 17.5000 -999.25 -999.25 -999.25 -999.25 68.2587 -999.25 -999.25 0.7816 0.6974 -999.25 29.9192 0.6893 0.6578 0.6893
2066.5000 17.5000 -999.25 -999.25 -999.25 -999.25 69.3839 -999.25 -999.25 0.7892 0.6962 -999.25 29.9345 0.6652 0.6488 0.6652
2066.7000 17.5000 -999.25 -999.25 -999.25 -999.25 71.8605 -999.25 -999.25 0.7922 0.6902 -999.25 29.9778 0.6837 0.6566 0.6837
2066.9000 17.5000 -999.25 -999.25 -999.25 -999.25 67.0503 -999.25 -999.25 0.7608 0.6828 -999.25 29.9649 0.7231 0.6830 0.7231
2067.1000 17.5000 -999.25 -999.25 -999.25 -999.25 65.8145 -999.25 -999.25 0.7421 0.6746 -999.25 29.9362 0.7109 0.6855 0.7109
2067.3000 17.5000 -999.25 -999.25 -999.25 -999.25 68.0088 -999.25 -999.25 0.7462 0.6682 -999.25 29.8917 0.6669 0.6423 0.6669
2067.5000 17.5000 -999.25 -999.25 -999.25 -999.25 64.2642 -999.25 -999.25 0.7212 0.6617 -999.25 29.6377 0.6444 0.6167 0.6444
2067.7000 17.5000 -999.25 -999.25 -999.25 -999.25 64.3882 -999.25 -999.25 0.7178 0.6583 -999.25 29.4244 0.6343 0.6026 0.6343
2067.9000 17.5000 -999.25 -999.25 -999.25 -999.25 65.1889 -999.25 -999.25 0.7180 0.6533 -999.25 29.2513 0.6369 0.6072 0.6369
2068.1000 17.5000 -999.25 -999.25 -999.25 -999.25 66.2180 -999.25 -999.25 0.7408 0.6578 -999.25 29.0745 0.6548 0.6154 0.6548
2068.3000 17.5000 -999.25 -999.25 -999.25 -999.25 65.1453 -999.25 -999.25 0.7452 0.6554 -999.25 28.8978 0.6828 0.6200 0.6828
2068.5000 17.5000 -999.25 -999.25 -999.25 -999.25 70.2862 -999.25 -999.25 0.7357 0.6494 -999.25 28.7213 0.6696 0.6053 0.6696
2068.7000 17.5000 -999.25 -999.25 -999.25 -999.25 65.9351 -999.25 -999.25 0.7332 0.6414 -999.25 28.6874 0.6506 0.5895 0.6506
2068.9000 17.5000 -999.25 -999.25 -999.25 -999.25 67.5493 -999.25 -999.25 0.7244 0.6326 -999.25 28.6655 0.6457 0.5848 0.6457
2069.1000 17.5000 -999.25 -999.25 -999.25 -999.25 65.9135 -999.25 -999.25 0.7294 0.6310 -999.25 28.6556 0.6300 0.5665 0.6300
2069.3000 17.5000 -999.25 -999.25 -999.25 -999.25 72.7965 -999.25 -999.25 0.7011 0.6235 -999.25 28.6458 0.6305 0.5652 0.6305
2069.5000 17.5000 -999.25 -999.25 -999.25 -999.25 67.8022 -999.25 -999.25 0.6877 0.6126 -999.25 28.6401 0.6315 0.5653 0.6315
2069.7000 17.5000 -999.25 -999.25 -999.25 -999.25 69.9722 -999.25 -999.25 0.6840 0.6079 -999.25 28.6386 0.6189 0.5554 0.6189
2069.9000 17.5000 -999.25 -999.25 -999.25 -999.25 66.9439 -999.25 -999.25 0.6648 0.6027 -999.25 28.6386 0.6003 0.5437 0.6003
2070.1000 17.5000 -999.25 -999.25 -999.25 -999.25 65.8464 -999.25 -999.25 0.6718 0.6025 -999.25 28.6675 0.6000 0.5315 0.6000
2070.3000 17.5000 -999.25 -999.25 -999.25 -999.25 67.0548 -999.25 -999.25 0.6494 0.5886 -999.25 28.7251 0.6064 0.5387 0.6064
2070.5000 17.5000 -999.25 -999.25 -999.25 -999.25 63.3062 -999.25 -999.25 0.6386 0.5881 -999.25 28.8726 0.5996 0.5338 0.5996
2070.7000 17.5000 -999.25 -999.25 -999.25 -999.25 62.9486 -999.25 -999.25 0.6399 0.5918 -999.25 29.0785 0.5778 0.5220 0.5778
2070.9000 17.5000 -999.25 -999.25 -999.25 -999.25 65.6251 -999.25 -999.25 0.6447 0.5914 -999.25 29.3422 0.5909 0.5288 0.5909
2071.1000 17.5000 -999.25 -999.25 -999.25 -999.25 62.3925 -999.25 -999.25 0.6496 0.5890 -999.25 29.5503 0.6300 0.5507 0.6300
2071.3000 17.5000 -999.25 -999.25 -999.25 -999.25 63.9423 -999.25 -999.25 0.6349 0.5853 -999.25 29.7867 0.6228 0.5541 0.6228
2071.5000 17.5000 -999.25 -999.25 -999.25 -999.25 61.4934 -999.25 -999.25 0.6249 0.5847 -999.25 30.0508 0.5981 0.5414 0.5981
2071.7000 17.5000 -999.25 -999.25 -999.25 -999.25 66.4812 -999.25 -999.25 0.6227 0.5835 -999.25 30.1229 0.6002 0.5434 0.6002
2071.9000 17.5000 -999.25 -999.25 -999.25 -999.25 68.6880 -999.25 -999.25 0.6327 0.5820 -999.25 30.1426 0.6027 0.5447 0.6027
2072.1000 17.5000 -999.25 -999.25 -999.25 -999.25 67.8190 -999.25 -999.25 0.6370 0.5819 -999.25 30.1100 0.5880 0.5410 0.5880
2072.3000 17.5000 -999.25 -999.25 -999.25 -999.25 64.3045 -999.25 -999.25 0.6394 0.5830 -999.25 30.1317 0.5908 0.5427 0.5908
2072.5000 17.5000 -999.25 -999.25 -999.25 -999.25 62.4235 -999.25 -999.25 0.6297 0.5814 -999.25 30.1535 0.6017 0.5430 0.6017
2072.7000 17.5000 -999.25 -999.25 -999.25 -999.25 61.7414 -999.25 -999.25 0.6198 0.5818 -999.25 30.1754 0.5876 0.5389 0.5876
2072.9000 17.5000 -999.25 -999.25 -999.25 -999.25 62.8003 -999.25 -999.25 0.6326 0.5861 -999.25 30.1426 0.5978 0.5430 0.5978
2073.1000 17.5000 -999.25 -999.25 -999.25 -999.25 63.5269 -999.25 -999.25 0.6561 0.5910 -999.25 30.1426 0.6184 0.5513 0.6184
2073.3000 17.5000 -999.25 -999.25 -999.25 -999.25 62.4455 -999.25 -999.25 0.6598 0.5921 -999.25 30.1751 0.6201 0.5583 0.6201
2073.5000 17.5000 -999.25 -999.25 -999.25 -999.25 60.6661 -999.25 -999.25 0.6542 0.5948 -999.25 30.1429 0.6321 0.5671 0.6321
2073.7000 17.5000 -999.25 -999.25 -999.25 -999.25 60.2168 -999.25 -999.25 0.6521 0.5993 -999.25 30.1375 0.6323 0.5726 0.6323
2073.9000 17.5000 -999.25 -999.25 -999.25 -999.25 61.5525 -999.25 -999.25 0.6598 0.6029 -999.25 30.1588 0.6377 0.5769 0.6377
2074.1000 17.5000 -999.25 -999.25 -999.25 -999.25 65.0072 -999.25 -999.25 0.6763 0.6082 -999.25 30.1263 0.6696 0.5925 0.6696
2074.3000 17.5000 -999.25 -999.25 -999.25 -999.25 63.5982 -999.25 -999.25 0.6769 0.6054 -999.25 30.1209 0.6719 0.5949 0.6719
2074.5000 17.5000 -999.25 -999.25 -999.25 -999.25 64.2977 -999.25 -999.25 0.6705 0.6101 -999.25 30.1425 0.6259 0.5732 0.6259
2074.7000 17.5000 -999.25 -999.25 -999.25 -999.25 63.1130 -999.25 -999.25 0.6750 0.6130 -999.25 30.1102 0.6253 0.5731 0.6253
2074.9000 17.5000 -999.25 -999.25 -999.25 -999.25 60.6761 -999.25 -999.25 0.6650 0.6090 -999.25 30.1048 0.6493 0.5869 0.6493
2075.1000 17.5000 -999.25 -999.25 -999.25 -999.25 64.9643 -999.25 -999.25 0.6650 0.6157 -999.25 30.1263 0.6267 0.5877 0.6267
2075.3000 17.5000 -999.25 -999.25 -999.25 -999.25 63.3557 -999.25 -999.25 0.6793 0.6215 -999.25 30.1480 0.6234 0.5866 0.6234
2075.5000 17.5000 -999.25 -999.25 -999.25 -999.25 61.6854 -999.25 -999.25 0.6964 0.6277 -999.25 30.1426 0.6191 0.5849 0.6191
2075.7000 17.5000 -999.25 -999.25 -999.25 -999.25 62.1555 -999.25 -999.25 0.7192 0.6323 -999.25 30.1103 0.6509 0.5923 0.6509
2075.9000 17.5000 -999.25 -999.25 -999.25 -999.25 59.4089 -999.25 -999.25 0.6996 0.6329 -999.25 30.0779 0.6603 0.5979 0.6603
2076.1000 17.5000 -999.25 -999.25 -999.25 -999.25 61.5914 -999.25 -999.25 0.7030 0.6388 -999.25 29.9947 0.6673 0.6026 0.6673
2076.3000 17.5000 -999.25 -999.25 -999.25 -999.25 62.0133 -999.25 -999.25 0.7231 0.6432 -999.25 29.8616 0.6811 0.6115 0.6811
2076.5000 17.5000 -999.25 -999.25 -999.25 -999.25 59.8306 -999.25 -999.25 0.7601 0.6508 -999.25 29.9854 0.6773 0.6052 0.6773
2076.7000 17.5000 -999.25 -999.25 -999.25 -999.25 54.7813 -999.25 -999.25 0.7566 0.6539 -999.25 30.0660 0.6808 0.6099 0.6808
2076.9000 17.5000 -999.25 -999.25 -999.25 -999.25 59.6479 -999.25 -999.25 0.7423 0.6559 -999.25 30.1036 0.7004 0.6220 0.7004
2077.1000 17.5000 -999.25 -999.25 -999.25 -999.25 61.3167 -999.25 -999.25 0.7560 0.6581 -999.25 30.0873 0.7114 0.6275 0.7114
2077.3000 17.5000 -999.25 -999.25 -999.25 -999.25 63.1930 -999.25 -999.25 0.7892 0.6642 -999.25 30.1032 0.7197 0.6353 0.7197
2077.5000 17.5000 -999.25 -999.25 -999.25 -999.25 59.5492 -999.25 -999.25 0.7932 0.6673 -999.25 30.1510 0.7263 0.6367 0.7263
2077.7000 17.5000 -999.25 -999.25 -999.25 -999.25 58.9735 -999.25 -999.25 0.7999 0.6661 -999.25 30.1130 0.7046 0.6296 0.7046
2077.9000 17.5000 -999.25 -999.25 -999.25 -999.25 57.5456 -999.25 -999.25 0.6934 0.6140 -999.25 30.1048 0.7126 0.5975 0.7126
2078.1000 17.5000 -999.25 -999.25 -999.25 -999.25 58.6320 -999.25 -999.25 0.6966 0.6128 -999.25 30.1263 0.6858 0.5779 0.6858
2078.3000 17.5000 -999.25 -999.25 -999.25 -999.25 64.0168 -999.25 -999.25 0.7686 0.6201 -999.25 30.1046 0.6547 0.5443 0.6547
