~Version Information
VERS.                     2.0: CWLS log ASCII Standard Version 2.00
WRAP.                      NO: One line per depth step

~Well Information Block
#MNEM.UNIT                 Value                       Information
#------------              -----                       -----------
STRT.M                    145.9000                    :START
STOP.M                   3681.9000                    :STOP
STEP.M                      0.1000                    :STEP
NULL.                     -999.25                     :NULL VALUE
COMP.         Statoil Petroleum AS                    :Company
WELL.         15/9-F-1 A                              :Well
FLD .         VOLVE                                   :Field
LOC .         Maersk Inspirer                         :Location
PROV.                                                 :Province
CNTY.         Unused                                  :County
STATE.                                                 :State
CTRY.                                                 :Country
DATE.                                                 :Log Date
SRVC.                                                 :Service Company
UWI .         1A                                     :Unique Well Identifier
API .                                                 :API Number
LATI.         058 26' 29.907" N    DMS                :Latitude
LONG.         001 53' 14.708" E    DMS                :Longtitude
PD  .         MSL                                     :Permanent Datum
ELZ .M                 0.0000                         :Elev. Log Zero

~Curve Information
#MNEM   .UNIT             API CODE Curve Description
#------------             -------- -----------------
DEPTH   .M            00 001 00 00:   0  Depth
BS      .inches       00 000 00 00:   5  BS:COMPOSITE:rC:NONE:v1
CALI    .inches       70 280 00 01:   6  CALI:COMPOSITE:rC:0001:v1
DRHO    .g/cm3        45 356 01 01:   7  DRHO:COMPOSITE:rC:0001:v1
DT      .us/ft        60 520 32 01:   8  DT:COMPOSITE:rC:0001:v1
DTS     .us/ft        00 000 00 00:   9  DTS:COMPOSITE:rC:0001:v1
GR      .API          30 150 01 01:  10  GR:COMPOSITE:rC:0001:v1
NPHI    .v/v          42 890 01 01:  11  NPHI:COMPOSITE:rC:0001:v1
PEF     .b/elec       45 358 01 01:  12  PEF:COMPOSITE:rC:0001:v1
RACEHM  .UNKNOWN      95 220 00 01:  13  RACEHM:COMPOSITE:rC:0001:v1
RACELM  .UNKNOWN      00 524 01 00:  14  RACELM:COMPOSITE:rC:0001:v1
RHOB    .g/cm3        45 350 01 01:  15  RHOB:COMPOSITE:rC:0001:v1
ROP     .m/hr         00 000 00 00:  16  ROP:COMPOSITE:rC:0001:v1
RPCEHM  .UNKNOWN      00 000 00 00:  17  RPCEHM:COMPOSITE:rC:0001:v1
RPCELM  .UNKNOWN      00 000 00 00:  18  RPCELM:COMPOSITE:rC:0001:v1
RT      .ohm.m        00 000 00 00:  19  RT:COMPOSITE:rC:0001:v1

~Parameter Information
#MNEM.UNIT       Value           Description
#------------    -----           -----------
HLD .         Terms and Conditions.:Header Legal Disclaimer
RUN .         1                 :Run number

~Other Information
# Subset of the Equinor Volve composite LAS (andymcdgeo/Petrophysics-Python-Series Data/Volve): unused columns removed; data rows copied verbatim. Thinned to every 2nd depth sample (0.2 m) for web delivery.
PETROPHYSICAL INTERPRETATION: INPUT

# --- LOG MNEMONICS AND UNITS ---
#Depth          ABDCQF01        ABDCQF02        ABDCQF03        ABDCQF04        BS              CALI            DRHO            DT              DTS             GR              NPHI            PEF             RACEHM          RACELM          RHOB            ROP             RPCEHM          RPCELM          RT             
#M              g/cm3           g/cm3           g/cm3           g/cm3           inches          inches          g/cm3           us/ft           us/ft           API             v/v             b/elec          UNKNOWN         UNKNOWN         g/cm3           m/hr            UNKNOWN         UNKNOWN         ohm.m          

~A
# ...
2727.9000 8.5000 8.5780 0.0903 79.9901 160.8346 35.3744 0.1667 5.3947 0.6928 0.7250 2.4338 28.4975 1.2435 0.8543 1.2435
2728.1000 8.5000 8.5469 0.0845 80.2647 160.7599 30.3286 0.2148 5.1297 0.6356 0.7142 2.3663 30.2847 0.7664 0.7122 0.7664
2728.3000 8.5000 8.5469 0.0695 82.2852 161.9854 27.5859 0.2266 5.0775 0.6435 0.7132 2.3087 31.7431 0.6462 0.6625 0.6462
2728.5000 8.5000 8.5469 0.0614 84.7175 163.7598 26.9815 0.2241 5.1316 0.6338 0.7005 2.2746 32.8765 0.6366 0.6406 0.6366
2728.7000 8.5000 8.5469 0.0600 87.5106 166.1142 25.3562 0.2301 5.0810 0.6229 0.6823 2.2599 35.3196 0.6276 0.6251 0.6276
2728.9000 8.5000 8.5469 0.0540 89.4204 168.5300 26.2506 0.2349 4.9738 0.6089 0.6821 2.2530 36.5789 0.5663 0.6049 0.5663
2729.1000 8.5000 8.5469 0.0549 90.8938 170.9307 25.0099 0.2390 4.9169 0.6353 0.6816 2.2604 36.6613 0.5547 0.6138 0.5547
2729.3000 8.5000 8.5470 0.0614 91.6981 173.0203 27.7270 0.2431 4.8764 0.6517 0.6824 2.2580 36.6673 0.6358 0.6405 0.6358
2729.5000 8.5000 8.5469 0.0584 92.2384 174.7100 36.8478 0.2516 4.8581 0.6498 0.6924 2.2377 35.0148 0.6368 0.6468 0.6368
2729.7000 8.5000 8.5469 0.0541 92.3581 175.7167 49.9724 0.2573 4.9458 0.6568 0.7075 2.2273 31.7186 0.6395 0.6579 0.6395
2729.9000 8.5000 8.5469 0.0510 91.9722 175.9865 61.1083 0.2599 5.0423 0.6861 0.7395 2.2294 32.0799 0.6712 0.6942 0.6712
2730.1000 8.5000 8.5780 0.0460 91.2409 175.7752 73.0938 0.2465 4.9510 0.7813 0.8159 2.2343 32.7790 0.7487 0.7856 0.7487
2730.3000 8.5000 8.5470 0.0479 90.1927 173.9232 81.2197 0.2293 4.9138 0.8707 0.8723 2.2476 33.8135 0.8336 0.8807 0.8336
2730.5000 8.5000 8.5625 0.0485 88.9838 171.4942 63.2443 0.2178 5.1006 0.9890 0.9359 2.2735 34.5786 0.9795 1.0298 0.9795
2730.7000 8.5000 8.5781 0.0456 87.6199 168.5082 37.1328 0.1947 5.3648 1.1649 0.9906 2.3276 33.6265 1.4763 1.3472 1.4763
2730.9000 8.5000 8.6251 0.0487 86.2805 165.4119 31.5276 0.1739 5.7569 1.2918 1.0081 2.3909 30.9661 2.8075 1.7124 2.8075
2731.1000 8.5000 8.6718 0.0508 85.4228 162.9656 30.9300 0.1772 6.2364 1.3146 0.9899 2.4395 27.7428 3.8946 1.8776 3.8946
2731.3000 8.5000 8.5781 0.0476 85.1289 161.2837 30.9630 0.1905 6.3363 1.2396 0.9302 2.4773 25.7783 3.3295 1.7297 3.3295
2731.5000 8.5000 8.5780 0.0583 85.7745 161.5213 30.3672 0.2099 6.1922 1.2662 0.8550 2.5133 25.0665 2.6738 1.5290 2.6738
2731.7000 8.5000 8.5781 0.0758 86.9481 162.7659 29.7963 0.2655 6.0257 1.1333 0.8149 2.5035 25.2589 2.2786 1.3520 2.2786
2731.9000 8.5000 8.5780 0.0919 88.7801 165.2553 27.8063 0.3132 5.4029 0.7053 0.7132 2.4201 26.3149 1.3104 0.9336 1.3104
2732.1000 8.5000 8.5469 0.0796 90.0875 167.8905 26.8100 0.3163 4.7469 0.6401 0.6885 2.2787 28.2300 0.4677 0.5385 0.4677
2732.3000 8.5000 8.5469 0.0528 90.9865 170.4977 26.0898 0.2881 4.6527 0.6519 0.6786 2.1837 30.3803 0.5962 0.6204 0.5962
2732.5000 8.5000 8.5469 0.0435 91.2891 173.0230 27.1537 0.2707 4.7008 0.6508 0.6807 2.1608 32.5963 0.6406 0.6441 0.6406
2732.7000 8.5000 8.5469 0.0438 90.9205 174.5443 24.8376 0.2708 4.7056 0.6601 0.6905 2.1663 34.8684 0.6505 0.6578 0.6505
2732.9000 8.5000 8.5469 0.0425 90.0227 175.7410 25.5858 0.2645 4.8037 0.7224 0.7225 2.1773 30.7084 0.6521 0.6939 0.6521
2733.1000 8.5000 8.5469 0.0330 88.2609 176.6498 29.7641 0.2517 5.0863 0.8327 0.7611 2.2052 28.5937 0.6783 0.7553 0.6783
2733.3000 8.5000 8.5469 0.0205 86.9769 176.8384 33.7048 0.2155 5.3082 0.9635 0.7618 2.2657 28.5146 0.9563 0.9073 0.9563
2733.5000 8.5000 8.5469 0.0257 85.8741 176.9161 32.3012 0.1609 5.4392 1.0446 0.7667 2.3562 29.8967 1.3677 1.0752 1.3677
2733.7000 8.5000 8.5781 0.0416 84.9238 177.2064 34.5970 0.1193 5.6696 0.9233 0.7343 2.4351 31.3086 1.8154 1.1590 1.8154
2733.9000 8.5000 8.5781 0.0750 84.8706 177.7165 33.6499 0.1072 5.6278 0.8524 0.7197 2.4644 32.7492 1.0389 0.9366 1.0389
2734.1000 8.5000 8.5469 0.0953 85.8293 178.3767 35.4701 0.1453 5.2417 0.5655 0.6476 2.3896 33.5177 0.6444 0.6642 0.6444
2734.3000 8.5000 8.5469 0.0713 89.2681 179.2995 33.4238 0.2012 5.0019 0.5491 0.6280 2.2692 34.3027 0.5587 0.5865 0.5587
2734.5000 8.5000 8.5469 0.0495 92.4628 180.2043 34.0907 0.2389 4.8813 0.5360 0.5948 2.2141 35.1042 0.5725 0.5708 0.5725
2734.7000 8.5000 8.5469 0.0432 95.2592 181.0649 32.7567 0.2608 4.7693 0.5362 0.5682 2.2081 35.9437 0.5380 0.5486 0.5380
2734.9000 8.5000 8.5469 0.0462 96.6587 181.7519 32.9352 0.2666 4.7819 0.5219 0.5594 2.2101 36.4780 0.5180 0.5290 0.5180
2735.1000 8.5000 8.5469 0.0486 97.0738 182.3359 30.5004 0.2641 4.8709 0.5153 0.5566 2.2070 36.7085 0.5086 0.5254 0.5086
2735.3000 8.5000 8.5469 0.0480 96.8716 182.8126 29.7238 0.2687 4.8906 0.5401 0.5682 2.1998 36.7145 0.5510 0.5675 0.5510
2735.5000 8.5000 8.5470 0.0491 96.0845 182.9296 31.2832 0.2720 4.9359 0.6180 0.5900 2.1990 36.6980 0.5998 0.6098 0.5998
2735.7000 8.5000 8.5469 0.0514 95.2897 183.2852 33.6451 0.2676 5.0336 0.6011 0.5887 2.1999 36.6595 0.6247 0.6295 0.6247
2735.9000 8.5000 8.5469 0.0539 94.4861 183.7779 31.7668 0.2712 5.0464 0.6086 0.5841 2.1958 36.6655 0.6455 0.6465 0.6455
2736.1000 8.5000 8.5469 0.0501 93.6390 184.0114 30.9959 0.2837 4.9696 0.6193 0.5761 2.1892 36.5574 0.6718 0.6556 0.6718
2736.3000 8.5000 8.5469 0.0477 93.2455 184.1978 31.5290 0.2834 5.0253 0.6185 0.5637 2.1963 36.3365 0.6772 0.6462 0.6772
2736.5000 8.5000 8.5780 0.0503 93.2377 184.3396 34.8923 0.2682 5.1195 0.5600 0.5420 2.2102 36.5859 0.6372 0.6038 0.6372
2736.7000 8.5000 8.5470 0.0513 93.8547 184.2624 42.2488 0.2613 5.1274 0.4852 0.5133 2.2137 36.7132 0.4908 0.5071 0.4908
2736.9000 8.5000 8.5469 0.0501 94.7844 184.0318 44.8155 0.2674 5.1037 0.4656 0.5044 2.2158 36.7192 0.4374 0.4596 0.4374
2737.1000 8.5000 8.5780 0.0477 96.0202 183.6504 57.6290 0.2735 5.0850 0.4714 0.4993 2.2159 36.7254 0.4563 0.4601 0.4563
2737.3000 8.5000 8.5469 0.0485 96.9827 182.9503 68.4984 0.2767 5.0553 0.5043 0.4972 2.2154 36.7315 0.5404 0.4952 0.5404
2737.5000 8.5000 8.5469 0.0512 97.3239 182.1274 50.6635 0.2695 5.0011 0.4581 0.5053 2.2154 36.7374 0.4553 0.4434 0.4553
2737.7000 8.5000 8.5469 0.0522 96.9321 181.1661 35.1725 0.2706 4.9328 0.4131 0.5274 2.2189 36.6986 0.3195 0.3816 0.3195
2737.9000 8.5000 8.5470 0.0477 95.2571 180.0915 29.7558 0.2825 4.9664 0.4472 0.5493 2.2284 36.6824 0.3567 0.4092 0.3567
2738.1000 8.5000 8.5470 0.0414 93.7105 179.1612 27.5694 0.3028 5.2121 0.5520 0.5883 2.2433 36.6882 0.5478 0.5334 0.5478
2738.3000 8.5000 8.5781 0.0593 92.4855 178.4513 26.0964 0.3205 5.1965 0.5933 0.6159 2.2606 36.4652 0.6146 0.5963 0.6146
2738.5000 8.5000 8.5469 0.0646 91.4781 177.6150 24.9914 0.3230 4.8758 0.6209 0.6676 2.2215 33.8236 0.6242 0.6338 0.6242
2738.7000 8.5000 8.5781 0.0424 90.8268 177.0828 24.5135 0.2977 4.7135 0.6539 0.7126 2.1650 28.7850 0.6297 0.6555 0.6297
2738.9000 8.5000 8.5469 0.0355 90.7568 177.1192 24.7950 0.2765 4.7582 0.6888 0.7506 2.1691 28.8768 0.6534 0.6918 0.6534
2739.1000 8.5000 8.5781 0.0412 92.1865 177.7265 26.4413 0.2638 4.9260 0.7420 0.7948 2.1924 30.1351 0.6975 0.7441 0.6975
2739.3000 8.5000 8.5781 0.0495 94.4533 178.6889 25.5329 0.2633 5.0606 0.8169 0.8476 2.2099 32.5544 0.9010 0.8981 0.9010
2739.5000 8.5000 8.6249 0.0543 97.9127 180.1845 36.1923 0.2599 5.1024 0.8621 0.8797 2.2213 35.8872 1.0916 0.9825 1.0916
2739.7000 8.5000 8.6017 0.0554 102.0722 181.7225 57.7949 0.2632 5.1792 0.9642 0.9309 2.2302 38.8931 1.0247 0.9872 1.0247
2739.9000 8.5000 8.5781 0.0489 106.0924 183.3145 68.8583 0.2627 5.3455 1.0493 0.9837 2.2365 41.5502 1.0817 1.0523 1.0817
2740.1000 8.5000 8.5780 0.0405 109.2028 185.0237 67.4006 0.2420 5.4334 1.1072 1.0447 2.2625 27.6935 0.8925 1.0215 0.8925
2740.3000 8.5000 8.5233 0.0483 110.8132 186.0689 57.6250 0.2225 5.4428 1.1375 1.0754 2.3099 13.8367 0.8928 1.0405 0.8928
2740.5000 8.5000 8.5470 0.0531 111.3538 186.7980 56.3034 0.2316 5.7600 1.0930 1.0778 2.3318 0.0053 1.6399 1.3039 1.6399
2740.7000 8.5000 8.6249 0.0470 109.9327 187.2274 53.7049 0.2950 6.2023 1.2447 1.1605 2.3507 3.7080 1.2477 1.1646 1.2477
2740.9000 8.5000 8.5469 0.0498 107.3077 186.6317 56.5355 0.3396 6.3530 1.2689 1.1872 2.3828 9.5064 1.1245 1.1576 1.1245
2741.1000 8.5000 8.5781 0.0432 103.9304 185.5495 61.3826 0.3092 6.3991 1.2445 1.2550 2.4026 17.3892 1.1884 1.1978 1.1884
