~Version Information
VERS.                     2.0: CWLS log ASCII Standard Version 2.00
WRAP.                      NO: One line per depth step

~Well Information Block
#MNEM.UNIT                 Value                       Information
#------------              -----                       -----------
STRT.M                    145.9000                    :START
STOP.M                   4684.9000                    :STOP
STEP.M                      0.1000                    :STEP
NULL.                     -999.25                     :NULL VALUE
COMP.         STATOIL PETROLEUM AS                    :Company
WELL.         15/9-F-15 D                             :Well
FLD .         VOLVE                                   :Field
LOC .                                                 :Location
PROV.                                                 :Province
CNTY.         MAERSK INSPIRER                         :County
STATE.                                                 :State
CTRY.         NORWAY                                  :Country
DATE.                                                 :Log Date
SRVC.                                                 :Service Company
UWI .                                                 :Unique Well Identifier
API .                                                 :API Number
LATI.         058 26' 29.706" N    DMS                :Latitude
LONG.         001 53' 15.149" E    DMS                :Longtitude
PD  .         MSL                                     :Permanent Datum
EDF .M                54.9000                         :Elevations D.F.
EGL .M               -91.0000                         :Elevations G.L.
ELZ .M                54.9000                         :Elev. Log Zero
LMF .         DF                                      :Log Measured From
MP  .         DF                                      :Drill Measured From

~Curve Information
#MNEM   .UNIT             API CODE Curve Description
#------------             -------- -----------------
DEPTH   .M            00 001 00 00:   0  Depth
BS      .inches       00 000 00 00:   5  BS:COMPOSITE:rC:NONE:v1
CALI    .inches       70 280 00 01:   6  CALI:COMPOSITE:rC:NONE:v1
DRHO    .g/cm3        45 356 01 01:   7  DRHO:COMPOSITE:rC:NONE:v1
GR      .API          30 150 01 01:   8  GR:COMPOSITE:rC:NONE:v1
NPHI    .v/v          42 890 01 01:  10  NPHI:COMPOSITE:rC:NONE:v1
PEF     .b/elec       45 358 01 01:  11  PEF:COMPOSITE:rC:NONE:v1
RACEHM  .ohm.m        95 220 00 01:  12  RACEHM:COMPOSITE:rC:NONE:v1
RACELM  .ohm.m        00 524 01 00:  13  RACELM:COMPOSITE:rC:NONE:v1
RD      .ohm.m        00 000 00 00:  14  RD:COMPOSITE:rC:NONE:v1
RHOB    .g/cm3        45 350 01 01:  15  RHOB:COMPOSITE:rC:NONE:v1
ROP     .m/hr         00 000 00 00:  17  ROP:COMPOSITE:rC:NONE:v1
RPCEHM  .ohm.m        00 000 00 00:  18  RPCEHM:COMPOSITE:rC:NONE:v1
RPCELM  .ohm.m        00 000 00 00:  19  RPCELM:COMPOSITE:rC:NONE:v1
RT      .ohm.m        00 000 00 00:  20  RT:COMPOSITE:rC:NONE:v1

~Parameter Information
#MNEM.UNIT       Value           Description
#------------    -----           -----------
RUN .         .                 :Run Number

~Other Information
# Subset of the Equinor Volve composite LAS (BinWang0213/Course-PETE4241_19SP_ProjectCode Data/Petrophysics): unused columns removed; data rows copied verbatim. Thinned to every 2nd depth sample (0.2 m) for web delivery.
PETROPHYSICAL INTERPRETATION: INPUT

# --- LOG MNEMONICS AND UNITS ---
#Depth          ABDCQF01        ABDCQF02        ABDCQF03        ABDCQF04        BS              CALI            DRHO            GR              NBGRCFM         NPHI            PEF             RACEHM          RACELM          RD              RHOB            RM              ROP             RPCEHM          RPCELM          RT             
#M              g/cm3           g/cm3           g/cm3           g/cm3           inches          inches          g/cm3           API             API             v/v             b/elec          ohm.m           ohm.m           ohm.m           g/cm3           ohm.m           m/hr            ohm.m           ohm.m           ohm.m          

~A
# ...
1364.5000 26.0000 -999.25 -999.25 68.8903 -999.25 -999.25 0.4776 0.1033 -999.25 -999.25 23.3100 97543.4219 97036.4063 -999.25
1364.7000 26.0000 -999.25 -999.25 69.2016 -999.25 -999.25 0.4687 0.1003 -999.25 -999.25 23.1760 97515.7969 96971.5234 -999.25
1364.9000 26.0000 -999.25 -999.25 69.7282 -999.25 -999.25 0.4212 0.0895 -999.25 -999.25 22.8160 83500.8516 71299.4141 -999.25
1365.1000 26.0000 -999.25 -999.25 68.2418 -999.25 -999.25 0.3774 0.0825 -999.25 -999.25 22.2571 13897.4443 405.3193 -999.25
1365.3000 26.0000 -999.25 -999.25 68.0067 -999.25 -999.25 0.3301 0.0767 -999.25 -999.25 22.0117 702.5999 94.4551 -999.25
1365.5000 26.0000 -999.25 -999.25 67.7271 -999.25 -999.25 0.3039 0.0741 -999.25 -999.25 21.8627 472.2793 58.0734 -999.25
1365.7000 26.0000 -999.25 -999.25 68.1216 -999.25 -999.25 0.3120 0.0749 -999.25 -999.25 21.9439 471.5655 100.0659 -999.25
1365.9000 26.0000 -999.25 -999.25 69.4350 -999.25 -999.25 0.3190 0.0755 -999.25 -999.25 21.8911 564.0820 73.5485 -999.25
1366.1000 26.0000 -999.25 -999.25 69.8147 -999.25 -999.25 0.3135 0.0749 -999.25 -999.25 21.0089 495.2111 65.8186 -999.25
1366.3000 26.0000 -999.25 -999.25 69.0707 -999.25 -999.25 0.3108 0.0747 -999.25 -999.25 17.5733 66448.9453 16634.7852 -999.25
1366.5000 26.0000 -999.25 -999.25 67.2001 -999.25 -999.25 0.3044 0.0747 -999.25 -999.25 17.8727 97543.4219 96987.3828 -999.25
1366.7000 26.0000 -999.25 -999.25 66.6543 -999.25 -999.25 0.2985 0.0748 -999.25 -999.25 17.5379 82093.8906 40494.6875 -999.25
1366.9000 26.0000 -999.25 -999.25 65.7284 -999.25 -999.25 0.3229 0.0757 -999.25 -999.25 16.9155 97543.4219 97036.4063 -999.25
1367.1000 26.0000 -999.25 -999.25 62.5600 -999.25 -999.25 0.3537 0.0766 -999.25 -999.25 16.2233 97543.4219 97036.4063 -999.25
1367.3000 26.0000 -999.25 -999.25 58.0539 -999.25 -999.25 0.0907 0.3751 -999.25 -999.25 15.2240 97543.4219 96987.4688 -999.25
1367.5000 26.0000 -999.25 -999.25 59.0360 -999.25 -999.25 0.1030 0.1571 -999.25 -999.25 12.7380 26942.1152 313.8053 -999.25
1367.7000 26.0000 -999.25 -999.25 66.9094 -999.25 -999.25 0.7283 0.0862 -999.25 -999.25 12.5873 97274.4766 97036.4063 -999.25
1367.9000 26.0000 -999.25 -999.25 71.3055 -999.25 -999.25 2.7186 0.3725 -999.25 -999.25 11.8126 11.0623 97036.4063 -999.25
1368.1000 26.0000 -999.25 -999.25 70.8648 -999.25 -999.25 2.5709 1417.3004 -999.25 -999.25 10.6712 3.4635 80807.0469 -999.25
1368.3000 26.0000 -999.25 -999.25 67.8082 -999.25 -999.25 3.3316 4229.1328 -999.25 -999.25 10.0807 2.5347 56434.6445 -999.25
1368.5000 26.0000 -999.25 -999.25 63.9211 -999.25 -999.25 2.7191 1.9170 -999.25 -999.25 9.7674 2.9092 3.8310 -999.25
1368.7000 26.0000 -999.25 -999.25 60.8316 -999.25 -999.25 2.4354 2.3414 -999.25 -999.25 9.5635 2.3757 2.5779 -999.25
1368.9000 26.0000 -999.25 -999.25 58.8013 -999.25 -999.25 2.4295 2.4819 -999.25 -999.25 9.8112 2.6841 2.7798 -999.25
1369.1000 26.0000 -999.25 -999.25 57.4030 -999.25 -999.25 3.2604 2.6784 -999.25 -999.25 10.3447 2.7768 2.9574 -999.25
1369.3000 26.0000 -999.25 -999.25 55.7391 -999.25 -999.25 3.4738 2.7264 -999.25 -999.25 10.4617 3.5064 3.3983 -999.25
1369.5000 26.0000 -999.25 -999.25 52.8722 -999.25 -999.25 3.4752 2.7271 -999.25 -999.25 11.0201 4.7720 3.9534 -999.25
1369.7000 26.0000 -999.25 -999.25 50.0611 -999.25 -999.25 3.5024 2.7242 -999.25 -999.25 11.3554 6.7691 4.6051 -999.25
1369.9000 26.0000 -999.25 -999.25 48.0418 -999.25 -999.25 3.3798 2.6805 -999.25 -999.25 11.5971 8.6047 4.9821 -999.25
1370.1000 26.0000 -999.25 -999.25 46.4022 -999.25 -999.25 3.3022 2.6339 -999.25 -999.25 11.9073 9.8245 5.0754 -999.25
1370.3000 26.0000 -999.25 -999.25 45.1093 -999.25 -999.25 3.2072 2.5898 -999.25 -999.25 12.2136 10.5878 5.0165 -999.25
1370.5000 26.0000 -999.25 -999.25 45.2472 -999.25 -999.25 3.1662 2.5676 -999.25 -999.25 12.5675 10.8681 4.9230 -999.25
1370.7000 26.0000 -999.25 -999.25 45.7296 -999.25 -999.25 3.2839 2.5968 -999.25 -999.25 13.2455 10.6246 4.8813 -999.25
1370.9000 26.0000 -999.25 -999.25 46.4305 -999.25 -999.25 3.4885 2.6686 -999.25 -999.25 14.1365 9.8213 4.8896 -999.25
1371.1000 26.0000 -999.25 -999.25 48.1941 -999.25 -999.25 3.6347 2.7246 -999.25 -999.25 15.2161 9.7819 4.9983 -999.25
1371.3000 26.0000 -999.25 -999.25 49.3310 -999.25 -999.25 3.7383 2.7706 -999.25 -999.25 16.0753 9.8631 5.1338 -999.25
1371.5000 26.0000 -999.25 -999.25 49.7054 -999.25 -999.25 3.8600 2.8264 -999.25 -999.25 16.8955 9.1744 5.1116 -999.25
1371.7000 26.0000 -999.25 -999.25 49.9373 -999.25 -999.25 4.0920 2.9143 -999.25 -999.25 17.3989 8.1479 5.0204 -999.25
1371.9000 26.0000 -999.25 -999.25 50.0647 -999.25 -999.25 4.1879 2.9876 -999.25 -999.25 17.5836 7.5209 5.0043 -999.25
1372.1000 26.0000 -999.25 -999.25 50.8704 -999.25 -999.25 4.2582 3.0331 -999.25 -999.25 17.4722 7.7185 5.2269 -999.25
1372.3000 26.0000 -999.25 -999.25 51.0407 -999.25 -999.25 4.6716 3.1172 -999.25 -999.25 17.1311 8.4344 5.7103 -999.25
1372.5000 26.0000 -999.25 -999.25 50.7947 -999.25 -999.25 5.2186 3.2172 -999.25 -999.25 16.5432 8.6265 6.0385 -999.25
1372.7000 26.0000 -999.25 -999.25 49.7946 -999.25 -999.25 5.3508 3.2968 -999.25 -999.25 16.0922 8.1546 6.0696 -999.25
1372.9000 26.0000 -999.25 -999.25 50.0595 -999.25 -999.25 5.2578 3.3567 -999.25 -999.25 15.5420 7.7525 6.1350 -999.25
1373.1000 26.0000 -999.25 -999.25 50.0734 -999.25 -999.25 5.1993 3.3867 -999.25 -999.25 14.8325 7.8050 6.3320 -999.25
1373.3000 26.0000 -999.25 -999.25 49.8167 -999.25 -999.25 4.9261 3.3592 -999.25 -999.25 14.3358 8.7108 6.6687 -999.25
1373.5000 26.0000 -999.25 -999.25 49.5608 -999.25 -999.25 4.7906 3.3178 -999.25 -999.25 14.0638 10.6521 7.1926 -999.25
1373.7000 26.0000 -999.25 -999.25 49.8594 -999.25 -999.25 4.9663 3.3057 -999.25 -999.25 13.8751 12.8493 7.7385 -999.25
1373.9000 26.0000 -999.25 -999.25 49.7534 -999.25 -999.25 4.9640 3.2283 -999.25 -999.25 13.9031 19.3234 8.7794 -999.25
1374.1000 26.0000 -999.25 -999.25 51.9929 -999.25 -999.25 5.0378 3.2230 -999.25 -999.25 14.1765 23.0448 9.4436 -999.25
1374.3000 26.0000 -999.25 -999.25 55.9864 -999.25 -999.25 4.9539 3.2557 -999.25 -999.25 14.4236 28.6275 10.2769 -999.25
1374.5000 26.0000 -999.25 -999.25 59.9804 -999.25 -999.25 5.1862 3.3173 -999.25 -999.25 14.7520 36.1653 11.0934 -999.25
1374.7000 26.0000 -999.25 -999.25 64.6740 -999.25 -999.25 5.5177 3.3840 -999.25 -999.25 14.9596 44.6003 11.8315 -999.25
1374.9000 26.0000 -999.25 -999.25 66.7693 -999.25 -999.25 5.8429 3.4510 -999.25 -999.25 15.3108 50.2940 12.2914 -999.25
1375.1000 26.0000 -999.25 -999.25 65.5364 -999.25 -999.25 6.1196 3.5141 -999.25 -999.25 15.9366 52.9666 12.6867 -999.25
1375.3000 26.0000 -999.25 -999.25 65.1995 -999.25 -999.25 6.1064 3.5580 -999.25 -999.25 16.7425 52.7083 12.5086 -999.25
1375.5000 26.0000 -999.25 -999.25 64.8316 -999.25 -999.25 6.4042 3.5500 -999.25 -999.25 17.2728 58.2932 12.6320 -999.25
1375.7000 26.0000 -999.25 -999.25 58.4549 -999.25 -999.25 6.4007 3.4540 -999.25 -999.25 17.6293 100.8387 12.5676 -999.25
1375.9000 26.0000 -999.25 -999.25 57.1235 -999.25 -999.25 6.0013 3.3905 -999.25 -999.25 18.0986 88.4182 11.7953 -999.25
1376.1000 26.0000 -999.25 -999.25 53.8306 -999.25 -999.25 5.4502 3.3033 -999.25 -999.25 18.8484 56.1734 10.5225 -999.25
1376.3000 26.0000 -999.25 -999.25 55.9062 -999.25 -999.25 4.8730 3.1420 -999.25 -999.25 19.4528 47.2928 9.2410 -999.25
1376.5000 26.0000 -999.25 -999.25 59.7579 -999.25 -999.25 4.5778 2.9968 -999.25 -999.25 19.6102 34.6791 8.3110 -999.25
1376.7000 26.0000 -999.25 -999.25 60.2603 -999.25 -999.25 4.2973 2.8353 -999.25 -999.25 19.6055 23.9930 7.4090 -999.25
1376.9000 26.0000 -999.25 -999.25 64.5298 -999.25 -999.25 4.2719 2.6786 -999.25 -999.25 18.9881 15.7009 6.2881 -999.25
1377.1000 26.0000 -999.25 -999.25 66.3745 -999.25 -999.25 3.7366 2.4833 -999.25 -999.25 11.9262 14.8316 5.6240 -999.25
1377.3000 26.0000 -999.25 -999.25 69.5790 -999.25 -999.25 3.2490 2.2820 -999.25 -999.25 11.4219 15.5369 5.0254 -999.25
1377.5000 26.0000 -999.25 -999.25 68.0754 -999.25 -999.25 2.8109 2.1105 -999.25 -999.25 11.6134 16.3150 4.5239 -999.25
1377.7000 26.0000 -999.25 -999.25 71.2996 -999.25 -999.25 2.7545 1.9552 -999.25 -999.25 11.5109 15.5424 4.1263 -999.25
