~Version Information
VERS.                     2.0: CWLS log ASCII Standard Version 2.00
WRAP.                      NO: One line per depth step

~Well Information Block
#MNEM.UNIT                 Value                       Information
#------------              -----                       -----------
STRT.M                    145.9000                    :START
STOP.M                   4684.9000                    :STOP
STEP.M                      0.1000                    :STEP
NULL.                     -999.25                     :NULL VALUE
COMP.         STATOIL PETROLEUM AS                    :Company
WELL.         15/9-F-15 D                             :Well
FLD .         VOLVE                                   :Field
LOC .                                                 :Location
PROV.                                                 :Province
CNTY.         MAERSK INSPIRER                         :County
STATE.                                                 :State
CTRY.         NORWAY                                  :Country
DATE.                                                 :Log Date
SRVC.                                                 :Service Company
UWI .                                                 :Unique Well Identifier
API .                                                 :API Number
LATI.         058 26' 29.706" N    DMS                :Latitude
LONG.         001 53' 15.149" E    DMS                :Longtitude
PD  .         MSL                                     :Permanent Datum
EDF .M                54.9000                         :Elevations D.F.
EGL .M               -91.0000                         :Elevations G.L.
ELZ .M                54.9000                         :Elev. Log Zero
LMF .         DF                                      :Log Measured From
MP  .         DF                                      :Drill Measured From

~Curve Information
#MNEM   .UNIT             API CODE Curve Description
#------------             -------- -----------------
DEPTH   .M            00 001 00 00:   0  Depth
BS      .inches       00 000 00 00:   5  BS:COMPOSITE:rC:NONE:v1
CALI    .inches       70 280 00 01:   6  CALI:COMPOSITE:rC:NONE:v1
DRHO    .g/cm3        45 356 01 01:   7  DRHO:COMPOSITE:rC:NONE:v1
GR      .API          30 150 01 01:   8  GR:COMPOSITE:rC:NONE:v1
NPHI    .v/v          42 890 01 01:  10  NPHI:COMPOSITE:rC:NONE:v1
PEF     .b/elec       45 358 01 01:  11  PEF:COMPOSITE:rC:NONE:v1
RACEHM  .ohm.m        95 220 00 01:  12  RACEHM:COMPOSITE:rC:NONE:v1
RACELM  .ohm.m        00 524 01 00:  13  RACELM:COMPOSITE:rC:NONE:v1
RD      .ohm.m        00 000 00 00:  14  RD:COMPOSITE:rC:NONE:v1
RHOB    .g/cm3        45 350 01 01:  15  RHOB:COMPOSITE:rC:NONE:v1
ROP     .m/hr         00 000 00 00:  17  ROP:COMPOSITE:rC:NONE:v1
RPCEHM  .ohm.m        00 000 00 00:  18  RPCEHM:COMPOSITE:rC:NONE:v1
RPCELM  .ohm.m        00 000 00 00:  19  RPCELM:COMPOSITE:rC:NONE:v1
RT      .ohm.m        00 000 00 00:  20  RT:COMPOSITE:rC:NONE:v1

~Parameter Information
#MNEM.UNIT       Value           Description
#------------    -----           -----------
RUN .         .                 :Run Number

~Other Information
# Subset of the Equinor Volve composite LAS (BinWang0213/Course-PETE4241_19SP_ProjectCode Data/Petrophysics): unused columns removed; data rows copied verbatim. Thinned to every 2nd depth sample (0.2 m) for web delivery.
PETROPHYSICAL INTERPRETATION: INPUT

# --- LOG MNEMONICS AND UNITS ---
#Depth          ABDCQF01        ABDCQF02        ABDCQF03        ABDCQF04        BS              CALI            DRHO            GR              NBGRCFM         NPHI            PEF             RACEHM          RACELM          RD              RHOB            RM              ROP             RPCEHM          RPCELM          RT             
#M              g/cm3           g/cm3           g/cm3           g/cm3           inches          inches          g/cm3           API             API             v/v             b/elec          ohm.m           ohm.m           ohm.m           g/cm3           ohm.m           m/hr            ohm.m           ohm.m           ohm.m          

~A
# ...
3550.3000 8.5000 8.5000 0.0301 27.0733 0.1838 4.7764 10.4333 6.2618 13.3908 2.2232 31.7436 31.1338 13.3908 31.7299
3550.5000 8.5000 8.5000 0.0309 26.0548 0.1830 4.8271 11.3184 6.2286 14.0474 2.2301 31.7459 39.1280 14.0472 39.7066
3550.7000 8.5000 8.5000 0.0331 27.3201 0.1851 4.9522 12.2812 6.2433 15.2299 2.2456 31.7508 48.3516 15.2297 49.0588
3550.9000 8.5000 8.5000 0.0354 28.3529 0.1922 5.0794 13.6449 6.2362 16.3551 2.2794 31.6617 64.6542 16.3550 64.0520
3551.1000 8.5000 8.5003 0.0382 28.3344 0.1952 5.2624 14.6280 6.1586 17.2546 2.3235 31.5192 80.5082 17.2545 89.3249
3551.3000 8.5000 8.5469 0.0300 28.2680 0.1985 5.4975 16.5682 6.0849 18.8889 2.3613 31.7098 124.3974 18.8887 141.4771
3551.5000 8.5000 8.5469 0.0145 29.8096 0.2030 5.7136 20.2864 6.1025 20.5620 2.3897 31.7475 327.5909 20.5617 5564.6509
3551.7000 8.5000 8.5469 0.0205 29.6725 0.1992 5.5986 31.4361 6.0292 23.7878 2.4075 31.7357 62290.7695 23.7870 57874.8477
3551.9000 8.5000 8.5469 0.0293 29.4150 0.1860 5.2906 91.2952 6.0630 27.6262 2.3991 31.7215 62290.7695 27.6263 62290.7695
3552.1000 8.5000 8.5469 0.0268 33.3822 0.1806 5.1901 3386.0793 6.1655 28.0651 2.3754 31.7093 62290.7695 28.0648 62290.7695
3552.3000 8.5000 8.5000 0.0268 36.0994 0.1847 5.1659 6381.0991 6.1615 30.4167 2.3629 31.7016 62290.7695 30.4164 62290.7695
3552.5000 8.5000 8.5000 0.0332 38.5347 0.1810 5.1661 3466.9651 6.2362 30.2927 2.3593 31.7064 62290.7695 30.2932 62236.5195
3552.7000 8.5000 8.5000 0.0387 39.7056 0.1737 5.1161 77.7974 6.3499 26.5205 2.3540 31.7118 542.3975 26.5208 22426.5059
3552.9000 8.5000 8.5000 0.0420 40.3330 0.1700 4.9821 6381.0991 6.4656 25.7370 2.3477 31.7263 357.1769 25.7369 336.9554
3553.1000 8.5000 8.5000 0.0441 40.6417 0.1736 4.9365 6342.6719 6.6225 24.3652 2.3374 31.7962 150.4883 24.3669 128.8058
3553.3000 8.5000 8.5000 0.0462 39.5977 0.1790 5.0619 15.3324 7.2257 12.4095 2.3304 31.8152 22.6091 12.4097 40.6629
3553.5000 8.5000 8.5000 0.0459 40.1586 0.1808 5.1796 15.5174 7.9317 12.5044 2.3254 31.8070 18.1377 12.5043 17.6434
3553.7000 8.5000 8.5000 0.0407 41.5557 0.1857 5.2328 14.6852 7.9236 12.4364 2.3295 31.7928 18.5433 12.4364 18.1925
3553.9000 8.5000 8.5000 0.0364 40.7692 0.1920 5.4334 15.5260 8.3319 12.2476 2.3665 31.7803 16.2390 12.2475 18.2078
3554.1000 8.5000 8.5003 0.0402 40.5562 0.1946 5.6747 12.4496 8.1741 12.6349 2.4272 31.7679 20.0440 12.6350 19.0897
3554.3000 8.5000 8.5469 0.0320 40.7648 0.1932 5.8539 12.2232 9.0256 11.4091 2.4530 31.7521 12.9407 11.4092 13.0290
3554.5000 8.5000 8.5469 0.0210 41.3939 0.1950 6.0240 11.6918 9.3413 11.2078 2.4577 31.7379 12.2702 11.2079 12.2444
3554.7000 8.5000 8.5469 0.0210 42.8872 0.1969 6.0730 11.7544 9.5783 10.7586 2.4709 31.7243 11.3969 10.7587 11.1220
3554.9000 8.5000 8.5471 0.0224 43.9794 0.1980 6.1210 11.5106 9.8576 10.4395 2.4882 31.7124 10.3964 10.4395 10.3839
3555.1000 8.5000 8.5779 0.0252 47.4696 0.2042 6.2407 11.2703 9.9177 10.3108 2.5113 31.6983 10.1961 10.3108 10.2718
3555.3000 8.5000 8.5469 0.0315 49.2804 0.2040 6.3305 10.7860 9.6708 10.5719 2.5333 31.6412 10.6102 10.5719 10.8394
3555.5000 8.5000 8.5469 0.0443 49.7534 0.2119 6.3922 10.4338 9.1976 10.1032 2.5615 31.5165 10.3167 10.1033 10.0294
3555.7000 8.5000 8.5469 0.0577 51.6336 0.2251 6.3756 9.6119 10.0437 9.1654 2.5818 31.1982 8.0558 9.1656 7.7648
3555.9000 8.5000 8.5469 0.0595 58.2516 0.2320 6.2704 10.5692 10.9536 8.0619 2.5756 30.7654 6.4093 8.0619 6.7905
3556.1000 8.5000 8.5469 0.0591 61.7276 0.2362 6.2405 10.7992 11.3467 8.0782 2.5649 30.3607 6.3789 8.0781 6.6898
3556.3000 8.5000 8.5469 0.0606 63.0212 0.2359 6.2351 9.4164 10.6091 9.0069 2.5542 29.9770 8.3360 9.0070 8.1904
3556.5000 8.5000 8.5469 0.0536 67.3556 0.2406 6.2417 10.4371 12.1244 7.6758 2.5407 29.7941 5.8475 7.6759 6.1000
3556.7000 8.5000 8.5469 0.0427 71.7406 0.2456 6.3528 12.7652 13.3420 7.4154 2.5377 29.6952 5.5097 7.4153 5.4095
3556.9000 8.5000 8.5469 0.0367 72.9902 0.2510 6.4722 10.0604 12.8792 7.5500 2.5452 29.5977 5.6421 7.5499 5.7810
3557.1000 8.5000 8.5469 0.0296 76.1454 0.2670 6.6173 7.9541 11.8117 8.1314 2.5567 29.5092 6.4869 8.1315 6.1213
3557.3000 8.5000 8.5469 0.0228 78.4920 0.2858 6.9073 8.0111 12.4733 7.6022 2.5768 29.4502 5.7884 7.6022 5.8709
3557.5000 8.5000 8.5469 0.0319 78.8476 0.2889 7.0434 8.1197 12.3802 7.7685 2.5968 29.4071 6.0188 7.7686 5.8723
3557.7000 8.5000 8.5469 0.0371 80.4166 0.2874 6.9301 7.2136 12.4266 7.3506 2.5917 29.3776 5.3603 7.3507 5.2622
3557.9000 8.5000 8.5469 0.0326 82.4192 0.2828 6.9073 6.8688 12.5018 6.9292 2.5849 29.3447 5.1400 6.9293 4.9933
3558.1000 8.5000 8.5469 0.0351 83.9921 0.2701 7.0583 6.6402 12.7063 6.8539 2.5990 29.3512 4.8161 6.8539 5.0492
3558.3000 8.5000 8.5469 0.0277 84.5476 0.2714 7.3660 7.2618 11.9553 7.5455 2.6186 29.3713 5.9975 7.5453 6.3496
3558.5000 8.5000 8.5469 0.0085 86.6580 0.2775 7.7540 7.5984 11.5823 7.8864 2.6374 29.3601 5.7996 7.8867 5.5435
3558.7000 8.5000 8.5469 -0.0101 86.9877 0.2686 7.9853 8.4832 13.3320 6.4376 2.6451 29.3453 4.2130 6.4373 4.7299
3558.9000 8.5000 8.5469 -0.0174 85.9294 0.2471 8.1924 9.5145 11.3361 8.1283 2.6467 29.3360 6.7626 8.1281 6.8395
3559.1000 8.5000 8.5471 -0.0306 86.0654 0.2219 8.6877 11.1539 11.0489 9.2007 2.6251 29.3757 7.9874 9.2000 10.1218
3559.3000 8.5000 8.5779 -0.0251 86.4009 0.2054 8.7114 9.6412 9.2221 13.3079 2.6107 29.3852 16.8115 13.3085 14.4594
3559.5000 8.5000 8.5469 0.0117 81.1552 0.1952 7.9895 20.9556 13.7834 8.5999 2.6228 29.3506 6.1904 8.5996 6.5653
3559.7000 8.5000 8.5469 0.0311 75.7597 0.1873 7.5387 32.6431 11.2877 13.7529 2.6000 29.1936 12.9990 13.7510 17.5690
3559.9000 8.5000 8.5469 0.0172 71.8028 0.1758 7.3150 128.8503 10.0068 20.9715 2.5162 29.2251 22.0397 20.9697 24.2907
3560.1000 8.5000 8.5469 0.0057 67.3041 0.1671 7.0866 6381.0991 9.4034 40.9686 2.4392 29.4072 37.1707 40.9620 95.8522
3560.3000 8.5000 8.5469 0.0171 62.9173 0.1686 6.8430 6381.0991 8.7085 68.7777 2.4032 29.3871 62290.7695 68.7775 34376.6016
3560.5000 8.5000 8.5469 0.0261 61.7455 0.1699 6.4503 6381.0991 8.6126 70.1129 2.3725 29.3651 62290.7695 70.1128 62290.7695
3560.7000 8.5000 8.5469 0.0321 62.0361 0.1671 6.1838 6381.0991 8.2313 71.4482 2.3501 29.3457 62290.7695 71.4481 62290.7695
3560.9000 8.5000 8.5469 0.0452 57.4866 0.1647 5.9651 6381.0991 8.1214 72.7834 2.3342 29.3719 62290.7695 72.7832 62290.7695
3561.1000 8.5000 8.5469 0.0568 48.9728 0.1635 5.5399 6381.0991 8.1073 74.1186 2.2993 29.3521 62290.7695 74.1185 62290.7695
3561.3000 8.5000 8.5000 0.0542 43.0329 0.1663 5.1927 6381.0991 7.9844 75.4538 2.2559 29.3350 62290.7695 75.4537 62290.7695
3561.5000 8.5000 8.5000 0.0456 35.8810 0.1661 5.1106 6381.0991 7.7864 76.7891 2.2372 29.3735 62290.7695 76.7889 62290.7695
3561.7000 8.5000 8.5003 0.0411 27.1746 0.1616 5.1960 6381.0991 7.5302 78.1243 2.2482 29.3711 62290.7695 78.1242 58698.7969
3561.9000 8.5000 8.5000 0.0272 18.1050 0.1628 5.4662 6381.0991 8.3272 79.2522 2.2673 29.3302 881.3477 79.2600 7961.3413
3562.1000 8.5000 8.5003 0.0134 11.4161 0.1600 5.7823 6362.7104 8.7402 44.5322 2.2843 29.1682 83.5891 44.5324 88.9915
3562.3000 8.5000 8.5469 0.0188 10.5498 0.1509 5.8186 139.7067 8.7941 42.7098 2.2910 29.2433 102.3449 42.7098 108.8097
3562.5000 8.5000 8.5469 0.0357 9.1453 0.1518 5.4552 66.5991 8.8676 42.7199 2.2809 29.3862 116.0355 42.7195 118.2527
3562.7000 8.5000 8.5233 0.0404 7.6498 0.1609 5.1443 57.9232 9.0400 43.7010 2.2524 29.3816 133.0756 43.7013 131.2741
3562.9000 8.5000 8.5003 0.0326 8.3374 0.1594 5.0328 41.2565 9.1382 41.5519 2.2265 29.3686 114.9907 41.5526 111.0380
3563.1000 8.5000 8.5469 0.0288 8.6161 0.1532 4.9235 28.0068 9.3314 35.8824 2.2163 29.3656 79.8596 35.8827 82.0081
3563.3000 8.5000 8.5469 0.0289 8.0370 0.1515 4.8082 26.8080 9.4105 32.7474 2.2114 29.4054 63.3155 32.7479 61.8920
3563.5000 8.5000 8.5469 0.0300 7.6952 0.1537 4.6716 26.0651 9.5875 31.8448 2.2081 29.4020 55.1297 31.8441 65.7492
3563.7000 8.5000 8.5469 0.0304 8.0195 0.1534 4.5906 26.1728 9.5109 35.3377 2.2083 29.3705 78.9831 35.3375 78.5242
3563.9000 8.5000 8.5000 0.0307 7.0569 0.1516 4.5734 26.8729 9.3356 39.9516 2.2092 29.3440 89.0558 39.9518 87.2424
