~Version Information
VERS.                     2.0: CWLS log ASCII Standard Version 2.00
WRAP.                      NO: One line per depth step

~Well Information Block
#MNEM.UNIT                 Value                       Information
#------------              -----                       -----------
STRT.M                    145.9000                    :START
STOP.M                   4684.9000                    :STOP
STEP.M                      0.1000                    :STEP
NULL.                     -999.25                     :NULL VALUE
COMP.         STATOIL PETROLEUM AS                    :Company
WELL.         15/9-F-15 D                             :Well
FLD .         VOLVE                                   :Field
LOC .                                                 :Location
PROV.                                                 :Province
CNTY.         MAERSK INSPIRER                         :County
STATE.                                                 :State
CTRY.         NORWAY                                  :Country
DATE.                                                 :Log Date
SRVC.                                                 :Service Company
UWI .                                                 :Unique Well Identifier
API .                                                 :API Number
LATI.         058 26' 29.706" N    DMS                :Latitude
LONG.         001 53' 15.149" E    DMS                :Longtitude
PD  .         MSL                                     :Permanent Datum
EDF .M                54.9000                         :Elevations D.F.
EGL .M               -91.0000                         :Elevations G.L.
ELZ .M                54.9000                         :Elev. Log Zero
LMF .         DF                                      :Log Measured From
MP  .         DF                                      :Drill Measured From

~Curve Information
#MNEM   .UNIT             API CODE Curve Description
#------------             -------- -----------------
DEPTH   .M            00 001 00 00:   0  Depth
BS      .inches       00 000 00 00:   5  BS:COMPOSITE:rC:NONE:v1
CALI    .inches       70 280 00 01:   6  CALI:COMPOSITE:rC:NONE:v1
DRHO    .g/cm3        45 356 01 01:   7  DRHO:COMPOSITE:rC:NONE:v1
GR      .API          30 150 01 01:   8  GR:COMPOSITE:rC:NONE:v1
NPHI    .v/v          42 890 01 01:  10  NPHI:COMPOSITE:rC:NONE:v1
PEF     .b/elec       45 358 01 01:  11  PEF:COMPOSITE:rC:NONE:v1
RACEHM  .ohm.m        95 220 00 01:  12  RACEHM:COMPOSITE:rC:NONE:v1
RACELM  .ohm.m        00 524 01 00:  13  RACELM:COMPOSITE:rC:NONE:v1
RD      .ohm.m        00 000 00 00:  14  RD:COMPOSITE:rC:NONE:v1
RHOB    .g/cm3        45 350 01 01:  15  RHOB:COMPOSITE:rC:NONE:v1
ROP     .m/hr         00 000 00 00:  17  ROP:COMPOSITE:rC:NONE:v1
RPCEHM  .ohm.m        00 000 00 00:  18  RPCEHM:COMPOSITE:rC:NONE:v1
RPCELM  .ohm.m        00 000 00 00:  19  RPCELM:COMPOSITE:rC:NONE:v1
RT      .ohm.m        00 000 00 00:  20  RT:COMPOSITE:rC:NONE:v1

~Parameter Information
#MNEM.UNIT       Value           Description
#------------    -----           -----------
RUN .         .                 :Run Number

~Other Information
# Subset of the Equinor Volve composite LAS (BinWang0213/Course-PETE4241_19SP_ProjectCode Data/Petrophysics): unused columns removed; data rows copied verbatim. Thinned to every 2nd depth sample (0.2 m) for web delivery.
PETROPHYSICAL INTERPRETATION: INPUT

# --- LOG MNEMONICS AND UNITS ---
#Depth          ABDCQF01        ABDCQF02        ABDCQF03        ABDCQF04        BS              CALI            DRHO            GR              NBGRCFM         NPHI            PEF             RACEHM          RACELM          RD              RHOB            RM              ROP             RPCEHM          RPCELM          RT             
#M              g/cm3           g/cm3           g/cm3           g/cm3           inches          inches          g/cm3           API             API             v/v             b/elec          ohm.m           ohm.m           ohm.m           g/cm3           ohm.m           m/hr            ohm.m           ohm.m           ohm.m          

~A
# ...
1585.1000 17.5000 -999.25 -999.25 86.2526 -999.25 -999.25 1.0664 1.0592 1.0146 -999.25 30.1607 1.0099 1.0146 1.0082
1585.3000 17.5000 -999.25 -999.25 79.2243 -999.25 -999.25 1.0682 1.0667 1.0233 -999.25 30.4681 1.0276 1.0233 1.0250
1585.5000 17.5000 -999.25 -999.25 81.5955 -999.25 -999.25 1.0773 1.0754 1.0284 -999.25 30.6592 1.0222 1.0284 1.0232
1585.7000 17.5000 -999.25 -999.25 83.9097 -999.25 -999.25 1.0851 1.0824 1.0429 -999.25 30.8693 1.0397 1.0429 1.0386
1585.9000 17.5000 -999.25 -999.25 79.2088 -999.25 -999.25 1.1008 1.0912 1.0634 -999.25 31.0540 1.0547 1.0634 1.0701
1586.1000 17.5000 -999.25 -999.25 68.2162 -999.25 -999.25 1.1274 1.0867 1.1042 -999.25 31.0671 1.1313 1.1042 1.1852
1586.3000 17.5000 -999.25 -999.25 71.8548 -999.25 -999.25 1.0998 1.0669 1.1318 -999.25 30.8687 1.2858 1.1318 1.1752
1586.5000 17.5000 -999.25 -999.25 76.2607 -999.25 -999.25 1.1008 1.0663 1.0356 -999.25 30.9353 1.0236 1.0356 1.0253
1586.7000 17.5000 -999.25 -999.25 82.3187 -999.25 -999.25 1.0521 1.0517 0.9977 -999.25 31.0069 0.9723 0.9977 0.9666
1586.9000 17.5000 -999.25 -999.25 81.9735 -999.25 -999.25 1.0223 1.0274 0.9673 -999.25 30.5122 0.9438 0.9673 0.9411
1587.1000 17.5000 -999.25 -999.25 86.2029 -999.25 -999.25 1.0063 1.0122 0.9431 -999.25 30.0911 0.9192 0.9431 0.9144
1587.3000 17.5000 -999.25 -999.25 82.9810 -999.25 -999.25 0.9839 0.9989 0.9142 -999.25 29.6898 0.8791 0.9142 0.8762
1587.5000 17.5000 -999.25 -999.25 80.4974 -999.25 -999.25 0.9684 0.9934 0.9092 -999.25 29.6952 0.8690 0.9092 0.8643
1587.7000 17.5000 -999.25 -999.25 81.3243 -999.25 -999.25 0.9667 0.9873 0.9034 -999.25 29.7388 0.8600 0.9034 0.8625
1587.9000 17.5000 -999.25 -999.25 83.4658 -999.25 -999.25 0.9677 0.9848 0.9121 -999.25 29.8386 0.8777 0.9121 0.8796
1588.1000 17.5000 -999.25 -999.25 82.8945 -999.25 -999.25 0.9823 0.9908 0.9210 -999.25 30.0183 0.8869 0.9210 0.8881
1588.3000 17.5000 -999.25 -999.25 79.4485 -999.25 -999.25 0.9972 0.9965 0.9427 -999.25 30.2479 0.9131 0.9427 0.9147
1588.5000 17.5000 -999.25 -999.25 72.2640 -999.25 -999.25 1.0097 0.9972 0.9649 -999.25 30.5652 0.9646 0.9649 0.9704
1588.7000 17.5000 -999.25 -999.25 74.6490 -999.25 -999.25 1.0359 1.0027 0.9898 -999.25 30.7652 0.9957 0.9898 0.9943
1588.9000 17.5000 -999.25 -999.25 77.6423 -999.25 -999.25 1.0385 1.0036 0.9942 -999.25 30.9443 1.0033 0.9942 1.0002
1589.1000 17.5000 -999.25 -999.25 80.7515 -999.25 -999.25 1.0292 0.9995 0.9796 -999.25 31.1079 0.9851 0.9796 0.9795
1589.3000 17.5000 -999.25 -999.25 87.4666 -999.25 -999.25 1.0148 0.9967 0.9634 -999.25 31.1054 0.9545 0.9634 0.9418
1589.5000 17.5000 -999.25 -999.25 86.5080 -999.25 -999.25 0.9970 0.9950 0.9432 -999.25 31.0920 0.9211 0.9432 0.9268
1589.7000 17.5000 -999.25 -999.25 87.4998 -999.25 -999.25 0.9914 0.9890 0.9442 -999.25 31.0898 0.9308 0.9442 0.9296
1589.9000 17.5000 -999.25 -999.25 87.3001 -999.25 -999.25 1.0101 0.9905 0.9426 -999.25 31.1343 0.9265 0.9426 0.9281
1590.1000 17.5000 -999.25 -999.25 85.3809 -999.25 -999.25 1.0149 0.9903 0.9534 -999.25 31.2996 0.9411 0.9534 0.9484
1590.3000 17.5000 -999.25 -999.25 83.8674 -999.25 -999.25 1.0051 0.9860 0.9640 -999.25 31.5064 0.9677 0.9640 0.9587
1590.5000 17.5000 -999.25 -999.25 83.3598 -999.25 -999.25 0.9963 0.9852 0.9407 -999.25 31.8059 0.9210 0.9407 0.9163
1590.7000 17.5000 -999.25 -999.25 80.3071 -999.25 -999.25 0.9928 0.9882 0.9304 -999.25 32.1205 0.9031 0.9304 0.9128
1590.9000 17.5000 -999.25 -999.25 79.6298 -999.25 -999.25 0.9909 0.9869 0.9470 -999.25 32.2735 0.9353 0.9470 0.9351
1591.1000 17.5000 -999.25 -999.25 76.7310 -999.25 -999.25 1.0017 0.9869 0.9587 -999.25 31.5274 0.9578 0.9587 0.9611
1591.3000 17.5000 -999.25 -999.25 77.3871 -999.25 -999.25 1.0167 0.9916 0.9690 -999.25 30.8117 0.9726 0.9690 0.9670
1591.5000 17.5000 -999.25 -999.25 79.2316 -999.25 -999.25 1.0090 0.9922 0.9622 -999.25 30.1205 0.9528 0.9622 0.9533
1591.7000 17.5000 -999.25 -999.25 79.5997 -999.25 -999.25 0.9978 0.9923 0.9528 -999.25 29.2223 0.9353 0.9528 0.9381
1591.9000 17.5000 -999.25 -999.25 80.5359 -999.25 -999.25 1.0072 0.9890 0.9664 -999.25 28.6283 0.9688 0.9664 0.9721
1592.1000 17.5000 -999.25 -999.25 73.1433 -999.25 -999.25 1.0355 0.9911 0.9694 -999.25 28.2028 0.9887 0.9694 0.9939
1592.3000 17.5000 -999.25 -999.25 73.2482 -999.25 -999.25 0.9976 0.9821 0.9814 -999.25 28.1537 1.0303 0.9814 1.0211
1592.5000 17.5000 -999.25 -999.25 76.1148 -999.25 -999.25 0.9883 0.9765 0.9722 -999.25 28.1720 0.9945 0.9722 0.9679
1592.7000 17.5000 -999.25 -999.25 79.9766 -999.25 -999.25 0.9786 0.9762 0.9326 -999.25 28.1937 0.9143 0.9326 0.9180
1592.9000 17.5000 -999.25 -999.25 81.4434 -999.25 -999.25 0.9718 0.9707 0.9251 -999.25 28.2085 0.9100 0.9251 0.9094
1593.1000 17.5000 -999.25 -999.25 84.1091 -999.25 -999.25 0.9778 0.9674 0.9212 -999.25 28.2010 0.9067 0.9212 0.9079
1593.3000 17.5000 -999.25 -999.25 91.8213 -999.25 -999.25 0.9759 0.9637 0.9196 -999.25 28.0862 0.9097 0.9196 0.9109
1593.5000 17.5000 -999.25 -999.25 93.3231 -999.25 -999.25 0.9693 0.9629 0.9169 -999.25 27.9077 0.9085 0.9169 0.9046
1593.7000 17.5000 -999.25 -999.25 88.6902 -999.25 -999.25 0.9619 0.9631 0.9053 -999.25 27.7905 0.8821 0.9053 0.8795
1593.9000 17.5000 -999.25 -999.25 85.3294 -999.25 -999.25 0.9659 0.9669 0.9076 -999.25 27.8271 0.8807 0.9076 0.8913
1594.1000 17.5000 -999.25 -999.25 83.0320 -999.25 -999.25 0.9740 0.9694 0.9221 -999.25 27.8824 0.9104 0.9221 0.9089
1594.3000 17.5000 -999.25 -999.25 79.8789 -999.25 -999.25 0.9934 0.9785 0.9293 -999.25 27.9432 0.9119 0.9293 0.9147
1594.5000 17.5000 -999.25 -999.25 75.7057 -999.25 -999.25 1.0067 0.9922 0.9522 -999.25 27.8374 0.9365 0.9522 0.9400
1594.7000 17.5000 -999.25 -999.25 70.7205 -999.25 -999.25 1.0174 1.0023 0.9786 -999.25 27.6501 0.9709 0.9786 0.9698
1594.9000 17.5000 -999.25 -999.25 75.4095 -999.25 -999.25 1.0495 1.0138 0.9988 -999.25 28.2574 0.9933 0.9988 0.9994
1595.1000 17.5000 -999.25 -999.25 77.1385 -999.25 -999.25 1.0745 1.0241 1.0259 -999.25 29.1650 1.0277 1.0260 1.0106
1595.3000 17.5000 -999.25 -999.25 79.9005 -999.25 -999.25 1.0643 1.0305 1.0107 -999.25 29.2778 0.9898 1.0107 0.9931
1595.5000 17.5000 -999.25 -999.25 84.3115 -999.25 -999.25 1.0598 1.0285 1.0083 -999.25 28.8985 0.9922 1.0083 0.9958
1595.7000 17.5000 -999.25 -999.25 83.9045 -999.25 -999.25 1.0514 1.0246 1.0084 -999.25 28.5819 1.0097 1.0084 1.0091
1595.9000 17.5000 -999.25 -999.25 83.9948 -999.25 -999.25 1.0438 1.0199 0.9992 -999.25 28.3116 1.0011 0.9992 0.9959
1596.1000 17.5000 -999.25 -999.25 84.2160 -999.25 -999.25 1.0279 1.0139 0.9914 -999.25 28.2356 0.9828 0.9914 0.9765
1596.3000 17.5000 -999.25 -999.25 84.6774 -999.25 -999.25 1.0093 1.0045 0.9662 -999.25 28.2405 0.9440 0.9662 0.9368
1596.5000 17.5000 -999.25 -999.25 86.3880 -999.25 -999.25 0.9954 0.9943 0.9432 -999.25 28.2365 0.9174 0.9432 0.9176
1596.7000 17.5000 -999.25 -999.25 87.4325 -999.25 -999.25 0.9887 0.9878 0.9369 -999.25 28.2121 0.9115 0.9369 0.9119
1596.9000 17.5000 -999.25 -999.25 84.3481 -999.25 -999.25 0.9937 0.9832 0.9326 -999.25 28.1784 0.9126 0.9326 0.9156
1597.1000 17.5000 -999.25 -999.25 82.4731 -999.25 -999.25 0.9947 0.9805 0.9366 -999.25 28.1952 0.9262 0.9366 0.9248
1597.3000 17.5000 -999.25 -999.25 79.4986 -999.25 -999.25 0.9882 0.9762 0.9391 -999.25 28.2129 0.9326 0.9391 0.9311
1597.5000 17.5000 -999.25 -999.25 81.8519 -999.25 -999.25 0.9801 0.9713 0.9361 -999.25 28.2354 0.9289 0.9361 0.9264
1597.7000 17.5000 -999.25 -999.25 83.7138 -999.25 -999.25 0.9799 0.9703 0.9262 -999.25 28.2553 0.9058 0.9262 0.9059
1597.9000 17.5000 -999.25 -999.25 83.7384 -999.25 -999.25 0.9802 0.9691 0.9164 -999.25 28.2720 0.8912 0.9164 0.8928
1598.1000 17.5000 -999.25 -999.25 82.1284 -999.25 -999.25 0.9758 0.9676 0.9177 -999.25 28.2825 0.8952 0.9177 0.8965
1598.3000 17.5000 -999.25 -999.25 80.9884 -999.25 -999.25 0.9710 0.9672 0.9272 -999.25 28.2446 0.9092 0.9272 0.9080
1598.5000 17.5000 -999.25 -999.25 81.5937 -999.25 -999.25 0.9746 0.9673 0.9316 -999.25 28.2286 0.9183 0.9316 0.9187
1598.7000 17.5000 -999.25 -999.25 88.0730 -999.25 -999.25 0.9835 0.9702 0.9401 -999.25 28.2346 0.9326 0.9401 0.9301
