~Version Information
VERS.                     2.0: CWLS log ASCII Standard Version 2.00
WRAP.                      NO: One line per depth step

~Well Information Block
#MNEM.UNIT                 Value                       Information
#------------              -----                       -----------
STRT.M                    145.9000                    :START
STOP.M                   4684.9000                    :STOP
STEP.M                      0.1000                    :STEP
NULL.                     -999.25                     :NULL VALUE
COMP.         STATOIL PETROLEUM AS                    :Company
WELL.         15/9-F-15 D                             :Well
FLD .         VOLVE                                   :Field
LOC .                                                 :Location
PROV.                                                 :Province
CNTY.         MAERSK INSPIRER                         :County
STATE.                                                 :State
CTRY.         NORWAY                                  :Country
DATE.                                                 :Log Date
SRVC.                                                 :Service Company
UWI .                                                 :Unique Well Identifier
API .                                                 :API Number
LATI.         058 26' 29.706" N    DMS                :Latitude
LONG.         001 53' 15.149" E    DMS                :Longtitude
PD  .         MSL                                     :Permanent Datum
EDF .M                54.9000                         :Elevations D.F.
EGL .M               -91.0000                         :Elevations G.L.
ELZ .M                54.9000                         :Elev. Log Zero
LMF .         DF                                      :Log Measured From
MP  .         DF                                      :Drill Measured From

~Curve Information
#MNEM   .UNIT             API CODE Curve Description
#------------             -------- -----------------
DEPTH   .M            00 001 00 00:   0  Depth
BS      .inches       00 000 00 00:   5  BS:COMPOSITE:rC:NONE:v1
CALI    .inches       70 280 00 01:   6  CALI:COMPOSITE:rC:NONE:v1
DRHO    .g/cm3        45 356 01 01:   7  DRHO:COMPOSITE:rC:NONE:v1
GR      .API          30 150 01 01:   8  GR:COMPOSITE:rC:NONE:v1
NPHI    .v/v          42 890 01 01:  10  NPHI:COMPOSITE:rC:NONE:v1
PEF     .b/elec       45 358 01 01:  11  PEF:COMPOSITE:rC:NONE:v1
RACEHM  .ohm.m        95 220 00 01:  12  RACEHM:COMPOSITE:rC:NONE:v1
RACELM  .ohm.m        00 524 01 00:  13  RACELM:COMPOSITE:rC:NONE:v1
RD      .ohm.m        00 000 00 00:  14  RD:COMPOSITE:rC:NONE:v1
RHOB    .g/cm3        45 350 01 01:  15  RHOB:COMPOSITE:rC:NONE:v1
ROP     .m/hr         00 000 00 00:  17  ROP:COMPOSITE:rC:NONE:v1
RPCEHM  .ohm.m        00 000 00 00:  18  RPCEHM:COMPOSITE:rC:NONE:v1
RPCELM  .ohm.m        00 000 00 00:  19  RPCELM:COMPOSITE:rC:NONE:v1
RT      .ohm.m        00 000 00 00:  20  RT:COMPOSITE:rC:NONE:v1

~Parameter Information
#MNEM.UNIT       Value           Description
#------------    -----           -----------
RUN .         .                 :Run Number

~Other Information
# Subset of the Equinor Volve composite LAS (BinWang0213/Course-PETE4241_19SP_ProjectCode Data/Petrophysics): unused columns removed; data rows copied verbatim. Thinned to every 2nd depth sample (0.2 m) for web delivery.
PETROPHYSICAL INTERPRETATION: INPUT

# --- LOG MNEMONICS AND UNITS ---
#Depth          ABDCQF01        ABDCQF02        ABDCQF03        ABDCQF04        BS              CALI            DRHO            GR              NBGRCFM         NPHI            PEF             RACEHM          RACELM          RD              RHOB            RM              ROP             RPCEHM          RPCELM          RT             
#M              g/cm3           g/cm3           g/cm3           g/cm3           inches          inches          g/cm3           API             API             v/v             b/elec          ohm.m           ohm.m           ohm.m           g/cm3           ohm.m           m/hr            ohm.m           ohm.m           ohm.m          

~A
# ...
2887.1000 12.2500 -999.25 -999.25 3.7848 -999.25 -999.25 3.6934 3.7490 3.8989 -999.25 16.8987 4.4513 3.8989 4.4401
2887.3000 12.2500 -999.25 -999.25 4.6989 -999.25 -999.25 3.6147 3.7259 3.8255 -999.25 16.8074 4.3334 3.8255 4.3196
2887.5000 12.2500 -999.25 -999.25 5.1725 -999.25 -999.25 3.5306 3.7375 3.7380 -999.25 16.8424 4.1385 3.7380 4.1408
2887.7000 12.2500 -999.25 -999.25 4.4984 -999.25 -999.25 3.4821 3.7609 3.6247 -999.25 17.0300 3.8800 3.6247 3.8264
2887.9000 12.2500 -999.25 -999.25 5.1790 -999.25 -999.25 3.4628 3.8087 3.4908 -999.25 17.3496 3.5655 3.4908 3.5095
2888.1000 12.2500 -999.25 -999.25 4.8606 -999.25 -999.25 3.4257 3.8479 3.3763 -999.25 17.8027 3.3496 3.3763 3.3161
2888.3000 12.2500 -999.25 -999.25 4.1532 -999.25 -999.25 3.3515 3.8829 3.2959 -999.25 18.2556 3.1846 3.2959 3.1673
2888.5000 12.2500 -999.25 -999.25 4.4768 -999.25 -999.25 3.3038 3.9334 3.2316 -999.25 18.8433 3.0509 3.2316 3.0142
2888.7000 12.2500 -999.25 -999.25 3.0804 -999.25 -999.25 3.3148 4.0113 3.1595 -999.25 19.3576 2.8624 3.1595 2.8475
2888.9000 12.2500 -999.25 -999.25 2.9234 -999.25 -999.25 3.3565 4.0742 3.1080 -999.25 19.7754 2.7640 3.1080 2.7688
2889.1000 12.2500 -999.25 -999.25 3.8222 -999.25 -999.25 3.4158 4.1534 3.1299 -999.25 20.3339 2.7705 3.1299 2.7968
2889.3000 12.2500 -999.25 -999.25 4.8172 -999.25 -999.25 3.3983 4.1299 3.2446 -999.25 20.6272 3.0026 3.2446 3.0300
2889.5000 12.2500 -999.25 -999.25 5.9110 -999.25 -999.25 3.3998 4.1427 3.3786 -999.25 20.5150 3.2051 3.3786 3.2311
2889.7000 12.2500 -999.25 -999.25 5.6673 -999.25 -999.25 3.4368 4.1420 3.5172 -999.25 20.0481 3.4750 3.5172 3.5083
2889.9000 12.2500 -999.25 -999.25 4.9774 -999.25 -999.25 3.4974 4.1527 3.6591 -999.25 19.4748 3.7389 3.6591 3.7372
2890.1000 12.2500 -999.25 -999.25 5.0947 -999.25 -999.25 3.6517 4.1807 3.7832 -999.25 18.8816 3.8946 3.7831 3.9135
2890.3000 12.2500 -999.25 -999.25 5.6333 -999.25 -999.25 3.7814 4.1875 3.9084 -999.25 18.2426 4.1551 3.9084 4.1935
2890.5000 12.2500 -999.25 -999.25 5.2473 -999.25 -999.25 3.8341 4.1610 4.0046 -999.25 17.8921 4.4413 4.0046 4.4396
2890.7000 12.2500 -999.25 -999.25 4.3609 -999.25 -999.25 3.8562 4.1460 4.1003 -999.25 17.6831 4.6571 4.1003 4.6324
2890.9000 12.2500 -999.25 -999.25 4.3351 -999.25 -999.25 3.8631 4.1200 4.1292 -999.25 17.3288 4.7173 4.1292 4.6922
2891.1000 12.2500 -999.25 -999.25 4.6074 -999.25 -999.25 3.8715 4.1229 4.0952 -999.25 16.8635 4.6078 4.0952 4.5720
2891.3000 12.2500 -999.25 -999.25 4.2520 -999.25 -999.25 3.8408 4.1044 4.0381 -999.25 16.4928 4.4636 4.0381 4.4497
2891.5000 12.2500 -999.25 -999.25 4.4429 -999.25 -999.25 3.8187 4.0782 3.9905 -999.25 16.2733 4.4107 3.9905 4.4169
2891.7000 12.2500 -999.25 -999.25 4.6351 -999.25 -999.25 3.7570 4.0488 3.9859 -999.25 16.0956 4.4414 3.9859 4.4344
2891.9000 12.2500 -999.25 -999.25 4.8642 -999.25 -999.25 3.7206 4.0153 3.9465 -999.25 16.0001 4.3863 3.9465 4.3787
2892.1000 12.2500 -999.25 -999.25 5.0771 -999.25 -999.25 3.6925 3.9997 3.9063 -999.25 15.8214 4.3330 3.9063 4.3171
2892.3000 12.2500 -999.25 -999.25 5.2624 -999.25 -999.25 3.6031 3.9754 3.8436 -999.25 15.6167 4.2145 3.8436 4.1755
2892.5000 12.2500 -999.25 -999.25 5.2180 -999.25 -999.25 3.6577 3.9974 3.7854 -999.25 15.7713 4.0253 3.7854 4.0245
2892.7000 12.2500 -999.25 -999.25 5.5890 -999.25 -999.25 3.6256 3.9751 3.7299 -999.25 15.8681 3.9273 3.7299 3.9157
2892.9000 12.2500 -999.25 -999.25 5.4060 -999.25 -999.25 3.6614 3.9871 3.6744 -999.25 15.9437 3.7780 3.6744 3.7623
2893.1000 12.2500 -999.25 -999.25 5.3280 -999.25 -999.25 3.6419 3.9902 3.6793 -999.25 16.0157 3.7606 3.6793 3.8009
2893.3000 12.2500 -999.25 -999.25 6.3326 -999.25 -999.25 3.5535 3.9672 3.7050 -999.25 16.6167 3.8244 3.7050 3.7791
2893.5000 12.2500 -999.25 -999.25 8.2239 -999.25 -999.25 3.7324 4.0126 3.5312 -999.25 17.7911 3.3796 3.5312 3.3229
2893.7000 12.2500 -999.25 -999.25 8.7862 -999.25 -999.25 3.9435 4.0713 3.3198 -999.25 18.4194 2.9667 3.3198 3.0345
2893.9000 12.2500 -999.25 -999.25 8.7188 -999.25 -999.25 3.8274 4.0131 3.3272 -999.25 18.6691 2.9986 3.3272 3.0177
2894.1000 12.2500 -999.25 -999.25 7.3581 -999.25 -999.25 3.3933 3.9012 3.4538 -999.25 18.6145 3.2906 3.4538 3.2399
2894.3000 12.2500 -999.25 -999.25 4.6254 -999.25 -999.25 3.5266 3.9097 3.3530 -999.25 19.0041 3.1082 3.3530 3.0777
2894.5000 12.2500 -999.25 -999.25 5.0276 -999.25 -999.25 3.6388 3.8914 3.2988 -999.25 19.2449 3.0515 3.2988 3.1659
2894.7000 12.2500 -999.25 -999.25 4.7804 -999.25 -999.25 3.4452 3.7773 3.3801 -999.25 19.4614 3.3055 3.3801 3.3106
2894.9000 12.2500 -999.25 -999.25 5.0697 -999.25 -999.25 3.4863 3.7406 3.3989 -999.25 19.9343 3.3811 3.3989 3.4003
2895.1000 12.2500 -999.25 -999.25 5.1947 -999.25 -999.25 3.4459 3.6525 3.4362 -999.25 19.7169 3.5352 3.4362 3.6253
2895.3000 12.2500 -999.25 -999.25 4.8637 -999.25 -999.25 3.4740 3.5957 3.5284 -999.25 19.1988 3.8862 3.5284 3.9530
2895.5000 12.2500 -999.25 -999.25 4.6775 -999.25 -999.25 3.3008 3.4940 3.6602 -999.25 18.2744 4.4446 3.6602 4.5295
2895.7000 12.2500 -999.25 -999.25 4.8515 -999.25 -999.25 3.1147 3.3846 3.7063 -999.25 17.7048 4.7930 3.7064 4.6026
2895.9000 12.2500 -999.25 -999.25 5.6401 -999.25 -999.25 3.0984 3.3903 3.4912 -999.25 17.4285 4.1797 3.4912 4.1521
2896.1000 12.2500 -999.25 -999.25 5.4955 -999.25 -999.25 3.1326 3.3734 3.2555 -999.25 17.8250 3.5049 3.2555 3.4541
2896.3000 12.2500 -999.25 -999.25 5.5293 -999.25 -999.25 3.0254 3.3040 3.0195 -999.25 18.4285 3.1176 3.0195 3.1342
2896.5000 12.2500 -999.25 -999.25 5.6520 -999.25 -999.25 2.9274 3.2622 2.8718 -999.25 18.9882 2.8977 2.8719 2.9068
2896.7000 12.2500 -999.25 -999.25 6.2475 -999.25 -999.25 2.8407 3.2120 2.7984 -999.25 18.6589 2.7868 2.7984 2.7845
2896.9000 12.2500 -999.25 -999.25 6.4270 -999.25 -999.25 2.7861 3.1764 2.7613 -999.25 16.0935 2.7626 2.7614 2.7543
2897.1000 12.2500 -999.25 -999.25 5.0744 -999.25 -999.25 2.7486 3.1411 2.7102 -999.25 11.4134 2.7051 2.7102 2.6624
2897.3000 12.2500 -999.25 -999.25 4.1601 -999.25 -999.25 2.7705 3.1178 2.6456 -999.25 9.5674 2.5837 2.6456 2.5917
2897.5000 12.2500 -999.25 -999.25 3.6930 -999.25 -999.25 2.7436 3.0812 2.6360 -999.25 9.2464 2.6085 2.6360 2.6235
2897.7000 12.2500 -999.25 -999.25 3.5633 -999.25 -999.25 2.6980 3.0380 2.6449 -999.25 10.1793 2.6666 2.6449 2.6837
2897.9000 12.2500 -999.25 -999.25 4.1553 -999.25 -999.25 2.6592 3.0102 2.6550 -999.25 11.0729 2.7200 2.6550 2.7184
2898.1000 12.2500 -999.25 -999.25 4.3273 -999.25 -999.25 2.6601 2.9845 2.6475 -999.25 12.3114 2.7219 2.6475 2.7223
2898.3000 12.2500 -999.25 -999.25 3.2428 -999.25 -999.25 2.6541 2.9624 2.6375 -999.25 13.4639 2.7406 2.6375 2.7507
2898.5000 12.2500 -999.25 -999.25 3.4729 -999.25 -999.25 2.6526 2.9436 2.6475 -999.25 13.9373 2.7781 2.6475 2.7772
2898.7000 12.2500 -999.25 -999.25 4.7801 -999.25 -999.25 2.6788 2.9505 2.6560 -999.25 11.8010 2.7848 2.6560 2.7863
2898.9000 12.2500 -999.25 -999.25 5.0269 -999.25 -999.25 2.6736 2.9501 2.6641 -999.25 8.5575 2.8063 2.6641 2.8179
2899.1000 12.2500 -999.25 -999.25 4.5730 -999.25 -999.25 2.6916 2.9725 2.6977 -999.25 6.8919 2.8704 2.6977 2.8681
2899.3000 12.2500 -999.25 -999.25 4.7940 -999.25 -999.25 2.6698 2.9850 2.7146 -999.25 6.4147 2.8997 2.7146 2.8958
2899.5000 12.2500 -999.25 -999.25 4.9021 -999.25 -999.25 2.7049 3.0296 2.7170 -999.25 7.0114 2.8663 2.7170 2.8693
2899.7000 12.2500 -999.25 -999.25 4.3959 -999.25 -999.25 2.7552 3.0936 2.7286 -999.25 8.0030 2.8129 2.7286 2.8016
2899.9000 12.2500 -999.25 -999.25 3.7988 -999.25 -999.25 2.8886 3.1959 2.6869 -999.25 9.8487 2.6329 2.6869 2.6398
2900.1000 12.2500 -999.25 -999.25 4.1100 -999.25 -999.25 2.9134 3.2727 2.8316 -999.25 11.6564 2.8586 2.8316 2.8537
2900.3000 12.2500 -999.25 -999.25 3.8029 -999.25 -999.25 2.9531 3.3782 2.9698 -999.25 13.5619 3.0020 2.9699 2.9341
2900.5000 12.2500 -999.25 -999.25 3.7574 -999.25 -999.25 3.1578 3.5240 2.9905 -999.25 13.7671 2.8922 2.9905 2.9851
2900.7000 12.2500 -999.25 -999.25 4.4371 -999.25 -999.25 3.4065 3.6859 3.3029 -999.25 13.4392 3.3481 3.3028 3.4685
2900.9000 12.2500 -999.25 -999.25 4.5437 -999.25 -999.25 3.5977 3.8315 3.6662 -999.25 12.8993 3.8956 3.6661 4.1667
