~Version Information
VERS.                     2.0: CWLS log ASCII Standard Version 2.00
WRAP.                      NO: One line per depth step

~Well Information Block
#MNEM.UNIT                 Value                       Information
#------------              -----                       -----------
STRT.M                    145.9000                    :START
STOP.M                   4684.9000                    :STOP
STEP.M                      0.1000                    :STEP
NULL.                     -999.25                     :NULL VALUE
COMP.         STATOIL PETROLEUM AS                    :Company
WELL.         15/9-F-15 D                             :Well
FLD .         VOLVE                                   :Field
LOC .                                                 :Location
PROV.                                                 :Province
CNTY.         MAERSK INSPIRER                         :County
STATE.                                                 :State
CTRY.         NORWAY                                  :Country
DATE.                                                 :Log Date
SRVC.                                                 :Service Company
UWI .                                                 :Unique Well Identifier
API .                                                 :API Number
LATI.         058 26' 29.706" N    DMS                :Latitude
LONG.         001 53' 15.149" E    DMS                :Longtitude
PD  .         MSL                                     :Permanent Datum
EDF .M                54.9000                         :Elevations D.F.
EGL .M               -91.0000                         :Elevations G.L.
ELZ .M                54.9000                         :Elev. Log Zero
LMF .         DF                                      :Log Measured From
MP  .         DF                                      :Drill Measured From

~Curve Information
#MNEM   .UNIT             API CODE Curve Description
#------------             -------- -----------------
DEPTH   .M            00 001 00 00:   0  Depth
BS      .inches       00 000 00 00:   5  BS:COMPOSITE:rC:NONE:v1
CALI    .inches       70 280 00 01:   6  CALI:COMPOSITE:rC:NONE:v1
DRHO    .g/cm3        45 356 01 01:   7  DRHO:COMPOSITE:rC:NONE:v1
GR      .API          30 150 01 01:   8  GR:COMPOSITE:rC:NONE:v1
NPHI    .v/v          42 890 01 01:  10  NPHI:COMPOSITE:rC:NONE:v1
PEF     .b/elec       45 358 01 01:  11  PEF:COMPOSITE:rC:NONE:v1
RACEHM  .ohm.m        95 220 00 01:  12  RACEHM:COMPOSITE:rC:NONE:v1
RACELM  .ohm.m        00 524 01 00:  13  RACELM:COMPOSITE:rC:NONE:v1
RD      .ohm.m        00 000 00 00:  14  RD:COMPOSITE:rC:NONE:v1
RHOB    .g/cm3        45 350 01 01:  15  RHOB:COMPOSITE:rC:NONE:v1
ROP     .m/hr         00 000 00 00:  17  ROP:COMPOSITE:rC:NONE:v1
RPCEHM  .ohm.m        00 000 00 00:  18  RPCEHM:COMPOSITE:rC:NONE:v1
RPCELM  .ohm.m        00 000 00 00:  19  RPCELM:COMPOSITE:rC:NONE:v1
RT      .ohm.m        00 000 00 00:  20  RT:COMPOSITE:rC:NONE:v1

~Parameter Information
#MNEM.UNIT       Value           Description
#------------    -----           -----------
RUN .         .                 :Run Number

~Other Information
# Subset of the Equinor Volve composite LAS (BinWang0213/Course-PETE4241_19SP_ProjectCode Data/Petrophysics): unused columns removed; data rows copied verbatim. Thinned to every 2nd depth sample (0.2 m) for web delivery.
PETROPHYSICAL INTERPRETATION: INPUT

# --- LOG MNEMONICS AND UNITS ---
#Depth          ABDCQF01        ABDCQF02        ABDCQF03        ABDCQF04        BS              CALI            DRHO            GR              NBGRCFM         NPHI            PEF             RACEHM          RACELM          RD              RHOB            RM              ROP             RPCEHM          RPCELM          RT             
#M              g/cm3           g/cm3           g/cm3           g/cm3           inches          inches          g/cm3           API             API             v/v             b/elec          ohm.m           ohm.m           ohm.m           g/cm3           ohm.m           m/hr            ohm.m           ohm.m           ohm.m          

~A
# ...
4430.9000 8.5000 8.5469 0.0547 10.2219 0.1486 4.2075 1.2912 1.2386 1.2938 2.2847 31.1507 1.3901 1.2938 1.3876
4431.1000 8.5000 8.5469 0.0565 10.0164 0.1470 4.0802 1.2998 1.2418 1.2949 2.2902 31.1608 1.3779 1.2949 1.3920
4431.3000 8.5000 8.5469 0.0533 9.1723 0.1477 3.9241 1.2871 1.2426 1.3157 2.2803 31.1509 1.4412 1.3157 1.4433
4431.5000 8.5000 8.5469 0.0517 8.5167 0.1457 3.8712 1.2859 1.2378 1.3152 2.2770 31.1474 1.4405 1.3152 1.4392
4431.7000 8.5000 8.5469 0.0517 9.7025 0.1478 3.8876 1.2852 1.2384 1.3106 2.2737 31.1479 1.4235 1.3106 1.4205
4431.9000 8.5000 8.5469 0.0508 9.6918 0.1541 3.9383 1.2775 1.2345 1.2984 2.2662 31.1507 1.3936 1.2984 1.3985
4432.1000 8.5000 8.5469 0.0478 9.0730 0.1557 3.9273 1.2649 1.2319 1.3024 2.2576 31.1540 1.4106 1.3024 1.4111
4432.3000 8.5000 8.5469 0.0454 10.0905 0.1577 3.8954 1.2606 1.2258 1.3037 2.2537 31.1617 1.4334 1.3037 1.4334
4432.5000 8.5000 8.5469 0.0459 10.5285 0.1607 3.8976 1.2364 1.2172 1.2927 2.2533 31.1640 1.4373 1.2927 1.4244
4432.7000 8.5000 8.5469 0.0496 10.2476 0.1582 3.8813 1.2153 1.2141 1.2672 2.2573 31.1562 1.3782 1.2672 1.3910
4432.9000 8.5000 8.5469 0.0522 9.6609 0.1526 3.8717 1.1937 1.2087 1.2779 2.2627 31.1443 1.4172 1.2779 1.4198
4433.1000 8.5000 8.5469 0.0482 10.1998 0.1506 3.8581 1.2238 1.2121 1.2858 2.2611 31.1345 1.4291 1.2858 1.4336
4433.3000 8.5000 8.5469 0.0458 10.6763 0.1506 3.8409 1.2170 1.2140 1.2878 2.2590 31.1590 1.4296 1.2878 1.4286
4433.5000 8.5000 8.5469 0.0474 11.6177 0.1495 3.9021 1.2003 1.2136 1.2807 2.2613 31.4935 1.4050 1.2807 1.3992
4433.7000 8.5000 8.5469 0.0472 10.5524 0.1433 3.9466 1.2043 1.2199 1.2729 2.2628 31.9419 1.3563 1.2729 1.3672
4433.9000 8.5000 8.5469 0.0475 9.6227 0.1399 3.9279 1.2298 1.2261 1.2913 2.2619 32.2352 1.3886 1.2913 1.3933
4434.1000 8.5000 8.5469 0.0498 10.7550 0.1454 3.9460 1.2386 1.2290 1.2984 2.2622 32.2611 1.3987 1.2984 1.4006
4434.3000 8.5000 8.5469 0.0512 10.4687 0.1499 3.9982 1.2422 1.2335 1.3063 2.2616 32.2316 1.4062 1.3063 1.4095
4434.5000 8.5000 8.5469 0.0519 10.4138 0.1514 3.9890 1.2427 1.2391 1.3137 2.2609 32.1665 1.4271 1.3137 1.4180
4434.7000 8.5000 8.5469 0.0496 10.1815 0.1496 3.8911 1.2747 1.2466 1.3201 2.2587 32.0187 1.4188 1.3201 1.4190
4434.9000 8.5000 8.5469 0.0475 9.3043 0.1481 3.8030 1.3017 1.2569 1.3349 2.2591 31.7872 1.4190 1.3349 1.4181
4435.1000 8.5000 8.5469 0.0489 9.0322 0.1480 3.8554 1.3205 1.2687 1.3447 2.2616 31.5779 1.4215 1.3447 1.4161
4435.3000 8.5000 8.5469 0.0495 8.8652 0.1473 3.9312 1.3643 1.2830 1.3615 2.2612 31.3860 1.4203 1.3615 1.4283
4435.5000 8.5000 8.5469 0.0498 8.0481 0.1485 3.9513 1.4004 1.2972 1.3970 2.2592 31.1880 1.4759 1.3970 1.4809
4435.7000 8.5000 8.5469 0.0505 9.1733 0.1485 3.9421 1.4508 1.3084 1.4106 2.2547 31.1603 1.4893 1.4106 1.4875
4435.9000 8.5000 8.5469 0.0505 10.1052 0.1521 3.9258 1.4707 1.3178 1.4106 2.2496 31.1416 1.4728 1.4106 1.4804
4436.1000 8.5000 8.5469 0.0501 9.9441 0.1584 3.9072 1.4779 1.3239 1.4248 2.2450 31.1255 1.5125 1.4248 1.5155
4436.3000 8.5000 8.5469 0.0504 8.5704 0.1588 3.9141 1.4804 1.3253 1.4311 2.2413 31.1117 1.5551 1.4311 1.5402
4436.5000 8.5000 8.5469 0.0524 8.2749 0.1606 3.9682 1.4906 1.3319 1.4265 2.2420 31.1066 1.5340 1.4265 1.5359
4436.7000 8.5000 8.5469 0.0531 8.3307 0.1649 3.9714 1.4576 1.3329 1.4185 2.2440 31.1092 1.5155 1.4185 1.5139
4436.9000 8.5000 8.5469 0.0538 8.3450 0.1642 3.9108 1.4371 1.3354 1.4043 2.2496 31.1121 1.4798 1.4043 1.4808
4437.1000 8.5000 8.5469 0.0529 8.3330 0.1610 3.8902 1.4259 1.3374 1.3848 2.2528 31.1160 1.4406 1.3848 1.4600
4437.3000 8.5000 8.5469 0.0514 8.5067 0.1585 3.8786 1.4092 1.3377 1.3919 2.2521 31.1196 1.4723 1.3919 1.4712
4437.5000 8.5000 8.5469 0.0528 8.0592 0.1559 3.9366 1.4126 1.3375 1.3842 2.2528 31.1268 1.4704 1.3842 1.4679
4437.7000 8.5000 8.5469 0.0540 8.7432 0.1508 4.0009 1.3976 1.3346 1.3786 2.2545 31.1175 1.4596 1.3786 1.4553
4437.9000 8.5000 8.5469 0.0548 9.2977 0.1497 3.9593 1.3849 1.3307 1.3611 2.2590 31.1050 1.4243 1.3611 1.4228
4438.1000 8.5000 8.5469 0.0514 9.0753 0.1529 3.9175 1.3638 1.3283 1.3448 2.2548 31.0956 1.3992 1.3448 1.3950
4438.3000 8.5000 8.5469 0.0487 9.3567 0.1544 3.8990 1.3193 1.3220 1.3439 2.2499 31.0830 1.4282 1.3439 1.4343
4438.5000 8.5000 8.5469 0.0514 9.4683 0.1508 3.8521 1.2804 1.3163 1.3434 2.2577 31.0721 1.4644 1.3434 1.4693
4438.7000 8.5000 8.5469 0.0522 9.2011 0.1477 3.9076 1.2581 1.3160 1.3519 2.2636 31.0722 1.5027 1.3519 1.5090
4438.9000 8.5000 8.5469 0.0515 10.1473 0.1520 4.0244 1.2461 1.3155 1.3669 2.2638 30.9635 1.5405 1.3669 1.5490
4439.1000 8.5000 8.5469 0.0528 10.3966 0.1532 4.0755 1.2167 1.3171 1.3871 2.2647 30.8539 1.6290 1.3871 1.6210
4439.3000 8.5000 8.5469 0.0579 11.0682 0.1519 4.1070 1.2308 1.3233 1.4050 2.2716 31.0248 1.6584 1.4050 1.6540
4439.5000 8.5000 8.5469 0.0576 10.6844 0.1529 4.0616 1.2569 1.3395 1.4031 2.2715 31.0949 1.6429 1.4030 1.6391
4439.7000 8.5000 8.5469 0.0520 10.3755 0.1503 4.0051 1.2706 1.3475 1.4051 2.2661 31.0986 1.6447 1.4051 1.6443
4439.9000 8.5000 8.5469 0.0484 10.1014 0.1481 4.0216 1.3081 1.3630 1.4260 2.2632 31.1093 1.6560 1.4260 1.6526
4440.1000 8.5000 8.5469 0.0456 9.4435 0.1483 4.0386 1.3568 1.3846 1.4544 2.2598 31.1152 1.6627 1.4543 1.6601
4440.3000 8.5000 8.5469 0.0413 9.1054 0.1499 4.0554 1.3714 1.3922 1.4584 2.2561 31.1433 1.6600 1.4584 1.6178
4440.5000 8.5000 8.5469 0.0414 9.2543 0.1494 4.1303 1.4063 1.4115 1.4414 2.2611 31.1829 1.5670 1.4414 1.5615
4440.7000 8.5000 8.5469 0.0476 10.1652 0.1453 4.1087 1.4126 1.4227 1.4362 2.2722 31.2036 1.5293 1.4362 1.5300
4440.9000 8.5000 8.5469 0.0457 13.1585 0.1495 4.1468 1.3970 1.4250 1.4426 2.2715 31.1692 1.5478 1.4426 1.5391
4441.1000 8.5000 8.5235 0.0444 15.5469 0.1580 4.2844 1.4421 1.4364 1.4441 2.2781 31.1224 1.5143 1.4441 1.5163
4441.3000 8.5000 8.5003 0.0490 15.0069 0.1621 4.2445 1.4370 1.4434 1.4420 2.2872 31.1157 1.5081 1.4420 1.5032
4441.5000 8.5000 8.5466 0.0499 13.8088 0.1657 4.0515 1.4492 1.4435 1.4357 2.2779 31.1671 1.4846 1.4357 1.4776
4441.7000 8.5000 8.5469 0.0491 12.8376 0.1617 3.9446 1.4522 1.4518 1.4380 2.2645 31.2148 1.4739 1.4380 1.4767
4441.9000 8.5000 8.5000 0.0488 12.6244 0.1568 3.9488 1.4643 1.4531 1.4482 2.2584 31.2345 1.4976 1.4482 1.5054
4442.1000 8.5000 8.5466 0.0514 9.9907 0.1551 3.9306 1.4920 1.4611 1.4697 2.2618 31.0852 1.5457 1.4697 1.5465
4442.3000 8.5000 8.5003 0.0547 9.0260 0.1529 3.8944 1.4971 1.4666 1.5008 2.2644 30.7657 1.5964 1.5008 1.5932
4442.5000 8.5000 8.5003 0.0571 9.1983 0.1497 3.9277 1.5162 1.4760 1.5129 2.2629 30.2461 1.6217 1.5129 1.6287
4442.7000 8.5000 8.5469 0.0549 9.3516 0.1459 3.9012 1.5290 1.4796 1.5387 2.2567 29.8630 1.6787 1.5387 1.6949
4442.9000 8.5000 8.5001 0.0509 9.3028 0.1537 3.8397 1.5591 1.4890 1.5802 2.2485 29.6417 1.7717 1.5802 1.7727
4443.1000 8.5000 8.5466 0.0486 9.3436 0.1493 3.8449 1.5982 1.4951 1.6160 2.2431 29.3964 1.8673 1.6160 1.8658
4443.3000 8.5000 8.5000 0.0498 9.6550 0.1475 3.8660 1.6328 1.5055 1.6204 2.2462 29.1405 1.8284 1.6204 1.8424
4443.5000 8.5000 8.5003 0.0553 10.7884 0.1457 3.9340 1.6120 1.4956 1.6253 2.2552 28.8642 1.8373 1.6252 1.8211
4443.7000 8.5000 8.5469 0.0540 11.2188 0.1544 4.0095 1.5716 1.4903 1.6115 2.2551 28.8055 1.8462 1.6115 1.8338
4443.9000 8.5000 8.5469 0.0432 10.9862 0.1646 4.1288 1.5861 1.4945 1.6033 2.2523 28.7956 1.7917 1.6033 1.8322
4444.1000 8.5000 8.5469 0.0295 10.3609 0.1704 4.3736 1.6325 1.4954 1.6427 2.2583 28.7813 1.8808 1.6427 1.9105
4444.3000 8.5000 8.5469 0.0211 10.4158 0.1684 4.6968 1.6629 1.4983 1.6823 2.2762 28.7967 2.0277 1.6823 2.0209
4444.5000 8.5000 8.5469 0.0196 10.9335 0.1644 4.9420 1.6499 1.4961 1.7046 2.3007 28.8229 2.0566 1.7046 2.0572
4444.7000 8.5000 8.5469 0.0197 10.2914 0.1651 4.8946 1.6735 1.4935 1.7184 2.3089 28.8056 2.1046 1.7184 2.1269
4444.9000 8.5000 8.5470 0.0199 10.2976 0.1614 4.6186 1.6302 1.4878 1.7210 2.3037 28.8098 2.1569 1.7210 2.1352
4445.1000 8.5000 8.5469 0.0242 9.7774 0.1566 4.4602 1.6099 1.4850 1.6867 2.3018 28.8219 2.0107 1.6867 1.9752
4445.3000 8.5000 8.5469 0.0248 8.9358 0.1532 4.4616 1.6308 1.4969 1.6180 2.3046 28.7929 1.8510 1.6180 1.8234
4445.5000 8.5000 8.5469 0.0215 9.1408 0.1533 4.5673 1.6230 1.4878 1.6036 2.3179 28.7949 1.7912 1.6036 1.8076
